total_cost,name,longitude,latitude
1317.4399999999996,THE WILLESDEN MEDICAL CENTRE,-0.233873,51.547532
870.8500000000001,EASTMEAD AVENUE SURGERY,-0.36274,51.531443
344.13,KINCORA DOCTORS SURGERY,-0.412216,51.511666
371.86,DR M GOYAL'S PRACTICE,0.156711,51.540066
2129.82,TOLLGATE MEDICAL CENTRE,0.056362,51.515573
1709.8800000000006,HETHERINGTON GROUP PRACTICE,-0.12823,51.460932
539.2200000000001,SELHURST MEDICAL PRACTICE,-0.088969,51.390012
1896.8600000000006,THE WATERFIELD PRACTICE,-0.733923,51.409204
946.61,JERICHO HEALTH CENTRE,-1.265958,51.760293
1635.38,PONTESBURY MEDICAL PRAC,-2.887922,52.650521
1499.39,TUTBURY HEALTH CENTRE,-1.686361,52.858454
1354.11,TEAN SURGERY,-1.988036,52.954415
990.34,WAKE GREEN SURGERY,-1.883357,52.446103
5967.080000000003,THORNLEY STREET MEDICAL CENTRE,-2.125789,52.58843
1015.99,MEREPARK MEDICAL CENTRE,-2.300747,53.093285
1037.0600000000004,RAINHILL VILLAGE SURGERY,-2.763813,53.41631
1224.6700000000005,MILE LANE HEALTH CENTRE,-2.335248,53.587814
1294.5299999999995,NEW ISLINGTON MEDICAL CENTRE,-2.219472,53.4829
1806.5,CLARENDON MEDICAL CENTRE,-2.079951,53.45264
1300.0800000000004,BRAITHWAITE RD SURGERY,-2.574985,53.477412
2443.2000000000007,WOODGRANGE MEDICAL PRACTICE,0.025253,51.548596
954.3799999999997,JARVIS MEDICAL PRACTICE,-2.095095,53.537786
261.53,DR SP TALPAHEWA,-0.260303,51.616115
2255.2900000000004,WIRRAL WIC (APH)_WIC APH,-3.096815,53.36964
4864.950000000002,IC24 LTD (NORFOLK & WISBECH OOH),0.891514,51.129106
1539.7300000000007,BRANDON MEDICAL PRACTICE,0.6233,52.448489
1086.67,BOLTON MEDICAL CENTRE,-2.431399,53.56543
605.94,THE MANSELL ROAD PRACTICE,-0.358969,51.525654
1313.4,WESTCROFT HEALTH CENTRE,-0.795699,52.006367
1280.7100000000005,FOUNDATIONS,-1.257899,54.563441
3084.35,(FRACTURE CLINIC) NORTH OOH,-0.883829,52.236068
1530.86,READING WALK-IN HEALTH CENTRE,-0.9758960000000002,51.454809
36.32,CARLISLE LOCALITY PRIMARY CARE SERVICES,-2.8956419999999996,54.892234
5364.58,MERSEYCARE NHS TRUST - NMP,-2.933499,53.407265
425.02,BRADFORD DISTRICT CARE TRUST,-1.788605,53.839675
2.29,PUBLIC HEALTH SERVICES,0.020377,51.403879
3.42,GP EXTENDED HOURS SERVICE,-0.62317,54.485919
95.32,CORRINGHAM HUB,0.42690200000000006,51.513843
739.6599999999999,NORTH TYNESIDE CARE PLUS,-1.456596,55.011193
584.3499999999998,KINGSTON CCG SLDUC OOH,-0.283378,51.412517
279.38000000000005,8 TO 8 TOP-UP HUB QMH,0.101687,51.419041
25.14,OPTIMUSEXTENDEDACCESS,-0.596637,53.18754
659.1,SUFFOLK GP FEDERATION OOH,1.164244,52.044508
3428.2699999999995,LOWTHER MEDICAL CENTRE,-3.586392,54.545056
2281.290000000001,COLLEGE LANE SURGERY,-1.336292,53.644573
1446.37,THE SURGERY CLIFTON ROAD,-1.737497,53.013356
2137.390000000001,THE ORCHARD MED PRACTICE,-1.231693,52.533972
4810.190000000001,MUNRO MEDICAL CENTRE,-0.147427,52.794037
1206.3000000000004,MOSBOROUGH HEALTH CENTRE,-1.364873,53.325238
2771.010000000001,ORCHARD SURGERY MELBOURN,0.020092,52.080651
2980.94,HIGH STREET SURGERY,1.756043,52.482123
1442.8599999999994,ANDAMAN SURGERY,1.715485,52.45691600000001
5095.96,STANMORE MEDICAL GROUP,-0.204612,51.913274
1845.89,PUCKERIDGE & STANDON SURGERY,0.019374,51.888296
2748.9599999999987,KING GEORGE SURGERY,-0.206096,51.907416
2171.59,COMMONWEALTH HEALTH CENTRE,0.36308,51.463166
1472.7299999999993,KEATS GROUP PRACTICE,-0.17103,51.555534
1503.4199999999996,BURNT ASH SURGERY,0.009913000000000002,51.452782
2405.62,HILLVIEW MEDICAL CENTRE,-0.557727,51.315501
3030.760000000001,DOWNING STREET GROUP PRACTICE,-0.7989009999999998,51.212905
944.8399999999997,ASHBURTON PARK MEDICAL CENTRE,-0.064221,51.384147
1135.59,TAMWORTH HOUSE MEDICAL CENTRE.,-0.146254,51.40122
3128.05,PARKSIDE PRACTICE,-1.353169,50.970948
1335.9299999999996,ST.PETERS SURGERY,-1.372792,50.897829
514.97,NEATH HILL HEALTH CENTRE,-0.747321,52.060411
1286.34,BATHEASTON MEDICAL CENTRE,-2.317387,51.406032
1556.9000000000005,DARTMOUTH MEDICAL PRACTICE,-3.580811,50.351157
2233.29,DARTFORD EAST HEALTH CENTRE,0.236914,51.440747
2605.97,CHURCH STREET PRACTICE,-0.459783,51.37345
1711.3099999999995,THE GREYSWOOD PRACTICE,-0.144853,51.419489
1416.1,BOLINGBROKE MEDICAL CENTRE (THMP),-0.168282,51.45617
1213.57,LEYBOURNE SURGERY,-1.88721,50.758437
1476.1699999999994,THE BORDER PRACTICE,-0.740565,51.240995
2770.03,PATFORD HOUSE PARTNERSHIP,-2.005519,51.437601
559.26,CHATHAM STREET SURGERY,-0.981895,51.455924
3618.589999999999,THE CROSS KEYS PRACTICE,-0.830848,51.723655
1881.1,WHITELADIES MEDICAL GROUP,-2.612382,51.465097
990.06,HILLCREST SURGERY,-2.431687,51.311982
1502.6900000000005,DEVON SQUARE SURGERY,-3.60508,50.529985
920.47,ESTOVER SURGERY,-4.0952,50.411271
1396.7700000000007,THE ROYAL WELL SURGERY,-2.0815,51.906706
719.8499999999997,APSLEY SURGERY,-2.187008,53.035377
1038.86,THE LIMES SURGERY MEDICAL CENTRE,-2.114052,52.456884
1201.2500000000002,ASHFIELD ROAD SURGERY,-2.132841,52.62604399999999
2071.7700000000004,NORTHGATE MEDICAL CENTRE,-2.892972,53.19509300000001
2643.8299999999995,RIVERSIDE SURGERY,-3.006197,53.372004
2020.3400000000006,LAYTON MEDICAL CENTRE,-3.027291,53.827425
1932.28,HT PRACTICE,-2.110496,53.478305
1162.1,WESTLEIGH MEDICAL PRACTICE,-2.526024,53.510851
592.8200000000002,MEDICUS HEALTH PARTNERS-CURZON AVENUE,-0.036518,51.645435
693.39,WINDMILL SURGERY,-1.48555,52.449933
694.1199999999999,ARNOS GROVE MEDICAL CENTR,-0.129838,51.615476
292.86000000000007,ST.QUINTIN HEALTH CENTRE,-0.220325,51.519199
255.83000000000004,GPSI DERMATOLOGY SERVICE BUCKDEN HUNTS,-0.254174,52.291764
3029.78,PARK COMMUNITY PRACTICE,-1.871717,53.725678
3.24,NT&H COMM CARDIAC N,-1.227837,54.702398
668.75,WALTHAM FOREST CCG(NMP-COMMUNITY HEALTH),-0.022546,51.616083
4.01,ENFIELD COMMUNITY GYNAECOLOGY SERVICE,-0.101361,51.659225
18.1,OPHTHALMOLOGY-COT-JG,0.440508,51.298688
3.39,CAMDEN COMMUNITY NURSING,-0.131658,51.53665
27.54,CHELTENHAM LOCALITY NURSE PRESCRIBER,-2.176389,51.847073
152.98000000000005,N&S COMMUNITY DERMATOLOGY CLINIC,-1.032629,53.141866
360.89,COMMUNITY DERMATOLOGY SOUTHWARK GSTT,-0.08679399999999998,51.503466
109.65,CHESTERFIELD HEALTH PROVIDER LTD,-1.43962,53.233943
350.84,MELROSE SURGERY,-1.287301,54.609397
1428.3200000000006,BLACKETTS MEDICAL PRACTICE,-1.559007,54.527221
803.55,DR A SINHA,-0.108523,53.567689
1753.89,WILLINGTON SURGERY,-1.566835,52.850285
1707.8000000000004,UPWELL STREET SURGERY,-1.434724,53.406424
2531.8099999999995,LAKENHAM SURGERY,1.296577,52.6183
1498.7399999999998,MANOR FARM MEDICAL CENTRE,0.690513,52.648544
1239.64,PLOWRIGHT MEDICAL CENTRE,0.686691,52.655577
2209.22,REGAL CHAMBERS SURGERY,-0.275959,51.952843
731.0200000000002,STANHOPE SURGERY,-0.032073,51.688002
369.56000000000006,THE GARWAY MEDICAL PRACTICE,-0.185494,51.515392
2392.96,BEECHWOOD SURGERY,0.292731,51.608567
2104.15,THE NIGHTINGALE PRACTICE,-0.062434,51.558261
1721.2299999999993,THE GRAHAM PRACTICE,0.048721,51.541534
2814.75,ISLAND HEALTH,-0.013513,51.495357
2106.1000000000013,STANFORD MEDICAL CENTRE,-0.148293,50.838378
2552.38,NEWINGTON ROAD SURGERY,1.399222,51.343459
2250.5100000000007,BELVEDERE MEDICAL CENTRE,0.144376,51.482567
2359.0699999999993,ST.LAWRENCE SURGERY,-0.390026,50.823979
4448.29,MID SUSSEX HEALTH CARE,-0.175279,50.933719
1262.1600000000005,THE WHITELEY SURGERY,-1.266072,50.88262
6387.02,ACORN HEALTH PARTNERSHIP,-1.114058,51.245047
9730.98,PORTSDOWN GROUP PRACTICE,-1.080952,50.812876
3314.21,THE ELMS PRACTICE,-0.976476,50.789794
1375.6200000000006,ESPLANADE SURGERY,-1.158697,50.731943
712.7099999999998,GLASTONBURY HEALTH CENTRE,-2.712893,51.148733
2692.8099999999995,MAYFIELD SURGERY,-2.13456,52.982709
1320.6699999999996,BRIDGE MEDICAL,-1.506726,55.038077
476.46000000000015,WINDSOR MEDICAL CENTRE,-1.622157,53.693875
990.69,ASHBOURNE MEDICAL PRACTICE,-1.737589,53.012862
1455.77,THE UPPINGHAM SURGERY,-0.723557,52.594972
2244.7000000000007,ABBEY MEDICAL GROUP,-1.119194,53.100674
1445.4199999999996,LOWMOOR ROAD SURGERY,-1.244634,53.100062
2273.5,BIRLEY HEALTH CENTRE,-1.396985,53.340317
2395.71,PARKFIELD MEDICAL CENTRE,-0.179588,51.695129
869.9099999999999,REDWOOD PRACTICE,-0.359614,51.461125
561.61,SUNRISE MEDICAL CENTRE,-0.382255,51.51087
1425.86,THE THORPE BAY SURGERY,0.757986,51.534599
678.9499999999998,HOLBORN MEDICAL CENTRE,-0.118539,51.522233
792.52,BRICK LANE SURGERY,-0.048612,51.657327
362.89,ABBEY COURT,0.26122,51.137755
1208.71,ELM LODGE SURGERY,-0.096232,51.451506
1460.3200000000004,HUDSON (SEYMOUR HOUSE),-0.292773,51.462401
1094.3300000000004,OPEN DOOR SURGERY,-0.155581,51.443166
2106.14,THE LIGHTHOUSE GROUP PRACTICE,-1.0805049999999998,50.796551
1601.31,THE ORCHARD PARTNERSHIP,-1.865867,51.077878
2660.13,WHADDON MEDICAL CENTRE,-0.7662759999999998,52.000308
2068.1999999999994,SONNING COMMON HEALTH CTR,-0.982114,51.515603
3808.8900000000012,LANDER MEDICAL PRACTICE,-5.055864,50.259982
1142.5300000000004,BROSELEY MEDICAL PRACTICE,-2.481266,52.611554
408.69,BONEY HAY SURGERY,-1.926768,52.690328
1955.82,BEECH TREE MEDICAL PRACTICE,-1.252936,52.377534
847.8799999999997,ALUM ROCK MEDICAL CENTRE,-1.850664,52.489901
604.3,GREENFIELD MEDICAL CENTRE,-1.855764,52.491684
852.0599999999998,THE SURGERY,-2.605295,53.024859
1246.4499999999996,PARKGATE SURGERY,-2.882743,53.564772
2260.1700000000005,MARPLE MEDICAL PRACTICE,-2.064954,53.39495
7.710000000000002,STORTHFIELD HOUSE,-1.332746,53.097559
161.26,WORKINGTON HEALTH LIMITED,-3.551342,54.642687
819.1500000000002,CLOVER CITY PRACTICE,-1.46659,53.38187
327.81,WLCCG EXTENDED HOURS HUBS,-0.217218,51.522362
179.67,NEWARK ACUTE HOME VISITING SERVICE,-1.238124,52.98146
122.41,I HEART BARNSLEY OOH,-1.4569,53.543072
1373.79,ASPATRIA MEDICAL GROUP,-3.337992,54.762123
3759.14,WILLIAM BROWN CENTRE,-1.33142,54.757994
1720.2800000000002,WELLSPRING MEDICAL PRACT.,-1.564066,55.037289
760.7299999999998,RED HOUSE MEDICAL CENTRE,-1.424063,54.925457
2610.690000000001,COLNE VALLEY GROUP PRACTICE,-1.9282130000000002,53.602096
434.62,FAMILY DOCTORS,-1.440964,53.798248
1262.7000000000005,ROYSTON GROUP PRACTICE,-1.451018,53.600005
1028.5399999999997,SOUTHEY GREEN MEDICAL CTR,-1.477666,53.419051
2939.6200000000013,IVRY STREET MEDICAL PRACTICE,1.148624,52.064021
3679.5600000000013,NORTH FULHAM SURGERY,-0.199224,51.486415
60.67,FULHAM CROSS MEDICAL CENTRE,-0.214067,51.482774
104.87,LAI CHUNG FONG QUEENS PARK HEALTH CENTRE,-0.205826,51.530911
1654.5399999999993,NEWBURY GROUP PRACTICE,0.085981,51.576435
9542.869999999997,HARDWICKE HOUSE GROUP PRACTICE,0.725792,52.0382
2323.64,WHEATFIELD SURGERY,-0.495144,51.904445
395.67,BRAMPTON HEALTH CENTRE,-0.277386,51.586099
643.7299999999998,DOCKLANDS MEDICAL CENTRE,-0.021143,51.491152
2114.2200000000007,BELMONT SURGERY,0.340829,51.061952
674.36,LONG CATLIS ROAD SURGERY,0.595579,51.348325
1145.2599999999998,ABBEY WOOD SURGERY,0.11653,51.497094
1125.16,WOOLSTONE MEDICAL CENTRE,-0.036776,51.438421
831.18,MINET GREEN HEALTH PRACTICE,-0.105204,51.475715
796.5699999999998,SOUTHGATE MEDICAL GROUP,-0.194559,51.102316
1437.3700000000006,NEW ADDINGTON GROUP PRACTICE,-0.018557,51.344382
817.57,BANBURY ROAD MEDICAL CENTRE,-1.263535,51.774771
2627.2199999999993,THE ARMADA FAMILY PRACTICE,-2.571861,51.413438
1878.7499999999993,STAFFORD MEDICAL GROUP,-2.914755,51.35259
1537.0999999999995,BROCKWORTH SURGERY,-2.156696,51.844575
4705.8899999999985,SEVERN VALLEY MEDICAL PRACTICE,-2.235045,52.190415
2476.32,DAWLEY MEDICAL PRACTICE,-2.466781,52.664322
2021.48,LEEK HEALTH CENTRE,-2.019347,53.105691
1235.27,CHASE MEADOW HEALTH CENTRE,-1.608604,52.268838
160.07000000000005,HILL TOP PRACTICE,-2.011775,52.537791
457.06,MAGHULL HEALTH CENTRE (DR SAPRE),-2.943932,53.515597
2580.7700000000004,LIME SQUARE MEDICAL CENTRE,-2.164901,53.473649
566.9200000000002,WINDERMERE SURGERY,-2.205709,53.55956
852.41,BEESTON VILLAGE SURGERY,-1.569152,53.772415
1067.19,HATTON MEDICAL PRACTICE,-0.433285,51.457879
309.82,BLURTON MEDICAL CENTRE,-2.156565,52.972002
132.85,GREAT CHAPEL STREET MEDICAL CENTRE,-0.134097,51.51508
957.1500000000002,HASTINGS AND ROTHER OOH,0.891514,51.129106
95.19,A&E GPS,-2.629091,53.55774
2150.71,BIRBECK MEDICAL GROUP,-2.742581,54.656125
1594.85,BEWICK ROAD SURGERY,-1.601653,54.956398
581.7299999999998,WENLOCK ROAD SURGERY,-1.455226,54.972635
2105.55,WINTERTON MEDICAL PRACTICE,-0.606876,53.652511
1396.5599999999995,THE OLD SCHOOL MEDICAL PRACTICE,-1.1424040000000002,53.916163
1644.9,KEIGHLEY ROAD SURGERY,-1.893907,53.754239
1348.6999999999996,MULBERRY STREET MEDICAL PRACTICE,-1.66397,53.794738
1763.64,CHATSWORTH ROAD MEDICAL CENTRE,-1.467337,53.231374
968.6500000000003,CRICH MEDICAL PRACTICE,-1.482573,53.084327
951.3099999999998,MEXBOROUGH HEALTH CENTRE,-1.279795,53.494237
5377.7,ST VINCENT MEDICAL CENTRE,-1.124029,53.525476
1108.02,LUDHAM AND STALHAM GREEN SURGERIES,1.534423,52.709131
2.2,HAVEN COURT,-1.428468,54.971208
2239.59,BENTHAM ROAD HEALTH CENTRE,-2.50627,53.73058399999999
4.9,ROTHERHAM HOSPICE,-1.340784,53.424046
897.5,CRESWELL AND LANGWITH MEDICAL CENTRE,-1.215835,53.262654
51.51,INHEALTH NWCATS,-2.163393,53.602382
23.74,ST LUKES HOSPICE,0.456959,51.5576
84.28999999999998,UHMB COMMUNITY NMP,-2.799232,54.042726
0.77,PRIMARY CARE ACCESS SERVICE,-2.134034,53.450605
2153.8699999999994,NORWOOD MEDICAL CENTRE,-3.222974,54.119201
2488.4400000000005,BEECHWOOD GROUP PRACTICE,-3.545472,54.642376
3781.04,DENMARK STREET SURGERY,-1.552252,54.538825
2177.4599999999996,WELL CLOSE MEDICAL GROUP,-2.006127,55.77245799999999
1936.61,PALLION FAMILY PRACTICE,-1.414195,54.908604
1553.5299999999993,PICTON MEDICAL CENTRE,-1.77624,53.807296
1974.02,PARKSIDE MEDICAL CENTRE,-0.021998,52.981526
4995.319999999999,ORCHARD MEDICAL PRACTICE,-1.206764,53.141121
2515.0600000000004,THE BURNS PRACTICE,-1.12309,53.520707
2456.4,WINCOBANK MEDICAL CENTRE,-1.416316,53.419405
1685.0000000000002,UEA MEDICAL CENTRE,1.241391,52.622369
689.3000000000002,THE VILLAGE SURGERY,-0.168135,51.648069
889.91,THE STREATFIELD MEDICAL CENTRE,-0.30083,51.595343
305.72,THE CHELSEA PRACTICE,-0.166915,51.486814
2290.82,ST. BARTHOLOMEWS SURGERY,0.051755,51.532409
1878.2,RYDAL,0.020102,51.608432
2658.540000000001,GROSVENOR & ST JAMES MEDICAL CENTRE,0.264349,51.137424
658.24,KING GEORGE ROAD SURGERY,0.518518,51.348911
477.17,THE THREE ZERO SIX MEDICAL CENTRE,-0.076403,51.450741
961.7300000000001,VIRGINIA WATER MEDICAL PRACTICE,-0.568235,51.403367
1381.22,NEW OTTERSHAW SURGERY,-0.526005,51.361938
1086.46,THE ALTON PRACTICE,-0.239471,51.44914
7021.060000000002,THE WILLOW GROUP,-1.143034,50.800579
1906.8100000000006,ALEXANDER HOUSE SURGERY,-0.7520019999999998,51.293749
3580.1,RIDGEWAY VIEW FAMILY PRACTICE,-1.7915709999999998,51.524175
3561.6700000000005,GREEN MEADOWS SURGERY,-0.677163,51.426939
1721.6600000000005,PORT VIEW SURGERY,-4.214351,50.40735
4359.370000000001,CHURCHDOWN SURGERY,-2.171559,51.882487
3148.970000000001,STANMORE HOUSE SURGERY,-2.231468,52.391138
1640.64,WARGRAVE HOUSE SURGERY,-2.712261,52.055418
1229.7800000000002,VENTNOR MEDICAL CENTRE,-1.203791,50.594548
1985.02,THE HALL PRACTICE,-0.561016,51.606986
1481.3799999999994,WEST VIEW SURGERY,-2.50212,51.411923
395.35,HARTLAND SURGERY,-4.482549,50.992721
1931.96,STATION DRIVE SURGERY,-2.715141,52.370132
5108.979999999999,SOLIHULL HEALTHCARE PARTNERSHIP,-1.775235,52.419642
2058.82,CONCEPT HOUSE SURGERY,-2.98492,53.449136
2812.9800000000005,ADELAIDE STREET SURGERY,-3.048397,53.817351
1896.54,LOCKWOOD GP SURGERY,-2.989833,53.850947
676.69,CAVENDISH HEALTH CENTRE,-0.148092,51.519331
5321.480000000001,BROWNLOW GROUP PRACTICE,-2.96585,53.405021
570.6,HEATHROW MEDICAL CENTRE,-0.433924,51.49302
410.4,THE ENTERPRISE PRACTICE,-0.320613,51.601113
2.86,COMMUNITY GYNAE SERVICE,-1.555879,53.778323
1675.3299999999995,ODDFELLOWS HALL & ST CLEMENTS,0.327906,51.480703
16.02,COMMUNITY GERIATRICIAN SERVICE,-1.568473,53.81497099999999
11.06,COMMUNITY ENT SERVICE,-2.146398,52.465406
60.49,WYRE FOREST COMMUNITY NURSES,-2.244954,52.387785
789.7899999999998,CHAUCER SURGERY,-1.45237,52.515151
2225.92,THE ENDEAVOUR PRACTICE,-1.235397,54.575047
1580.6199999999994,THE LAKES MEDICAL PRACTICE,-2.742581,54.656125
1289.36,EAST PARADE SURGERY,-1.529793,53.996354
724.8,FIELDHEAD SURGERY,-1.639379,53.831787
1106.1999999999996,BASLOW HEALTH CENTRE,-1.617823,53.246144
2200.9700000000007,OSMASTON SURGERY,-1.467954,52.911084
490.49,ASQUITH SURGERY,-1.117116,52.601489
3310.24,HOLBEACH MEDICAL CENTRE,0.014430000000000002,52.804778
879.4300000000003,YEADING MEDICAL CENTRE,-0.397019,51.533634
200.90000000000003,MAYFAIR MEDICAL CENTRE,-0.150172,51.513536
1030.63,SUN LANE,1.087469,51.071536
1852.05,LYDDEN SURGERY,1.23991,51.163193
1350.4799999999998,THE CHURCH VIEW PRACTICE,0.609995,51.363412
878.0700000000003,TRIANGLE GROUP PRACTICE,-0.011071,51.457798
2445.449999999999,SELSDON PARK MEDICAL PRACTICE,-0.06457300000000002,51.342409
663.1999999999998,LAMBOURN SURGERY,-1.526933,51.504696
1711.14,BICESTER HEALTH CENTRE,-1.157239,51.896742
2704.92,FOWEY RIVER PRACTICE,-4.635394,50.337915
3285.570000000001,KNOWLE HOUSE SURGERY,-4.134098,50.40863
1564.3000000000004,HOLTS HEALTH CENTRE,-2.406966,51.931555
2189.71,CUMBERLAND HOUSE,-2.145844,52.901549
1211.0800000000004,BILBROOK MEDICAL CENTRE,-2.181749,52.624775
885.8,VALE OF RED HORSE,-1.510351,52.15797
1221.01,BALSALL COMMON & MERIDEN GROUP PRACTICE,-1.643862,52.394956
2633.86,LANCE LANE MEDICAL CENTRE,-2.911916,53.396196
790.8900000000001,DR A GUPTA BENIM MEDICAL CENTRE,-2.947804,53.419395
2586.22,DINAS LANE MEDICAL CENTRE,-2.861513,53.417388
10012.380000000003,LANCASTER MEDICAL PRACTICE,-2.797202,54.047583
203.32,DR GWD BHIMA,-2.154239,53.611617
1905.11,RIVERSIDE MEDICAL CENTRE,-2.672299,53.748112
712.48,LITTLETOWN FAMILY MED PRACT,-2.134298,53.529137
2024.43,NEW COURT SURGERY,-2.30878,52.113538
667.72,THE BARHAM & CLAYDON SURGERY,1.109866,52.110175
3353.2000000000007,SWANWOOD PARTNERSHIP,0.519034,51.613356
284.97,NIGHTINGALE HOUSE,-0.159747,51.449354
559.38,CROWN WOOD MEDICAL CENTRE,-0.736934,51.395919
157.66999999999996,CITY REACH HEALTH SERVICES,1.288137,52.633042
1395.1799999999996,THE JUNCTION SURGERY,-1.759212,53.643662
511.81000000000006,DORKING HEALTHCARE LLP,-0.333421,51.225985
4871.38,BADGER GROUP OOH,-1.8778259999999998,52.477589
1006.44,DURNFORD DERMATOLOGY CATS,-2.197033,53.554038
1206.2799999999995,GREAT BRIDGE HEALTH CENTRE,-2.02775,52.527792
4595.199999999997,PELC REDBRIDGE OOH,0.066648,51.55684
1206.98,BCH URGENT CARE CENTRE,-2.583357,51.412858
887.4799999999998,NON MEDICAL PRESCRIBING SOUTHEND CCG,0.702782,51.583955
322.84,COMMUNITY NURSING (SOUTH TEES),-1.215564,54.570237
63.91,NCH&C COMMUNITY NURSES (SOUTH),1.114575,52.570034
497.03,WEST HERTS RESPIRATORY SERVICE,-0.468578,51.750846
91.43,FITZWILLIAM HOSPITAL,-0.297549,52.576469
14.44,DGS HEALTH,0.343258,51.435153
9.38,DARLINGTON PALLIATIVE CARE,-1.567053,54.529074
942.04,GREENWOOD SURGERY,0.605168,51.653143
12.98,LEEDS INTEGRATED SEXUAL HEALTH SERVICE,-1.544048,53.80163
112.01,RAMSAY HEALTHCARE UK,-2.076674,52.457813
896.7799999999997,EN HERTS ACUTE IN-HOURS VISITING SERVICE,-0.191727,51.782567
149.73999999999995,PARTNERSHIP STOKE,-2.109085,52.810605
3.42,MERTON CCG-CLCH (NMP),-0.199155,51.47377
1.79,EAST BIRMINGHAM LCN FLEX PILOT,-1.817518,52.478024
702.69,GP SERVICES - GP HUBS,-0.175734,51.240416
1938.6900000000005,MIDDLE CHARE MEDICAL GROUP,-1.573113,54.855636
1128.64,I J HEALTHCARE,-1.531354,54.88104
658.1800000000002,OAK GLEN SURGERY,-1.816352,53.854799
1965.8000000000006,WELLINGTON HOUSE,-1.634561,53.714775
3034.7200000000007,SKELMANTHORPE FAMILY DOCTORS,-1.650686,53.591604
3142.1800000000007,LEIGH VIEW MEDICAL PRACTICE,-1.558358,53.728574
689.71,OAKWOOD SURGERY,-1.4290459999999998,52.941386
1790.15,THE KAKOTY PRACTICE,-1.473444,53.5464
722.2000000000002,PHOENIX PRIMARY CARE (SOUTH) LTD,-0.435422,51.918016
1678.02,NEWCASTLE GP IN MOLINEUX WIC,-1.583491,54.977507
33.43,NORTH NORFOLK HUB 2 (BIRCHWOOD),1.38334,52.820065
1326.09,GILDERSOME HEALTH CENTRE,-1.6293,53.756554
1304.14,HAZELMERE MEDICAL CENTRE,-1.16453,52.57337
1207.38,BURNGREAVE SURGERY,-1.459815,53.393327
1289.76,FELTWELL SURGERY,0.527056,52.48268
1905.6700000000005,QUEENS PARK HEALTH CENTRE,-0.493075,52.133151
798.7,ALBANY PRACTICE,-0.310054,51.48676
455.77000000000015,CASSIDY ROAD MEDICAL CENTRE,-0.199015,51.479154
7150.0700000000015,COLCHESTER MEDICAL PRACTICE,0.909325,51.890029
1420.99,ROWHEDGE SURGERY,0.945058,51.85767
518.9599999999999,DR VM PATEL,0.228776,51.561113
594.48,THE HEATHCOTE PRIMARY CARE CENTRE,0.062768,51.593832
1484.92,ESHER GREEN SURGERY,-0.370196,51.375782
359.04,CHILDS (THAMESIDE),-0.326599,51.427449
1737.86,THE CHESSER SURGERY,-0.177303,51.374927
2028.39,MOREDON MEDICAL CENTRE,-1.8070689999999998,51.582197
1845.0500000000006,ASHFIELD MEDICAL CENTRE,-0.7382729999999998,52.019666
2202.91,BUGBROOKE MEDICAL PRACTICE,-1.005426,52.211409
1964.7800000000007,TRESCOBEAS SURGERY,-5.085333,50.15531
1869.22,BUDSHEAD MEDICAL PRACTICE,-4.150289,50.417443
845.64,TEIGN ESTUARY MEDICAL GROUP,-3.496462,50.5456
1835.4200000000005,MITCHELDEAN SURGERY,-2.488369,51.865935
1485.2500000000002,LUSON,-3.229566,50.977398
3592.13,HARESFIELD HOUSE SURGERY,-2.202996,52.194829
420.63000000000005,HEDNESFORD MEDICAL PRACTICE,-2.000697,52.71233
3256.650000000001,LAUREL HOUSE SURGERY,-1.692825,52.636563
2051.55,HANDSWORTH WOOD MED.CTR.,-1.928196,52.51303299999999
586.4700000000003,ROTTON PARK MEDICAL CENTRE,-1.947079,52.482162
2108.23,LONGFORD PRIMARY CARE CENTRE,-1.48555,52.449933
4429.490000000002,TETTENHALL MEDICAL PRACTICE,-2.159502,52.600723
3234.88,READESMOOR MEDICAL GROUP PRACTICE,-2.216792,53.163762
1030.5500000000004,NEWTOWN SURGERY,-2.735705,53.362158
3622.880000000001,ROPE GREEN MEDICAL CENTRE,-2.453958,53.06655
1166.28,PENNY LANE SURGERY,-2.915004,53.389404
924.31,ABINGDON FAMILY HEALTH CARE CENTRE,-2.943503,53.440571
2771.180000000001,WINGATE MEDICAL CENTRE,-2.874647,53.488385
3097.1400000000012,AINSDALE MEDICAL CENTRE,-3.03882,53.602403
1167.33,CORNERSTONE SURGERY,-2.457402,53.58815500000001
2244.36,BARLBOROUGH MEDICAL PRACTICE,-1.284471,53.289528
1229.35,VICTORIA PARK HEALTH CENTRE,-1.1192,52.619071
997.45,THE WRAGBY SURGERY,-0.301337,53.287948
3855.1,SOUTH GRANGE MEDICAL GROUP PRACTICE,-1.166506,54.56995500000001
1084.2200000000003,QUEEN STREET MEDICAL PRACTICE,-3.589063,54.546567
750.9199999999998,OLD FORGE SURGERY,-2.079758,54.623041
828.26,EGTON SURGERY,-0.7552379999999999,54.445555
1392.9199999999994,VESPER ROAD,-1.615337,53.827318
677.7199999999998,GLADSTONE HOUSE SURGERY,-1.307927,52.968816
1396.2400000000002,THE PRACTICE-SAYEED,-1.106589,52.63081700000001
1989.64,GLEADLESS MEDICAL CENTRE,-1.451325,53.356551
2098.54,TRAMWAYS AND MIDDLEWOOD MEDICAL CENTRES,-1.515268,53.418958
1176.3500000000004,LANGSTONE WAY SURGERY,-0.210815,51.606981
572.0499999999998,ELMTREES SURGERY,-0.335968,51.550787
4005.699999999999,TULASI MEDICAL CENTRE,0.12448900000000002,51.561005
1553.75,THE MILLER PRACTICE,-0.092165,51.551419
1643.7599999999998,WARRIOR SQUARE SURGERY,0.562007,50.852963
2150.5799999999995,SNODLAND MEDICAL PRACTICE,0.441488,51.326053
1512.2999999999995,SUTTON VALENCE GROUP PRACTICE,0.59403,51.211195
1660.6300000000006,LEITH HILL PRACTICE,-0.322969,51.150452
3053.450000000001,THE GROVES MEDICAL CENTRE,-0.26224,51.410048
1313.7499999999993,THE MARINE & OAKRIDGE PARTNERSHIP,-1.806532,50.722838
788.68,MALTHOUSE MEADOWS SURGERY,-2.568038,50.668698
2086.5500000000006,THE STAUNTON SURGERY,-0.978019,50.851067
1915.2199999999993,PORT ISAAC SURGERY,-4.824594,50.589808
1172.04,THE CORINTHIAN SURGERY,-2.0815,51.906706
2941.6700000000014,ST JOHNS HOUSE SURGERY,-2.25911,52.18874
1161.8100000000004,CASTLEFIELDS,-2.129518,52.801013
804.9299999999998,ADDERLEY GREEN SURGERY,-2.135511,52.991714
788.8299999999998,HARBURY SURGERY,-1.458027,52.236759
651.1000000000001,DR BILAS,-2.063063,52.612824
110.81,HOSP.OF THE GOOD SHEPHERD,-2.901692,53.242544
1788.2,BLUNDELLSANDS SURGERY,-3.041273,53.484452
2714.840000000001,QUEEN SQUARE MEDICAL PRACTICE,-2.800994,54.046219
539.6700000000001,DILL HALL SURGERY,-2.390844,53.754996
1929.0,WEST TIMPERLEY MEDICAL CENTRE,-2.353117,53.402699
1496.5200000000002,MARUS BRIDGE PRACTICE,-2.643772,53.529393
365.81,SUMMERLEE MEDICAL CENTRE,-0.652145,52.337022
64.31,HEALTH E1,-0.07152500000000002,51.518304
934.05,SLAG LANE MC,-2.575634,53.47856899999999
557.4300000000001,THE GRANGE MEDICAL CENTRE,-0.262039,52.57839
123.5,CAXTON HOUSE SURGERY,-1.382415,53.575347
1113.35,OUT OF HOURS CENTRE,-1.842798,54.869081
40.22,ALEX CENTRE UNREGISTERED WIC,-0.369696,51.568372
826.36,WESTCOTES MEDICAL CENTRE,-1.153587,52.63133199999999
293.13,PRIMARY HEALTHCARE DARLINGTON,-1.561958,54.528141
846.91,WEST MERTON ACCESS HUB,-0.210281,51.409967
40.48,SANDWELL HEALTH PARTNERSHIP,-2.011259,52.536236
624.35,DERBY CITY SOUTH HEALTHCARE LTD,-1.531656,52.891817
5.57,SAFECARE NETWORK,-0.647232,53.568261
2.34,EXETER HEADACHE CLINIC,-3.54518,50.714472
907.87,REDGATE MEDICAL CENTRE,-2.987659,51.126385
1610.76,GREAT WITLEY SURGERY,-2.361004,52.291152
1898.1,MADELEY PRACTICE,-2.345126,52.999856
2489.9200000000005,GREEN RIDGE SURGERY,-1.8710349999999998,52.428433
1175.25,RIVER BROOK MEDICAL CENTRE,-1.913809,52.43303
1118.63,BUNBURY MEDICAL PRACTICE,-2.649377,53.116827
1130.59,MURDISHAW,-2.662128,53.323997
1032.28,ROCK COURT SURGERY,-2.916187,53.411597
1551.01,POPLAR HOUSE SURGERY,-3.03076,53.754721
3337.03,QUEENSWAY MEDICAL CENTRE,-2.995384,53.846569
2961.6999999999994,CASTLETON HEALTH CENTRE,-2.18229,53.597034
2082.4100000000008,HAVEN HEALTH,1.327039,51.96536
1331.2800000000002,DR KK CHAN & PARTNERS,-2.489022,53.524185
72.59,DANEHOUSE MEDICAL PRACTICE,-2.238948,53.791326
1093.4600000000003,SWANSWELL MEDICAL CENTRE,-1.816529,52.432515
3448.31,DR MALIK - KENT ELMS HC,0.664114,51.563831
1727.0599999999995,CITY ROAD MEDICAL CENTRE,-0.091116,51.527895
1931.57,SALFORD GP OUT OF HOURS,-2.323424,53.487545
176.33,LEICESTER CITY ASSIST PRACTICE,-1.136115,52.637338
1417.0200000000002,BOTOLPH BRIDGE COMMUNITY HEALTH CENTRE,-0.261557,52.562595
451.55,SHORTSTOWN MEDICAL CENTRE,-0.432463,52.110853
3675.06,MK URGENT CARE SERVICES OOH,-0.7357599999999997,52.026384
49.63,NOTTINGHAM CITYCARE,-1.155769,52.951832
261.17,ASHTON PCC SEVEN DAY ACCESS OOH,-2.099981,53.485827
1.52,RESPIRATORY SERVICE STOKE AND NORTH,-2.109085,52.810605
323.26,LONG EATON ON DAY SERVICE,-1.272531,52.901553
1255.6999999999996,VC SKELMERSDALE UCC,-2.773401,53.549935
74.9,SOUTH CHESHIRE & VALE ROYAL PCAH,-2.531272,53.1909
4042.91,THE HAWTHORNS SURGERY,-1.825965,52.538746
2495.4500000000007,PARK HOUSE MEDICAL CENTRE,-2.805295,53.42670699999999
1167.42,SOUTH KING STREET MEDICAL CENTRE,-3.047855,53.816775
1540.5400000000006,DR A CALOW'S PRACTICE,-2.503837,53.742584
1763.3099999999995,GUTTERIDGE MEDICAL CENTRE,-2.691248,53.769881
996.38,ST MARY'S MEDICAL CENTRE,-2.108554,53.543625
2587.340000000001,CHEADLE MEDICAL PRACTICE,-2.213539,53.393745
1134.3300000000004,GREEN STREET GREEN MED CT,0.089996,51.354366
592.75,3/ST ANDREWS MEDICAL CENTRE,-2.339619,53.484875
1518.5300000000007,HORIZON HEALTH CENTRE,-2.965121,51.331294
90.11,ANN MARIE HOWES CENTRE,-1.7785380000000002,52.464805
4.84,EAR NOSE AND THROAT CLINIC,-1.597685,54.851721
939.76,BLACKFRIARS,-2.254244,53.484135
10.83,FIRST COMMUNITY HEALTH & CARE,-0.170767,51.235608
318.18000000000006,BEDSER HUB,-0.556304,51.315132
5.890000000000001,HARROW RAPID RESPONSE SERVICE,-0.294546,51.596988
685.5200000000002,CALDBECK SURGERY,-3.050622,54.749864
2278.46,OXFORD STREET SURGERY,-3.5505760000000004,54.64373
87.57,WRAYSDALE HOUSE SURGERY,-3.076077,54.367247
6944.249999999997,SAVILLE MEDICAL GROUP,-1.609598,54.976095
577.52,COOK BF,-0.357512,53.780969
769.0699999999998,PEELER HOUSE SURGERY,-0.438756,53.72252
1478.36,DR INGRAM & PTRS,-1.526892,54.136451
4165.27,LINGWELL CROFT SURGERY,-1.535053,53.749986
995.02,HOUNSFIELD SURGERY,-0.811033,53.183702
1020.28,LENSFIELD MEDICAL PRACTICE,0.124449,52.198365
1734.66,CEDAR BROOK PRACTICE,-0.41413199999999994,51.534092
34.23,THE ROYAL MEWS SURGERY,-0.145223,51.498764
1087.7,ROSE VILLA SURGERY,0.506616,51.566232
3919.0,ADELAIDE MEDICAL CENTRE,-0.161257,51.543548
636.0899999999998,DR DHITAL PRACTICE,-0.003074,51.587786
376.69999999999993,HOLLINGTON SURGERY,0.872487,51.151423
1779.0400000000004,WOODLANDS HEALTH CENTRE,0.38485,51.18077
259.83000000000004,NORHEADS LANE SURGERY,0.026739,51.314542
896.64,HARTLAND WAY SURGERY,-0.045782,51.374372
1609.9199999999996,BOYATT WOOD SURGERY,-1.36001,50.977856
1101.95,GREENFORD ROAD MED.CTR.,-0.345702,51.537697
1314.8799999999992,THE OAKLAND MEDICAL CENTRE,-0.45129300000000006,51.546055
669.3400000000001,QUEENS WALK MEDICAL CENTRE,-0.393155,51.562716
615.9100000000002,THE ABINGDON HEALTH CENTRE,-0.197138,51.496085
2577.530000000001,THE ARDLEIGH SURGERY,0.985096,51.927073
3490.54,ADDISON HOUSE - HAQUE PRACTICE,0.088979,51.770891
1735.88,ST PETER'S STREET MEDICAL PRACTICE,-0.100772,51.535597
1353.6,ABERFELDY PRACTICE,-0.004927,51.514483
2984.880000000001,STONE CROSS SURGERY,0.289944,50.816757
488.47,ELTHAM PALACE PMS,0.053714,51.449946
1400.9399999999996,BROCKBANK (PARK ROAD),-0.334596,51.423912
3180.58,CHAWTON PARK SURGERY,-0.989411,51.139814
1957.78,STOKENCHURCH MEDICAL CTRE,-0.904033,51.660479
476.82,MARSHALLS ROAD SURGERY,-0.539225,52.344743
705.5200000000002,HOLLINSWOOD SURGERY,-2.437453,52.673936
743.6000000000001,ABBOTS BROMLEY SURGERY,-1.880966,52.819974
3640.1200000000013,DARWIN MEDICAL CENTRE,-1.831505,52.694061
1822.61,THE OAKS MEDICAL CENTRE,-1.895827,52.552454
612.0899999999998,VICTORIA ROAD MEDICAL CTR,-1.887197,52.501868
1406.5800000000006,ST JOHN'S MEDICAL CENTRE,-1.932532,52.626307
839.9800000000001,NEWBRIDGE SURGERY,-2.155299,52.5936
4161.35,THE CORNERSTONE PRACTICE,-2.4524,53.739201
959.63,TOWNSIDE SURGERY,-2.29898,53.59031
775.2799999999999,GOODMAYES MEDICAL CENTRE,0.10990599999999999,51.567626
163.38,PARK GRANGE MEDICAL CENTRE,-1.775929,53.789415
119.6,ST.GEORGES MEDICAL CENTRE,-0.24612,51.558731
924.4099999999999,HETHERINGTON AT THE PAVILION,-0.116397,51.461633
986.6800000000003,OAKWOOD MEDICAL CENTRE,-0.134269,51.646534
1935.9300000000005,SOUTH HERMITAGE SURGERY,-2.752497,52.699728
2.31,C.A.M.H.S.,-2.689816,53.693597
2663.9300000000007,PCEC,-2.227711,53.462436
629.7800000000002,SMGPF,-2.237795,53.434307
150.76,DCHS DERBY CITY,-1.441882,53.221288
1580.45,REDBURN PARK MEDICAL CENTRE,-1.474775,55.00092
678.0299999999999,CASTLETOWN MEDICAL CENTRE,-1.450848,54.913341
586.5100000000001,ALDBROUGH ST JOHN SURGERY,-1.684645,54.496518
194.36,EAST PARADE MEDICAL PRACTICE,-1.061835,53.965993
862.2300000000001,BARKEREND HC - EL ELIWI,-1.7218490000000002,53.797834
3277.110000000001,SHAFTESBURY MEDICAL CTR.,-1.497858,53.800234
1185.9299999999996,GROBY ROAD MEDICAL CENTRE (ID PATCHETT),-1.150468,52.644337
554.5500000000001,ROSEMEAD DRIVE SURGERY,-1.083088,52.5934
162.07000000000005,AR-RAZI MEDICAL CENTRE,-1.101204,52.623926
1674.3200000000004,BRANSTON & HEIGHINGTON FAMILY PRACTICE,-0.467988,53.195831
2554.5000000000005,FOUNTAIN MEDICAL CENTRE,-0.8043829999999998,53.07286
1177.53,OAKENHALL MEDICAL PRACT,-1.199437,53.03661700000001
1130.39,SCAWSBY HEALTH CENTRE PRACTICE,-1.167843,53.53678299999999
1964.35,ST. GEORGE'S MEDICAL CENTRE,0.298817,52.458085
2103.05,LAWNS PRACTICE,1.109092,52.378889
1853.03,CENTRAL SURGERY,0.147747,51.812546
1016.03,CHURCH END MEDICAL CENTRE,-0.253241,51.54757
2023.11,BRENTFORD GROUP PRACTICE,-0.310054,51.48676
1356.43,THE DEVONSHIRE LODGE PRACTICE,-0.397406,51.579266
350.6600000000001,THE HOXTON SURGERY,-0.086829,51.533527
1220.86,LL MEDICAL CARE LTD,0.0021,51.555415
3475.6800000000007,JUBILEE MEDICAL CENTRE,0.300332,51.3978
1356.83,LAMBETH WALK GROUP PRACTICE,-0.11259100000000001,51.495609
1418.7699999999998,STANWELL ROAD SURGERY,-0.470567,51.438013
5905.99,THE ADAM PRACTICE,-2.07822,50.757881
1032.9999999999998,SOUTHMEAD SURGERY,-0.616953,51.552538
843.6900000000002,CLIFTON HAMPDEN SURGERY,-1.211451,51.658625
724.64,GROOMBRIDGE AND HARTFIELD MED GRP,0.184416,51.113952
1354.1,POND TAIL SURGERY,-0.066728,51.246436
4305.959999999999,THE WALL HOUSE SURGERY,-0.208192,51.241304
502.2799999999999,THE HALING PARK PARTNERSHIP,-0.098109,51.357113
1997.8199999999995,THE PRINCE OF WALES SURGERY,-2.457579,50.713502
2511.62,BRANKSOMEWOOD H/CARE CTR,-0.8448069999999998,51.281888
1280.66,THE GROVE SURGERY,-0.735114,52.023651
1526.86,PROBUS SURGERY,-4.948542,50.290121
3373.6999999999994,ABBEY SURGERY,-4.150401,50.546904
2800.110000000001,WHITEACRES MEDICAL CENTRE,-2.300547,52.124716
523.0199999999999,WOODSIDE MEDICAL PRACTICE,-2.466175,52.637949
2283.999999999999,LYME VALLEY MEDICAL CENTRE,-2.22375,53.006305
1024.81,AUDLEM MEDICAL PRACTICE,-2.508717,52.989615
608.9799999999998,KENNETH MACRAE MED CENTRE,-2.786435,53.49903
2689.119999999999,BODEY MEDICAL CENTRE,-2.214798,53.440636
571.9399999999998,WOODLANDS MEDICAL PRACTICE,-2.31213,53.406624
343.66,DR PAL,-2.595495,53.47988
1024.28,BATH ROAD SURGERY,-0.37684,51.469395
1386.1799999999996,CHAPEL ROW SURGERY,-1.17086,51.425877
645.46,WOODLANDS MEDICAL PRACTICE,-0.170943,51.592914
774.0,NORTH LINCOLNSHIRE OOH,-0.667599,53.587582
51.37000000000001,NCH&C COMMUNITY NURSES (WEST),0.410147,52.749129
2.34,SOUTH COUNTY CONTINENCE PRESCRIPTION SER,-1.273227,52.930792
3728.79,HEALTHBRIDGE DIRECT,0.020102,51.608432
60.2,TAMESIDE & GLOSSOP IC NHS FT,-2.071433,53.49153
50.97,ACCT 2,-1.962695,53.898015
258.65000000000003,EXTENDED HOURS SERVICE-ONE LIFE,-1.214164,54.682342
3351.3899999999994,CRAMLINGTON MEDICAL GROUP,-1.591516,55.084481
2036.8,KINGSTON MEDICAL GROUP,-0.349365,53.756137
356.2800000000001,WESTFIELD MEDICAL CENTRE,-1.531703,53.817673
1243.83,VERNON STREET MEDICAL CTR,-1.49039,52.924019
852.3600000000001,STUBLEY MEDICAL CENTRE,-1.488541,53.304986
5105.619999999999,BRIDGE COTTAGE SURGERY,-0.215995,51.830002
1959.7000000000005,GRANGE STREET SURGERY,-0.335878,51.757298
281.67,CHICHELE ROAD SURGERY,-0.216241,51.55483
528.9,SHIRLAND ROAD MEDICAL CENTRE,-0.203904,51.5292
1186.41,DR KRISHNAN & PTNR - KENT ELMS HC,0.664114,51.563831
1391.63,CRANHAM HEALTH CENTRE,0.265291,51.568865
1192.8199999999995,ST PETER'S SURGERY,1.41893,51.362936
944.1500000000002,LEWISHAM MEDICAL CENTRE,0.004522,51.458513
650.7000000000002,STEWKLEY ROAD SURGERY,-0.71666,51.898041
291.69999999999993,SIBFORD SURGERY,-1.479244,52.037614
3242.7900000000013,NEW COURT SURGERY,-2.958059,51.345794
2749.0399999999995,AXMINSTER MEDICAL PRACTICE,-2.999226,50.780899
2990.4299999999994,COLERIDGE MEDICAL CENTRE,-3.2835660000000004,50.751704
1853.8799999999994,LYDNEY PRACTICE,-2.529867,51.727913
1788.39,PRICES MILL SURGERY,-2.224938,51.693801
3088.08,ST. JOHNS SURGERY,-2.059728,52.337612
3238.2500000000005,THE ALDERGATE MED.PRACT.,-1.695644,52.639079
1766.59,YARDLEY WOOD HEALTH CENTRE,-1.859168,52.418648
1271.7300000000002,MONTAGUE MEDICAL PRACTICE,-0.872899,53.707031
2658.85,EASTGATE MEDICAL GROUP,-1.462815,54.006795
1452.6899999999996,HORTON BANK PRACTICE,-1.806018,53.774478
1056.63,MARSH MEDICAL PRACTICE,0.143689,53.445069
2949.59,HUDDERSFIELD ROAD SURGERY,-1.485631,53.558165
4156.08,SWALLOWNEST HEALTH CENTRE,-1.317097,53.362997
1597.1300000000006,SHERINGHAM MEDICAL PRACTICE,1.214777,52.939688
2471.640000000001,KNEBWORTH & MARYMEAD MEDICAL PRACTICE,-0.184972,51.866323
503.8,THE HODFORD ROAD PRACTICE,-0.199318,51.569038
894.87,HAZELDENE MEDICAL CENTRE,-0.275394,51.547592
971.2699999999996,CLOISTER ROAD SURGERY,-0.265589,51.521352
690.4999999999997,ABBEY ROAD MEDICAL PRACTICE,0.005881,51.534784
661.76,BOUNDARY HOUSE SURGERY,-0.054245,51.632475
1548.8599999999994,MANOR PARK MEDICAL CENTRE,0.24261,50.819107
1400.7800000000007,CHURCH LANE HEALTH CENTRE,0.941162,50.984187
4006.009999999999,BETHESDA MEDICAL CENTRE,1.414787,51.390277
1218.38,WOODLANDS SURGERY,0.088913,51.439755
2301.63,LILLIPUT SURGERY,-1.954229,50.711523
4365.85,WESTBURY GROUP PRACTICE,-2.203558,51.252792
2457.15,PENRYN SURGERY,-5.10336,50.167504
2329.07,CROWN MEDICAL CENTRE,-3.080969,51.029111
1267.6499999999996,BARN CLOSE SURGERY,-1.859248,52.03627
1055.9,HIGHLEY MEDICAL CENTRE,-2.392978,52.456165
283.38,ALVELEY MEDICAL PRACTICE,-2.353309,52.454738
828.4400000000002,WOLSTON SURGERY,-1.392727,52.376806
858.4299999999998,BALLIOL ROAD SURGERY,-1.471449,52.415924
1804.64,NEWTON MEDICAL CENTRE,-2.638386,53.457172
1536.71,GREASBY GROUP PRACTICE,-3.121417,53.377628
671.6200000000001,LOSTOCK HALL MEDICAL CTR.,-2.688037,53.727502
948.42,KNOWSLEY MEDICAL CENTRE,-2.300551,53.588497
1136.85,TIMPERLEY HEALTH CENTRE (WESTWOOD),-2.323566,53.397228
980.66,BIRMINGHAM DENTAL HOSPITAL,-1.916521,52.45037
27.960000000000004,UROLOGY-MERTON CCG,-0.210281,51.409967
527.4200000000001,WELLINGBOROUGH EXTENDED ACCESS,-0.695567,52.303398
1.86,ST JOSEPH'S HOSPICE  HACKNEY,-0.056255,51.537053
1462.6300000000006,PENINSULA MEDICAL PRACTICE,-2.915665,54.18795600000001
3089.44,ROSEWORTH SURGERY,-1.61867,55.001366
5066.290000000001,GREENGATES MEDICAL GROUP,-0.418494,53.844343
2976.56,HEBDEN BRIDGE GROUP PRACTICE,-2.010942,53.744036
940.88,LIMES MEDICAL CENTRE,-1.387885,53.098493
1876.63,CHURCHSIDE MEDICAL PRACTICE,-1.203539,53.146592
1401.41,SELSTON SURGERY,-1.299871,53.070196
2044.9200000000005,CRYSTAL PEAKS MEDICAL CENTRE,-1.354473,53.342881
3460.48,LINCOLN HOUSE SURGERY,-0.469093,51.737355
1990.68,STOCKWELL LODGE MED.CTR.,-0.055287,51.713792
3689.98,SOUTHEND MEDICAL CENTRE,0.708516,51.540069
251.68,DR DEVARAJA VC PRACTICE,0.44359,51.520015
552.65,DR PM PATEL,0.219281,51.55632
992.72,THE MITCHISON ROAD SURGERY,-0.087357,51.544992
693.1200000000001,FOUNTAYNE ROAD HEALTH CENTRE,-0.065145,51.56442
2192.07,FRAMLINGHAM SURGERY,1.334192,52.227216
358.85,ARCHWAY SURGERY,-0.532167,51.72275
1135.53,CHURCH LANE SURGERY,-0.262165,51.574931
188.85,CHISWICK FAMILY DRS PRACTICE,-0.259879,51.493563
1003.5099999999996,ACRE SURGERY,-0.411552,51.604465
537.57,CHOWDHURY,0.233898,51.592339
542.7599999999999,CUMBERLAND MEDICAL CENTRE,0.026047,51.519716
1702.69,ILFORD MEDICAL CENTRE,0.07431899999999998,51.556823
1508.5800000000004,RYE MEDICAL CENTRE,0.730363,50.961944
330.24,MAIDSTONE RD CHATHAM SURGERY,0.516708,51.361226
1080.49,VASSALL MEDICAL CENTRE,-0.10851199999999998,51.477558
2291.010000000001,WITLEY SURGERY,-0.650163,51.156457
1249.5800000000004,FARMHOUSE SURGERY,-1.7595,50.736437
1208.89,JENNER HOUSE SURGERY,-0.7745189999999998,51.294302
1178.2399999999998,LONG BARN LANE SURGERY,-0.967033,51.436181
7610.12,WESTONGROVE PARTNERSHIP,-0.74378,51.76588
1008.6100000000004,MILBORNE PORT SURGERY,-2.471962,50.967502
949.8200000000003,OMBERSLEY MEDICAL CENTRE,-2.229023,52.276554
3316.49,FURLONG MEDICAL CENTRE,-2.208139,53.063325
1701.4,NORFOLK STREET SURGERY,-2.182794,53.01602
1079.6599999999996,PARADISE MEDICAL CENTRE,-1.494835,52.426778
1301.2300000000002,MAYFIELD MEDICAL CENTRE,-2.093284,52.583046
2095.24,LEVENSHULME MEDICAL PRACTICE,-2.188524,53.446352
1309.59,HEALD GREEN HEALTH CENTRE 2,-2.229276,53.369878
945.97,SMITH (RICHMOND LOCK),-0.322897,51.464517
805.1200000000001,CHILLINGTON HEALTH CENTRE,-3.693645,50.272623
1156.7500000000002,JUBILEE GARDENS MEDICAL CENTRE,-0.368739,51.521097
1053.61,BLACKHEATH MED CTR,-3.104694,53.412239
248.58000000000004,AMBAR MEDICAL CENTRE,-1.991354,52.575093
394.08,GOLDINGTON ROAD SURGERY,-0.456174,52.140172
3039.4200000000005,DMC ST MARYS ISLAND SURGERY,0.538105,51.406776
286.24,STREET LANE DERMATOLOGY CLINIC,-1.513393,53.843234
1537.73,POPLAR PRIMARY CARE CENTRE,-1.890326,52.43631
596.61,NORTHAMPTONSHIRE OUT OF HOURS SERVICE,-0.683359,52.29767
6645.120000000001,THORNABY & BARWICK MEDICAL GROUP,-1.292128,54.538149
3982.37,BRAMPTON MEDICAL PRACTICE,-2.734846,54.94237
1427.73,RISEDALE SURGERY,-3.224778,54.109942
2373.9500000000007,ROWLANDS GILL MEDICAL CENTRE,-1.742896,54.91936
1969.45,THE SUTTON MANOR SURGERY,-0.315294,53.785759
1855.76,PLANE TREES GROUP PRACTICE,-1.894437,53.730448
2699.8899999999994,THORNTON MEDICAL CENTRE,-1.576209,53.791908
3421.97,JESSOP MEDICAL PRACTICE,-1.372226,53.074348
4047.3,THE PARK MEDICAL PRACTICE,-1.432644,52.928801
1184.7400000000005,BRAILSFORD & HULLAND MEDICAL PRACTICE,-1.624927,52.96943
2673.2900000000004,MERRIDALE MEDICAL CENTRE (RP TEW),-1.160752,52.620146
1046.27,THE MAYFLOWER MEDICAL PRACTICE,-1.01945,53.431872
2994.2100000000014,BASLOW RD  SHOREHAM ST & YORK RD SRGIES,-1.531066,53.316325
667.26,OVER SURGERY,0.012018,52.314809
1702.59,DR TUN & PARTNERS,-2.583571,53.532102
1462.8100000000006,ST.ANTHONY'S HEALTH CENTRE,-1.55655,54.966674
2123.78,MANOR DRIVE MEDICAL CENTRE,-0.24836599999999998,51.380785
133.38,SMS COMMUNITY DERMATOLOGY CLINIC,-1.398499,50.913503
4090.4,WESTCALL OOH,-0.8315749999999998,51.410524
290.99,NELFT SOUTH WEST ESSEX CS,0.496195,51.591456
41.78,HILLINGDON UCC,-0.461175,51.526077
8.72,AQP ANTICOAG LEY HILL SURGERY,-1.827841,52.583302
16.16,MK ENT SERVICE,-0.79788,52.035898
10.3,EAST STAFFS IMPROVING LIVES,-1.6480290000000002,52.798809
6.0,COMMUNITY MIDWIVES,-2.784954,53.420469
230.6,PCAH - NEW ROMNEY,0.938719,50.987586
2516.9600000000005,BISHOPS CLOSE MEDICAL PRACTICE,-1.599142,54.699817
3536.590000000001,CLEE MEDICAL CENTRE,-0.041433,53.566223
1815.0199999999993,WIBSEY & QUEENSBURY MED P,-1.779715,53.767225
605.3499999999998,SOUTHOWRAM SURGERY,-1.831696,53.712293
990.4,WHITWICK HEALTH CENTRE,-1.3606790000000002,52.742576
2674.2000000000007,MARKET SURGERY,-1.345958,53.502635
1364.49,BALDWINS LANE SURGERY,-0.448705,51.654076
884.9699999999998,DERWENT CRESCENT MEDICAL CENTRE,-0.175285,51.622908
1848.27,THE STANMORE MEDICAL CENTRE,-0.304021,51.60154
1083.6900000000003,NEASDEN MEDICAL CENTRE,-0.247382,51.559667
436.13,BROOK GREEN SURGERY,-0.218145,51.495291
3307.4800000000014,ABBEY FIELD MEDICAL CENTRE,0.898575,51.877487
308.9000000000001,JOHN SMITH MEDICAL CENTRE,0.112125,51.538899
359.63,TOTTENHAM HEALTH CENTRE,-0.068474,51.604755
518.26,DR MOHAMMED GREEN MAN MEDICAL CENTRE,0.015000999999999999,51.571506
1954.02,FAIRFIELD PMS,0.038949,51.483908
349.9100000000001,PARKSIDE MEDICAL CENTRE,-0.092642,51.475826
1247.24,NORK CLINIC,-0.215842,51.326429
1221.48,QUEENHILL MEDICAL PRACTICE,-0.066791,51.34499
1071.72,GRAND DRIVE SURGERY,-0.228811,51.402155
3996.0,THE BOSMERE MEDICAL PRACTICE,-0.990581,50.850232
3165.13,BURNHAM HEALTH CENTRE,-0.662137,51.5349
1037.1300000000003,THE LONG BUCKBY PRACTICE,-1.08255,52.30049
9043.160000000003,ASPEN MEDICAL PRACTICE,-2.225797,51.865969
1516.28,GLOUCESTER CITY HEALTH CENTRE,-2.245328,51.860355
3771.5000000000014,ABBEY HOUSE MEDICAL PRACTICE,-1.160725,52.260319
1813.54,NORTON BROOK MEDICAL CENTRE,-3.782122,50.288739
657.5299999999999,SOMERSET BRIDGE MEDICAL CENTRE,-2.995883,51.115105
2232.29,TRENT VALE MEDICAL PRACTICE,-2.201785,52.987386
877.7300000000001,BROOKSIDE SURGERY,-1.399088,52.35048
1437.6399999999994,NORTHWAY MEDICAL CENTRE,-2.130997,52.54810500000001
3173.82,MARTON MEDICAL PRACTICE,-3.034524,53.812843
2689.57,CORNISHWAY GROUP PRACTICE,-2.265017,53.379925
1980.71,BRAMHALL HEALTH CENTRE,-2.162929,53.36001
2339.88,MAYNARD COURT SURGERY,0.020165,51.685605
675.9999999999998,AYLESBURY SURGERY,-1.876053,52.542854
289.11,NEVILLE ROAD SURGERY,-0.443036,51.906419
564.0500000000002,UNIV HOSP NORTH DURHAM OOH,-1.593834,54.788497
8.56,THE HOSPICE CARE FOR BURNLEY & PENDLE,-2.237434,53.819025
362.75,BOWLING GREEN STREET SURGERY,-1.133096,52.63304599999999
37.58000000000001,INTEGRATED COMMUNITY RESPONSE SERVICE,-0.371755,51.468263
783.38,BCHC MEDICINES MANAGEMENT,-1.9537779999999998,52.398207
4.89,INDEPENDENT HEALTH GROUP,-2.414415,51.312224
167.73000000000005,PML NEIGHBOURHOOD HUB (KIDLINGTON),-1.289236,51.821558
2700.650000000001,YARM MEDICAL PRACTICE,-1.355519,54.50530500000001
875.8600000000001,BENSHAM FAMILY PRACTICE,-1.617038,54.952781
1933.4500000000005,BURTON CROFT SURGERY,-1.57692,53.820807
832.81,EASTMOOR HEALTH CENTRE,-1.476864,53.690004
830.2999999999998,HARTINGTON SURGERY,-1.810816,53.142488
633.6999999999998,THE PRACTICE BEAUMONT LEYS,-1.15392,52.662296
995.3899999999996,TASBURGH LODGE SURGERY,-0.21375,53.151242
2703.76,SOTHALL & BEIGHTON HEALTH CENTRES,-1.340221,53.337895
423.66,KINGSWAY SURGERY,-0.437208,51.517478
290.37,FIVE ELMS MEDICAL PRACTICE,0.14235,51.553315
104.31,SPUR ROAD SURGERY,-0.086621,51.586597
1828.1000000000006,THE MEADS SURGERY,0.091624,50.969686
1010.11,ALBION STREET SURGERY,-0.133965,50.827627
2029.88,BELLEGROVE SURGERY,0.09579,51.464561
1969.66,SOUTH VIEW PARTNERSHIP,0.026125,51.405111
628.0200000000002,CORNERWAYS SURGERY,-0.404519,50.81566
3057.9200000000005,CHEAM GP CENTRE,-0.225239,51.368621
341.1400000000001,WALLINGTON MEDICAL CENTRE,-0.129285,51.357345
1687.5499999999995,THE BANKS & BEARWOOD MEDICAL CENTRE,-1.9292169999999997,50.768326
603.25,MERE SURGERY,-2.265342,51.089873
328.9099999999999,RAGSTONE ROAD SURGERY,-0.601832,51.503747
2208.2699999999995,COMBE DOWN SURGERY,-2.345599,51.361003
2074.33,WADEBRIDGE & CAMEL ESTUARY PRACTICE,-4.835729,50.514816
1328.3300000000004,NORTH PETHERTON SURGERY,-3.013922,51.09139
228.4,HANDSWORTH MEDICAL PRACT.,-1.941212,52.505377
2457.21,EVE HILL MEDICAL PRACTICE,-2.096805,52.512922
961.49,BEARWOOD MEDICAL CENTRE,-1.97344,52.476903
2548.92,THE GROUP PRACTICE ALFRED SQUIRE ROAD,-2.080754,52.599417
2094.28,WEST DERBY MEDICAL CENTRE,-2.895944,53.431273
427.96,BEEHIVE SURGERY,-2.419172,53.564161
559.3900000000001,QUEENS MEDICAL CENTRE,-2.235847,53.50081899999999
2072.74,LANGWORTHY MEDICAL PRACTICE,-2.294771,53.489371
681.57,LEY HILL SURGERY,-1.983266,52.421346
2038.42,THE CHEYLESMORE SURGERY,-1.503924,52.391324
467.56,DR. B. K. PRASHARA,-2.114816,52.456326
3027.3,ST PETER'S SURGERY,-1.984855,52.594537
1263.3100000000004,ORMSKIRK HOUSE SURGERY,-2.74261,53.456686
2132.580000000001,MANOR HEALTH CTR,-3.044493,53.421061
2589.49,THE PENDLE MEDICAL PARTNERSHIP,-2.144307,53.915882
2988.4800000000005,3/SPRINGFIELD HOUSE MEDICAL PRACTICE,-2.362019,53.480252
1976.11,PENNINE MEDICAL CENTRE,-2.040966,53.515337
1281.0200000000002,THE CROSSROADS SURGERY,-2.770123,53.417492
446.28,CRESCENT SURGERY,0.106446,51.389854
528.8499999999999,GREEN CEDARS MEDICAL CENTRE,-0.073642,51.616071
252.96,THE KINGSWAY PRACTICE,-2.135588,53.612168
6710.819999999998,WHITE HORSE SURGERY,0.343258,51.435153
50.09,LANCS HOUSE UROLOGY,-2.218662,53.592207
129.06,THE ENFIELD PAIN CLINICS,-0.076772,51.66253
799.5000000000001,LAS S.E. LONDON IUC CAS,-0.10903099999999999,51.500174
13.71,WEST KENT GROUP,1.118942,51.075872
1049.35,CHAPELFORD PRIMARY CARE CENTRE,-2.633066,53.39615799999999
207.13,BRAMHOPE DERMATOLOGY COMMUNITY CLINIC,-1.61581,53.881903
1086.8699999999997,BHF LUNDWOOD SURGERY,-1.438538,53.557711
12.5,SOTON COMMUNITY ENT SERVICE WESTON LANE,-1.370694,50.888213
1726.4199999999996,DALTON SURGERY,-3.179816,54.155917
1293.9899999999998,THE SELE MEDICAL PRACTICE,-2.095702,54.970372
1771.6500000000005,WOODLANDS PARK HEALTH CTR,-1.628825,55.04614
1009.4900000000004,CONCORD MEDICAL PRACTICE,-1.524864,54.913411
2290.3699999999994,MARKET WEIGHTON GROUP PRACTICE,-0.674786,53.864903
850.98,RAJ MEDICAL CENTRE,-0.113968,53.550655
1290.2700000000002,MAYFORD HOUSE SURGERY,-1.446534,54.328376
2409.480000000001,OAKWOOD LANE MEDICAL PRACTICE,-1.493931,53.819982
4956.480000000001,HEALTH CARE FIRST PARTNERSHIP,-1.393615,53.736872
2287.7100000000005,HAVEN MEDICAL CENTRE,-1.416874,52.891498
1783.5500000000006,COUNTESTHORPE HEALTH CENTRE,-1.136767,52.554536
2896.1599999999994,CASTLE HEALTHCARE PRACTICE,-1.144908,52.930476
2331.5399999999995,BROOM LANE MEDICAL CENTRE,-1.332311,53.417383
2469.4400000000005,CADDINGTON SURGERY,-0.458179,51.864502
3584.53,ANNANDALE MEDICAL CENTRE,-0.17421099999999998,51.698571
1518.3600000000006,GREENWICH CCG GP ACCESS HUB,0.050556,51.457843
57.94,WEST KENT HEALTH FEDERATION,0.277462,51.194717
447.94,DMC COMMUNITY DERMATOLOGY BHR,0.223136,51.563496
1942.9700000000007,WEST ROAD MEDICAL CENTRE,-1.656263,54.976209
641.82,IMEARY STREET PRACTICE,-1.424863,54.98753000000001
150.49,THE KILLINGHOLME SURGERY,-0.260335,53.62990799999999
909.91,DR SINHA & PARTNERS,0.100204,53.030138
1099.98,THE HEALTH CARE SURGERY,-1.487911,53.42172
1717.1799999999996,COMBERTON SURGERY,0.018614,52.189811
1904.3300000000006,TRINITY & BOWTHORPE MEDICAL PRACTICE,1.280248,52.624411
1304.2000000000005,THE LIMES SURGERY,-0.010842,51.759413
808.8700000000001,SHEPHALL HEALTH CENTRE,-0.167642,51.890799
227.08,WAKEMANS HILL SURGERY,-0.254209,51.587088
539.46,WESTBOURNE GROVE MEDICAL CENTRE,-0.200361,51.514211
2244.51,FOREST PRACTICE,0.07523499999999998,51.654789
334.0499999999999,PRASAD,0.210579,51.600308
3255.450000000001,HARROW ROAD GP CENTRE,0.012856,51.559538
668.6999999999998,SEVEN DIALS MEDICAL CENTRE,-0.147743,50.829681
1562.4000000000005,NORTHDOWN SURGERY,1.368001,51.379866
559.89,MILTON REGIS SURGERY,0.7321839999999998,51.349193
1916.4,BARCROFT MEDICAL CENTRE,-1.780526,51.172939
883.09,BURBAGE SURGERY,-1.669545,51.348496
4725.709999999999,THE SWAN PRACTICE,-0.985664,52.001593
3574.73,PIONEER MEDICAL GROUP,-2.617628,51.510306
1287.3999999999996,THE CREST FAMILY PRACTICE,-2.596274,51.428746
176.01000000000005,WORTHEN MEDICAL PRACTICE,-3.000165,52.635224
1649.33,NESTON MEDICAL CENTRE,-3.064349,53.291818
809.42,KIRKDALE MEDICAL CENTRE,-2.973842,53.433523
1102.56,WITHNELL HEALTH CENTRE,-2.556663,53.692491
3102.0400000000004,DARWEN HEALTHLINK,-2.471427,53.695744
2974.720000000001,ST.MARY'S HEALTH CENTRE,-2.729589,53.747433
589.8000000000002,DAVID MEDICAL CENTRE,-2.268652,53.43186
1198.6,DR ABBAS,-0.841253,52.26834
1180.6799999999996,FACCINI HOUSE SURGERY,-0.189379,51.389682
1684.34,EDLESBOROUGH SURGERY,-0.588625,51.868423
1945.1700000000005,DR GS KALKAT'S PRACTICE,0.103861,51.527941
855.0000000000001,JRB HEALTHCARE BEECHDALE SURGERY,-1.198142,52.961504
150.53,THE LYNWOOD SURGERY,-0.29964,51.528594
745.7899999999998,CHURCH VIEW MEDICAL CENTRE,-2.960328,50.935622
2675.3100000000004,WOODLANDS FAMILY MEDICAL CENTRE,-1.321204,54.561215
265.4,ASKAM SURGERY,-3.210918,54.183705
4105.96,FERRYHILL AND CHILTON MEDICAL PRACTICE,-1.556828,54.689838
2438.9100000000008,COLLIERY COURT MEDICAL GROUP,-1.460703,54.949762
1343.23,GRANGE PARK SURGERY,-1.7481080000000002,53.912695
2104.0399999999995,THE COUNTY PRACTICE,-1.069884,52.70073000000001
4162.77,BEECHFIELD MEDICAL CENTRE,-0.145012,52.787253
1358.9499999999996,GRIMETHORPE SURGERY,-1.378978,53.573614
1457.72,THE OAKWOOD SURGERY,-1.073937,53.506609
1210.6500000000005,PAPWORTH SURGERY,-0.11749200000000001,52.252071
2147.2999999999993,ORCHARD SURGERY,0.944176,52.678309
2546.47,DR JK MARSDEN'S PRACTICE,-0.436528,51.894968
2330.82,MALTINGS SURGERY,-0.337918,51.751851
468.63999999999993,HANWELL HEALTH CENTRE (NAISH),-0.334375,51.510263
1662.9700000000007,WHITLEY HOUSE SURGERY,0.455723,51.726539
2370.879999999999,WEST ROAD SURGERY,0.70187,51.544989
679.85,JOYDENS WOOD MEDICAL CENTRE,0.166397,51.42449
3633.46,TRAFALGAR MEDICAL GROUP PRACTICE,-1.092485,50.785331
1588.8100000000004,EASTFIELD HOUSE SURGERY,-1.323251,51.395555
1920.51,RECTORY MEADOW SURGERY,-0.6175,51.669079
2096.9,TUDOR LODGE SURGERY,-2.975378,51.332396
4319.36,PRAZE-AN-BEEBLE SURGERY,-5.309264,50.173753
3309.01,CAMBRIAN MEDICAL PRACTICE,-3.047774,52.86281
1522.26,PENN SURGERY,-2.145001,52.568567
1200.62,FIRDALE MEDICAL CENTRE,-2.537387,53.253804
1798.0699999999995,HALL GREEN SURGERY,-2.741349,53.540745
783.1599999999999,SARAF MEDICAL PRACTICE,-2.076954,53.561455
201.19000000000003,LATIMER HEALTH CENTRE,-0.049503,51.54659
862.3299999999998,DELL MEDICAL CENTRE,0.328114,51.480258
858.65,KIRKSTALL LANE MEDICAL CENTRE,-1.587333,53.816942
1119.0600000000004,WHITCHURCH SURGERY,-1.340372,51.230256
806.9699999999997,DR NEWMAN,-1.975441,50.719722
453.99,GATDOC OOH,-1.580781,54.93938000000001
686.39,THE TRINITY MEDICAL CENTRE,0.085815,51.478803
472.12,CARE UK OOH,1.210633,52.034014
1078.19,PONTELAND RD WIC,-1.656804,54.991604
57.24,CONIFER HOUSE SEXUAL HEALTH CLINIC,-0.342095,53.746221
5.06,SUE RYDER NETTLEBED HOSPICE,-0.989042,51.573731
1072.1300000000003,IC24 LTD (HWLH OOH),0.891514,51.129106
386.17,BURNLEY LOCALITY NMPS,-2.238948,53.791326
27.39,SOUTH EAST HUB 1,-0.10851199999999998,51.477558
3.82,ONE ASHFORD - ELECTIVE CARE NHS SERVICES,0.9117360000000002,51.142662
2114.82,KIRKBY COMMUNITY PRIMARY CARE CENTRE (3),-1.248741,53.10176
14.89,DMC COMMUNITY DERMATOLOGY ERY,-0.872594,53.695801
1995.97,BERKLEY PRACTICE,-2.024533,52.58916
2217.9600000000005,BELLE VALE HEALTH CENTRE,-2.859752,53.392035
624.1600000000002,ELIZABETH STREET SURGERY,-3.043658,53.820839
1266.1,RAMSBOTTOM MEDICAL PRACTICE,-2.319287,53.64878
466.48,THE WHITSWOOD PRACTICE,-2.253502,53.455769
2150.75,WOODLANDS MEDICAL PRACTICE,-2.142182,53.545559
597.6000000000001,BROOKS BAR MEDICAL CENTRE,-2.261969,53.461412
1659.8200000000004,BROOK HOUSE SURGERY,-1.445882,50.921794
1043.3,ASHVILLE SURGERY,-0.201145,51.476255
1542.9199999999996,THE VILLAGE MEDICAL CTR,-0.512653,52.128152
1947.3199999999995,DR HANTSDOC N OOH,-1.109918,51.280633
0.15,WEST CAMHS - KIRKSTALL,-1.599694,53.817164
3904.89,GP COLLABORATIVE OOH,-1.455965,53.409821
1804.02,ST NEOTS HEALTH CENTRE,-0.267116,52.228966
3687.5,ERDINGTON GP HEALTH & WELLBEING WIC,-1.840871,52.522486
442.21,QUAY HEALTH EAC,-0.069645,51.49696
1705.1,HMR BARDOC OOH,-2.288591,53.59553
22.19,HOLYWELL AT LANGLEY HOUSE HCT,-0.391206,51.683651
92.46,7 DAY ACCESS ROCHDALE INFIRMARY HUB,-2.160152,53.624282
235.22,GATESHEAD HEALTH COMMUNITY SERVICES,-1.580781,54.93938000000001
25.76,NEAS HAST CCG,-1.712365,54.969713
1.52,VC WEST LANCS COMMUNITY NURSING,-2.840112,53.602357
33.5,SOUTH DALES HEALTHCARE LTD,-1.571366,53.077623
2934.800000000001,PRIORY MEDICAL CENTRE,-1.588641,52.285051
120.17,MODALITY ANN JONES FAMILY HEALTH CENTRE,-1.871333,52.462659
224.47,BALDWINS LANE SURGERY,-1.846405,52.414514
823.5500000000003,TUDOR PRACTICE STOCKLAND GREEN,-1.857329,52.52388199999999
1665.6999999999996,CENTRAL SURGERY,-2.74261,53.456686
5199.780000000002,ASH TREES SURGERY,-2.769484,54.129481
732.6999999999998,FAMILY PRACTICE,-2.486748,53.750552
1409.38,MONARCH MEDICAL CENTRE,-2.316823,53.564198
2127.9200000000005,LEESBROOK SURGERY,-2.07266,53.53879
1052.91,WALTON SURGERY,1.335453,51.973564
748.44,LINCOLN GREEN MEDICAL CENTRE,-1.525196,53.802098
399.95,PARKGATE SURGERY,-1.548606,54.523273
924.24,DALTON TM,-2.643772,53.529393
664.7000000000002,POLLARD ROW SURGERY,-0.064328,51.528266
1647.9399999999994,HARROGATE OOH,-1.517573,53.993807
1750.4699999999998,MIRIAM MINOR EMERGENCY,-3.04649,53.39824599999999
50.09,ASHFORD HUB,-0.472813,51.444022
246.12,EXTENDED HOURS SERVICE,-2.9023,53.211542
185.82,LIVEWELL S/W,-4.116613,50.378837
9.82,WILL ADAMS NHS TREATMENT CENTRE,0.576568,51.380889
240.66,RUSHCLIFFE URGENT CARE SERVICE,-1.100495,52.924252
258.66,RUNCORN URGENT CARE CENTRE WIC,-2.694681,53.323266
2.55,COLORECTAL SURGERY,-0.210281,51.409967
827.1599999999999,PML NEIGHBOURHOOD HUB (BANBURY),-1.349027,52.057771
718.09,BALDERTON SURGERY,-0.7864679999999998,53.052881
623.1100000000001,ULVERSTON COMMUNITY HEALTH CENTRE,-3.097833,54.198882
1862.83,NORTH ROAD SUITE RAVENSTHORPE HEALTH CTR,-1.661589,53.677829
1767.3899999999994,CASTLE MEAD MEDICAL CENTRE,-1.367743,52.541052
1984.01,RADCLIFFE-ON-TRENT. HEALTH CENTRE,-1.03822,52.946139
1798.67,RISE PARK SURGERY,-1.174951,53.011477
1304.13,MANCHESTER ROAD SURGERY,-1.521086,53.380573
1646.79,CHERRY HINTON MEDICAL CENTRE,0.177635,52.187459
1832.34,THE MEDICI MEDICAL PRACTICE,-0.418382,51.874494
999.1400000000001,PENSHURST GARDENS SURGERY,-0.272812,51.616129
1128.7299999999998,ELLIS PRACTICE,-0.276552,51.563894
475.30999999999995,ORCHARD END,0.539532,51.091415
1523.46,NEW ELTHAM AND BLACKFEN MEDICAL CENTRE,0.074199,51.434495
763.1899999999998,THE GROVE MEDICAL CENTRE,-2.513702,50.953273
3505.8100000000004,BISHOPS WALTHAM SURGERY,-1.212149,50.95528
1149.5500000000004,COLVILLE HEALTH CENTRE,-0.206231,51.515837
1030.11,BRICKFIELDS SURGERY,0.605168,51.653143
988.34,TYNEMOUTH MEDICAL PRACTICE,-0.068331,51.586253
4035.11,TRINITY MEDICAL CENTRE,-0.172008,50.831228
1777.8200000000004,THE CEDARS SURGERY,1.403174,51.217619
408.17,THE KINGS FAMILY PRACTICE,0.534548,51.377821
1682.25,FOUNTAIN PRACTICE,-0.252307,51.350378
1011.38,ST ALBANS MEDICAL CENTRE,-0.302479,51.42195
2384.9100000000008,ORCHID HOUSE SURGERY,-1.894499,50.801788
3157.82,THE HADLEIGH PRACTICE,-1.993525,50.761018
3921.8500000000013,THREE CHEQUERS MEDICAL PRACTICE,-1.794625,51.071924
2658.57,WEAVERS MEDICAL,-0.733538,52.401531
2037.29,NUFFIELD HEALTH CENTRE,-1.486793,51.786441
2258.870000000001,BARTON SURGERY,-3.473818,50.579848
2925.28,BIDEFORD MEDICAL CENTRE,-4.211785,51.017201
2699.27,CORBETT MEDICAL PRACTICE,-2.148792,52.263269
4874.94,THE WESTGATE PRACTICE,-1.821176,52.683537
698.5299999999997,COBRIDGE SURGERY,-2.187008,53.035377
764.5500000000003,BURBURY MEDICAL CENTRE,-1.9103740000000002,52.502215
2180.059999999999,PLECK HEALTH CENTRE,-1.9980380000000002,52.574248
409.16,CORNERSTONE SURGERY,-2.724149,53.454211
493.2300000000001,HIGHER HEYS SURGERY,-2.394094,53.740865
2301.2500000000005,ALBION MEDICAL PRACTICE,-2.088476,53.48960400000001
4304.56,DELAMERE MEDICAL PRACTICE,-2.307365,53.450887
770.7299999999998,240 WEXHAM ROAD,-0.57838,51.516902
1169.9699999999998,LONGFIELD MEDICAL PRACTICE,-2.28357,53.533828
4304.330000000001,THISTLEMOOR MEDICAL CENTRE,-0.254566,52.595274
430.05,PALACCI (CASTELNAU),-0.238274,51.476873
917.3099999999998,CANTERBURY HEALTH CENTRE,1.082981,51.274249
133.0,GP EXTENDED HOURS,-2.597522,53.389256
707.1899999999998,BANBURY HEALTH CENTRE,-1.334014,52.062032
721.64,BRERETON SURGERY,-1.924317,52.747482
507.38,THE LAWNS SURGERY,-0.502907,50.807746
1095.07,OAK TREE HEALTH CENTRE,-1.2409629999999998,51.614986
909.07,THE TRINITY MEDICAL PRACTICE,0.760305,51.684982
39.2,DERMATOLOGY CLINIC,-2.486748,53.750552
703.03,SOHO HEALTH CENTRE,-1.934945,52.503094
15.52,BARNET COPD SERVICE,-0.271242,51.606493
232.58,BECKENHAM BEACON URGENT CARE CENTRE,-0.033209,51.405232
238.76,HILLINGDON COMMUNITY DERMATOLOGY,-0.08430999999999998,51.500087
732.3900000000001,BRIERLEY MEDICAL CENTRE,-1.382484,53.594188
540.28,NORWICH IMPROVED ACCESS HUB,1.319958,52.632405
1154.7,METRO INTERCHANGE SURGERY,-1.602943,54.961848
2777.81,BRIDGE VIEW MEDICAL GROUP,-1.401824,54.919455
1058.39,QUAKERS LANE SURGERY,-1.741713,54.406363
3805.68,HOLLYNS HEALTH & WELLBEING - CLAYTON,-1.81454,53.779166
4612.11,BRIDGE STREET MEDICAL PRACTICE,-1.20716,52.774841
2149.7599999999993,CAYTHORPE & ANCASTER MEDICAL PRACTICE,-0.536327,52.981851
1177.4000000000008,PARSON DROVE SURGERY,0.050459,52.660947
1915.22,PRIORS FIELD SURGERY,0.124169,52.388951
3356.38,DAVENPORT HOUSE SURGERY,-0.354549,51.816177
3450.0099999999993,MILLWAY MEDICAL PRACTICE,-0.24359099999999997,51.614985
1267.29,TEMPLE FORTUNE MEDICAL GROUP,-0.197845,51.581101
100.46,MOULSHAM LODGE SURGERY,0.475137,51.716565
359.46,WARRIOR SQUARE SURGERY,0.716503,51.539534
381.75,BRAYFORD SQUARE SURGERY,-0.050404,51.514375
1089.38,YORK ROAD SURGERY,0.065859,51.559165
3094.8900000000012,WEST MALLING GROUP PRACTICE,0.407707,51.293351
2307.65,ELMDENE SURGERY,0.263153,51.446098
1842.2300000000007,MOAT HOUSE SURGERY,-0.146361,51.259819
484.59,ALEXANDRA SURGERY,-0.205887,51.422912
2132.26,DENHAM MEDICAL CENTRE,-0.502236,51.584564
1549.1900000000005,CHEW MEDICAL PRACTICE,-2.629195,51.35619
1892.75,ST.GEORGE'S SURGERY,-2.0815,51.906706
215.18,OLDHAM URGENT TREATMENT GTD HEALTHCARE,-2.121831,53.553248
2075.11,CHARING SURGERY,0.791374,51.20971
1770.82,THAMES AVE SURGERY,0.603057,51.36344
6106.74,CANTERBURY MEDICAL PRACTICE,1.128982,51.245539
363.62000000000006,TRAFALGAR SURGERY,-0.074414,51.485672
1121.1799999999994,THE ORCHARD PRACTICE,-0.303542,51.369116
2172.55,BALHAM PARK SURGERY,-0.155715,51.440487
2329.11,UNIVERSITY HEALTH SERVICE,-1.395714,50.934099
1327.2499999999998,LINDEN MEDICAL CENTRE,-0.737415,51.530813
1311.0099999999998,OBSERVATORY MEDICAL PRACTICE,-1.265958,51.760293
780.96,CROPREDY SURGERY,-1.320027,52.116731
5175.489999999999,HEART OF BATH,-2.373947,51.376364
1062.17,BIRCHWOOD MEDICAL PRACTICE,-2.547938,51.446246
1386.9299999999996,LOSTWITHIEL SURGERY,-4.668763,50.407892
1303.15,ST SAVIOURS SURGERY,-2.308488,52.130324
6048.899999999999,WERRINGTON VILLAGE SURGERY,-2.098023,53.021659
1327.31,WEST HEATH SURGERY,-1.96202,52.401797
462.74,WEST PARK SURGERY,-2.141256,52.587783
510.22000000000014,THE MARSHSIDE SURGERY,-2.963125,53.67143299999999
1059.81,MERSEYBANK SURGERY,-2.263012,53.42276
1278.04,THE GROVE ROAD PRACTICE,-0.202341,51.358201
1095.58,MOOR PARK MEDICAL PRACTICE,-1.7218490000000002,53.797834
1037.52,UPTON ROCKS PRIMARY CARE,-2.754371,53.373367
902.25,HANLEY PRIMARY CARE CENTRE,-0.12083699999999999,51.567951
859.6899999999998,LEYLAND SURGERY,-2.709316,53.689645
98.67,COMMUNITY NURSING,-0.670796,53.57972
24.01,HP NMP'S RUSH CCG,-1.143101,53.130244
4.23,THE PRACTICE OPTHALMOLOGY CLINIC,-0.574826,51.671154
23.89,COMMUNITY NURSING,-2.372621,51.358169
8.190000000000001,RUSHCLIFFE T&O COM CLINIC,-1.132346,52.930754
111.72,YORKSHIRE SMOKEFREE,-1.018306,53.503028
1401.4399999999996,WELLSBOURNE HEALTHCARE CIC,-0.107386,50.825445
657.52,CHEVIOT MEDICAL GROUP,-2.01842,55.546525
3216.62,THE CENTRAL SURGERY BARTON,-0.439445,53.684236
585.01,DEARNE VALLEY HEALTH CENTRE,-1.626482,53.588349
1387.8300000000004,MICKLEOVER MEDICAL CENTRE,-1.54633,52.907111
2406.5,THE UNIV OF NOTTINGHAM HEALTH SERV,-1.195942,52.942177
1667.1699999999994,LISTER HOUSE SURGERY,-0.4515,51.89192
867.6800000000003,THE ELMS SURGERY,-0.404224,51.661642
1257.3900000000006,HOUNSLOW MEDICAL CENTRE,-0.37684,51.469395
544.97,P A PATEL SURGERY,0.582273,51.56978
301.0200000000001,SANCTA MARIA MEDICAL CENTRE,0.284011,51.507882
4207.910000000002,SEAFORD MEDICAL PRACTICE,0.099275,50.772678
3988.88,BUXTED MEDICAL CENTRE,0.132095,50.989406
362.4100000000001,NEW INN SURGERY,-0.545657,51.257698
629.75,THE WHITEHORSE PRACTICE,-0.097391,51.385869
2258.3100000000004,THE HEALTH CENTRE,-0.19711,51.363031
3308.45,WEST END ROAD SURGERY,-1.359281,50.916702
1503.37,TOWER HOUSE SURGERY,-0.770004,51.636372
2580.4500000000007,CHURCH STREET PRACTICE,-1.425847,51.598763
1373.4399999999996,CLINTON ROAD SURGERY,-5.224966,50.23093
2081.8200000000006,PINHOE SURGERY,-3.469622,50.737528
3875.47,ROSEBANK HEALTH,-2.242194,51.852611
1734.7999999999995,MAPLE VIEW MEDICAL PRACTICE,-1.905693,52.31659
1189.3100000000004,PRESCOTT SURGERY,-2.852689,52.784345
283.73,BLOOMSBURY HEALTH CENTRE,-1.876618,52.493743
1963.32,HEATON ROAD SURGERY,-1.579814,54.978269
2329.6600000000008,49 MARINE AVENUE SURGERY,-1.451082,55.046268
1846.0200000000007,HOUGHTON MEDICAL GROUP ,-1.469175,54.842322
1436.8299999999995,HOWDEN MEDICAL PRACTICE,-0.8694039999999998,53.744175
900.4899999999999,HANCOCKS ME,-0.41296400000000005,53.782123
1581.5400000000004,THE WILSDEN MEDICAL PRACTICE,-1.86138,53.818377
216.59,COLSTERWORTH SURGERY,-0.619356,52.806388
294.2800000000001,LUNDWOOD MEDICAL CENTRE PMS PRACTICE,-1.438538,53.557711
569.21,GREASBROUGH MEDICAL CENTRE,-1.372776,53.452893
3507.5199999999995,WELLSIDE SURGERY,-0.28478,52.440324
996.79,CLARE GUILDHALL SURGERY,0.580469,52.078259
1813.2200000000007,LATTIMORE & VILLAGE SURGERY,-0.298547,51.726244
180.47,SOMERSET MEDICAL CENTRE,-0.371127,51.522244
2450.860000000001,CENTRAL UXBRIDGE SURGERY,-0.475739,51.546229
1948.2200000000007,WEST MERSEA SURGERY,0.9193420000000002,51.778349
3043.3700000000013,HIGHLANDS SURGERY,0.637339,51.548005
1398.9700000000007,BALLARDS WALK SURGERY,0.441841,51.573232
2354.5799999999995,DOWNLANDS MEDICAL CENTRE,0.244085,50.822919
3545.610000000001,OTFORD MEDICAL PRACTICE,0.191446,51.31358
628.6500000000002,THE HALFWAY SURGERY,0.524157,51.380429
1774.3899999999994,BURNEY STREET PMS,-0.009168,51.479034
1521.57,ELIZABETH HOUSE MEDICAL PRACTICE,-0.050005,51.308093
643.1900000000002,ADDINGTON MEDICAL PRACTICE,-0.018557,51.344382
198.72,SARAJLIC (STAINES ROAD),-0.357923,51.439672
4598.68,ROYAL CRESCENT SURGERY,-2.452679,50.616587
1785.67,TWYFORD SURGERY,-1.314229,51.019421
137.78000000000003,ABBEY MEDICAL CENTRE,-0.982406,51.453949
1236.2500000000002,ST.BARTHOLOMEWS MEDICAL CENTRE,-1.232108,51.747668
5592.330000000001,THE DOWNEND HEALTH GROUP,-2.505301,51.485109
2419.9900000000007,IDE LANE SURGERY,-3.534972,50.699471
1133.8900000000006,THE ARROW SURGERY,-1.861382,52.218546
2226.12,DR SN CLAY AND PARTNERS,-1.832005,52.528641
570.02,WILLENHAL OAK MEDICAL CENTRE,-1.463131,52.388988
2018.26,WORDSLEY GREEN HEALTH CENTRE,-2.164692,52.480602
3335.700000000001,THE OVER-WYRE MED.CTR.,-2.976492,53.928203
1194.8300000000004,FISHERGATE HILL SURGERY,-2.714363,53.75445500000001
877.0599999999998,THE SINGH MEDICAL PRACTICE,-2.213622,53.512042
1728.0099999999998,PARK VIEW GROUP PRACTICE,-2.160577,53.445476
1672.24,FAMILY SURGERY,-2.346055,53.396194
85.32,STROKE PATHWAY AND REHABILITATION CENTRE,-1.461102,53.37116700000001
38.78,COMMUNITY PAEDIATRICS (SILCS),-1.612399,53.799904
0.76,NWR COMMUNITY SERVICES,-1.014748,51.449145
2.34,ABOUT HEALTH LN DERMATOLOGY,-2.455551,53.733223
89.29,URGENT CARE,0.475497,50.850706
644.76,CRANBROOK MEDICAL PRACTICE,-3.416198,50.746596
4.07,PCOC DVT SERVICE,-0.7662759999999998,52.000308
180.67,GOSPORT PRIMARY CARE ACCESS CENTRE,-1.148081,50.793062
2.58,COMMUNITY PALLIATIVE CARE MEDICAL TEAM,-2.777861,53.433387
3753.95,WHITLEY BAY HEALTH CENTRE,-1.43996,55.04141
3616.4599999999987,BLACKBURN RD.MEDICAL CTR.,-1.664718,53.731348
5196.580000000001,MARKET HARBOROUGH MED.CTR,-0.924843,52.477084
1802.8399999999995,COMMUNITY HEALTH CENTRE (ZS OSAMA),-1.113421,52.632387
4220.080000000001,TRAMWAYS MEDICAL CENTRE (O'CONNELL),-1.503023,53.402044
2373.4099999999985,SAFFRON HEALTH PARTNERSHIP,-0.264459,52.084232
1503.4900000000007,GLADSTONE MEDICAL CENTRE,-0.24612,51.558731
1012.34,ST MARTINS MEDICAL CENTRE,-0.424566,51.577646
624.5200000000002,ABRIDGE SURGERY,0.12458,51.653631
599.33,ELSDALE STREET SURGERY,-0.049094,51.543033
2353.550000000001,STOPSLEY VILLAGE PRACTICE,-0.394147,51.901132
3065.42,SHEFFORD HEALTH CENTRE,-0.321643,52.034788
820.1000000000001,VALE DRIVE MEDICAL PRACTICE,-0.194727,51.648828
981.54,THE FRYENT WAY SURGERY,-0.280565,51.582963
1136.38,BELMONT MEDICAL CENTRE,-0.478036,51.548264
1162.99,PORTLAND ROAD PRACTICE,-0.208019,51.507366
6018.039999999999,AUDLEY MILLS SURGERY,0.607129,51.584978
817.87,STRATFORD HEALTH CENTRE,0.004714,51.544651
802.2700000000002,THE STROUDLEY WLK HTH CTR,-0.017533,51.527214
1217.6699999999996,ST JOHN'S MEDICAL PRACTICE,0.195249,51.285009
1870.7700000000007,BEXLEY GROUP PRACTICE,0.10965599999999999,51.465832
838.3999999999999,DERRY DOWNS SURGERY,0.116651,51.385174
2381.43,UPPER NORWOOD GROUP PRACTICE,-0.08482,51.413308
1636.5500000000004,THE MOORINGS MEDICAL PRACTICE,-0.095892,51.322229
802.4600000000002,THE TOLLERFORD PRACTICE,-2.571586,50.778924
3050.1499999999987,BLACKTHORN HEALTH CENTRE,-1.327194,50.876037
515.3200000000002,JUBILEE FIELD SURGERY,-2.191875,51.484091
1811.15,DANES CAMP MEDICAL CENTRE,-0.904374,52.205152
1696.2099999999996,THORNBURY HEALTH CENTRE - BURNEY,-2.517723,51.612861
1399.6900000000005,ELM HAYES SURGERY,-2.492756,51.300546
1522.4600000000007,CULVERHAY SURGERY,-2.348649,51.638921
3695.860000000001,SHAWBIRCH MEDICAL CENTRE,-2.531858,52.718121
1830.31,THE DOVE MEDICAL PRACTICE,-1.864605,52.535155
2832.9,MOSS GROVE SURGERY,-2.1699,52.498674
3332.7100000000014,WARLEY MEDICAL CENTRE,-2.006757,52.468122
1805.7000000000005,SPRINGFIELDS MEDICAL CENTRE,-2.597522,53.389256
2245.26,WEAVER VALE PRACTICE,-2.696866,53.325561
2192.2300000000005,GLOVERS LANE SURGERY,-2.971961,53.488314
1421.85,OLIVE MEDICAL CENTRE,-2.484193,53.752309
798.36,HALLIWELL SURGERY 1,-2.431738,53.588322
1282.73,HEATON MERSEY MED.PRACT.,-2.205118,53.412519
1180.6999999999996,VILLAGE SURGERY,-0.255874,51.399503
407.09,SOMERS TOWN MEDICAL CENTRE,-0.130607,51.529916
397.67,FITZMAURICE (KEW),-0.283117,51.475875
841.8899999999996,WOOTTON VALE HEALTHY LIVING CENTRE,-0.527951,52.093688
1560.89,ST LUKE'S HEALTH CENTRE,0.7293039999999998,51.551
7112.300000000001,THE MEDICAL GROUP,-1.628911,54.748296
2942.81,GLENPARK MEDICAL CENTRE,-1.640096,54.953229
365.22,DR KHALIQ,-1.799612,53.663276
2383.7000000000007,ROBIN LANE HEALTH AND WELLBEING CENTRE,-1.661311,53.79500899999999
1080.2199999999998,LAUREL BANK SURGERY,-1.587333,53.816942
1949.37,HUGGLESCOTE SURGERY,-1.365684,52.71103
892.77,HEALTH CARE COMPLEX  KIRKBY,-1.244634,53.100062
1845.19,RED HOUSE SURGERY,0.129161,52.214906
619.4399999999998,KINGS HEAD MEDICAL PRACTICE,-0.011448,51.635688
308.7800000000001,BRIMPTON HOUSE,0.699534,51.835776
784.3299999999998,THE AZAD PRACTICE,0.044868,51.531234
1250.9499999999996,NEWHOLME SURGERY,-2.74261,53.456686
953.07,BRIGHTON STATION WALK-IN,-0.141323,50.827937
3.43,THE NORTH HAMPSHIRE ALLIANCE,-1.093694,51.26408
19.71,SW INTEGRATED TEAM MALVERN,-2.178135,52.192339
30.450000000000006,CCCT 2,-2.019013,53.955694
5.390000000000001,COMMUNITY NURSES,-2.500977,51.462504
18.63,FELIXSTOWE HOSPITAL,1.35594,51.963766
1503.6600000000005,LUNESDALE SURGERY,-2.602213,54.200573
3075.0,COQUET MEDICAL GROUP,-1.580504,55.332599
439.6499999999999,THE GLENDALE SURGERY,-2.01842,55.546525
1000.48,ALLERTON MEDICAL CENTRE,-1.533879,53.826921
968.95,SPILSBY SURGERY,0.098963,53.173049
426.99000000000007,BRIDGEWAY PRACTICE,-1.147343,52.943574
1981.5500000000006,THORNE MOOR MEDICAL PRACTICE,-0.966348,53.613648
2692.9100000000008,MANOR AND PARK GROUP PRACTICE,-1.42716,53.373705
1003.9900000000004,SOLE BAY H/C,1.6664740000000002,52.336325
958.5300000000003,DR PS BATH'S PRACTICE,-0.394147,51.901132
799.8000000000003,WATERSIDE MEDICAL CENTRE,-0.363984,51.502165
1660.2800000000007,MELBOURNE HOUSE SURGERY,0.451756,51.749214
2786.8500000000013,LITTLE WALTHAM & GT NOTLEY SURGERY,0.477622,51.787396
1250.4699999999998,AMPTHILL PRACTICE,-0.137293,51.5346
1055.7400000000002,THE NORTH LONDON HEALTH CENTRE,-0.11243199999999999,51.617571
1367.6999999999996,THE WILLOWS PRACTICE,0.104416,51.60776
2681.0000000000005,ST.PETER'S MEDICAL CENTRE,-0.135237,50.831002
2496.89,HIGHPARKS MEDICAL PRACTICE,0.496762,51.434213
2143.2200000000007,YALDING,0.429804,51.221188
1192.4000000000005,CRAWLEY DOWN HEALTH CENTRE,-0.07762099999999998,51.122557
865.8899999999999,BIRDHURST MEDICAL PRACTICE,-0.092613,51.365279
2432.460000000001,FORESTSIDE MEDICAL PRACTICE,-1.416173,50.851823
1367.14,BENTLEY VILLAGE SURGERY,-0.87992,51.189933
2716.78,DR KUMAR & PARTNER STUDFALL MEDICAL CTR,-0.704816,52.495882
2230.88,CASTLE PLACE PRACTICE,-3.492865,50.908884
1696.0899999999995,COTSWOLD MEDICAL PRACTICE,-1.75678,51.886317
2710.85,GLASTONBURY SURGERY,-2.721853,51.148462
2362.080000000001,NUNWELL SURGERY,-2.507177,52.187931
1700.9899999999993,CLEOBURY MORTIMER SURGERY,-2.485608,52.377502
2854.1,MEDINA HEALTHCARE,-1.298686,50.697239
1821.0900000000006,BEDFORD STREET SURGERY,-0.729782,51.995784
2961.7099999999987,ALCHESTER MEDICAL GROUP,-1.138371,51.891398
1163.49,GREENWAY COMMUNITY PRACTICE,-2.611274,51.499595
3055.07,THREE SPIRES MEDICAL PRACTICE,-5.055864,50.259982
3030.24,DEAN CROSS SURGERY,-4.095355,50.358939
2060.78,SOUTHOVER MEDICAL PRACTICE,-3.528075,50.474733
1329.0300000000002,NEW VALLEY PRACTICE,-3.654492,50.792383
1632.9900000000007,THE STOKE ROAD SURGERY ,-2.068173,51.94667
2243.890000000001,HIGHBRIDGE MEDICAL CENTRE,-2.979117,51.227372
2375.6800000000007,CANTILUPE SURGERY,-2.712261,52.055418
1916.71,MYTTON OAK MEDICAL PRACT.,-2.797762,52.707667
641.1599999999996,DRS SHAH & TALPUR,-2.194635,52.974032
1247.7400000000002,DR VSR CHADALAVADA,-2.139143,53.0416
917.8,HAWKESLEY MEDICAL PRACTICE,-1.937498,52.39544
597.9500000000002,KEYNELL COVERT,-1.911857,52.408441
1967.28,PARK MEDICAL CENTRE,-2.873099,53.202665
1679.6799999999996,NORWOOD SURGERY,-2.97819,53.65000799999999
1926.63,WHALLEY MEDICAL CENTRE,-2.406348,53.819793
440.24999999999994,SLAIDBURN HEALTH CENTRE,-2.444001,53.967313
1606.9400000000005,PIKES LANE 1,-2.446348,53.572728
639.86,DR PATHAK ND,-1.9843959999999998,52.51273
485.7699999999999,STRELLEY HEALTH CENTRE (COCKRILL),-1.227726,52.973231
1024.87,PHOENIX MEDICAL PRACTICE,0.48126899999999995,51.328805
487.36,NETHERTON SURGERY,-2.97236,53.488626
876.2899999999998,DILSTON MEDICAL CENTRE,-1.640355,54.976621
1438.2400000000007,NORTH CHELMSFORD NHS HCC,0.510815,51.750584
231.85,KIRKHOLT MEDICAL PRACTICE,-2.162243,53.59832
1.33,WOKING ALEXANDRA WARD,-0.556304,51.315132
198.39,GPHP - GP IN A&E,-0.273231,51.325518
1061.5700000000004,DR AZIM & PARTNERS,-0.225729,51.579655
8.699999999999998,BARTON MOSS SECURE CHILDREN'S HOME,-2.39687,53.468834
528.3899999999999,BHF HIGHGATE SURGERY,-1.378978,53.573614
1623.2,SEASCALE HEALTH CENTRE,-3.479998,54.396756
379.84,WIDDRINGTON SURGERY,-1.62051,55.240248
516.8399999999998,RIPLEY MEDICAL CENTRE,-1.405723,53.04704
2517.23,DE MONTFORT SURGERY,-1.141192,52.6286
795.0500000000003,DENABY MEDICAL PRACTICE,-1.245792,53.490666
1173.8,MENDLESHAM MEDICAL GROUP,1.0816,52.251866
1694.6299999999994,UPTON ROAD SURGERY,-0.401058,51.656689
2486.3299999999995,DOLPHIN HOUSE SURGERY,-0.029818,51.810791
1137.6800000000005,THE EVERGLADE MEDICAL PRACTICE,-0.24421,51.601578
1790.7899999999993,FRIERN BARNET MEDICAL CENTRE,-0.155988,51.613267
519.4999999999999,THE CIVIC MEDICAL CENTRE,-0.337497,51.587155
2174.73,THE GOLD STREET SURGERY,0.240471,52.021716
3699.970000000001,THE HOLLIES,0.610574,51.555461
1087.94,THE LEIGH SURGERY,0.656153,51.555504
1686.0,WEST HAMPSTEAD MEDICAL CENTRE,-0.196578,51.55004
1697.5499999999995,STAUNTON GROUP PRACTICE,-0.112926,51.599388
1999.12,SOUTHBROOM SURGERY,-1.989037,51.352288
1879.23,THE DOWNLAND PRACTICE,-1.312402,51.463442
531.1600000000002,BLAKENEY SURGERY,-2.476364,51.759117
2586.15,WELLS HEALTH CENTRE,-2.655326,51.203403
2170.59,RIVERSIDE MED.PRACTICE,-2.755278,52.709209
1042.83,CHANCERY LANE SURGERY,-1.521755,52.536173
711.4299999999998,NECHELLS PRACTICE,-1.876618,52.493743
1462.0999999999995,THE LIMES MEDICAL CENTRE,-1.974677,52.58065500000001
1346.2400000000002,TOWNFIELD HEALTH CENTRE,-3.064248,53.378798
209.23000000000005,PRINGLE STREET SURGERY,-2.467594,53.742039
848.7699999999996,HOPWOOD MEDICAL CENTRE,-2.212052,53.587143
2542.36,THE KILTEARN MEDICAL CTR.,-2.518506,53.068155
2094.32,BROADWAY MEDICAL CENTRE,-3.033843,53.912667
1539.77,EGERTON/DUNSCAR HEALTH CENTRE,-2.426383,53.617589
3019.8899999999994,SADDLEWORTH MEDICAL PRACTICE,-2.004957,53.548331
500.24000000000007,VILLAGE MEDICAL PRACTICE,-2.095994,53.574817
374.33,EASTGATE SURGERY,-0.519836,51.886145
231.11,SUMMERFIELD GROUP PRACTICE,-1.937353,52.487686
35.21,CATS - VERULAM GYNAECOLOGY,-0.302218,51.724886
1239.9899999999998,PHOENIX PRIMARY CARE (SOUTH) LTD,-0.441597,51.88973
1803.3,THURROCK HEALTH CENTRE,0.323317,51.477404
1.42,PATIENT FIRST SOCIAL ENTERPRISE,0.006461,51.542096
3.78,SOLENT WEST NMPS,-1.446031,50.92524
142.38,CWP (WEST) PHYSICAL HEALTH,-2.897884,53.2088
81.96,CNWL-MK MEDICAL PRESCRIBER,-0.7357599999999997,52.026384
13.49,SOTON COMMUNITY ENT SERVICE RSH,-1.397076,50.912389
44.68999999999999,THOMAS LINACRE SPECIALIST,-2.629091,53.55774
2325.0600000000004,CARE UK COVENTRY OOH,-1.5080049999999998,52.413401
64.61,NSC BOSWORTH HUB,-1.7536330000000002,52.480569
246.38,SKEGNESS & COAST GP EXTENDED ACCESS HUB,0.342219,53.188059
8.46,COASTAL HEALTH SOUTH,1.715177,52.478072
546.9999999999999,THE OM SURGERY,-1.2057,53.034978
1175.6799999999996,LINCOLN OOH,-0.519635,53.233575
1110.1299999999997,THE NEW SPRINGWELLS PRACTICE,-0.340804,52.893623
35.36,WANDSWORTH COMMUNITY WARDS,-0.145908,51.472301
2133.49,SAME DAY HEALTH CNTRE COASTAL HEALTHCARE,-2.859565,54.072841
0.77,WHITTINGTON HEALTH (HARINGEY),-0.139066,51.566482
608.62,PARSONS GREEN WIC,-0.199155,51.47377
1035.3699999999997,CAMP HILL GP LED HEALTH CENTRE,-1.507061,52.533074
3390.4700000000007,DONCASTER URGENT CARE & OUT OF HOURS,-1.109062,53.530806
262.63,THE CONFEDERATION HILLINGDON CIC,-0.47790600000000005,51.547653
408.98,EAST CLUSTER IAGPS,-1.82052,50.747482
11.09,HMR CCG HART,-2.152215,53.620446
359.53,THE PATEL PRACTICE,-1.1885709999999998,54.661404
5683.87,HOLMSIDE MEDICAL GROUP,-1.66023,54.969004
1897.38,FARROW MEDICAL CENTRE,-1.74312,53.802511
1959.73,PADDOCK AND LONGWOOD FAMILY PRACTICE,-1.80546,53.642119
2316.370000000001,BRAMLEY VILLAGE HEALTH & WELLBEING CTR,-1.623032,53.80781999999999
739.2299999999998,SEVERN SURGERY,-1.065583,52.598801
4599.38,BEACHES MEDICAL CENTRE,1.727734,52.577124
1262.4,LINDEN ROAD SURGERY,-0.479248,52.14361
2350.550000000001,CUFFLEY AND GOFFS OAK MEDICAL PRACTICE,-0.113106,51.708171
7.74,ARC,-3.002931,53.801771
61.76,PRIMARY CARE ACCESS HUB (SOUTH STOKE),-2.102853,52.97847
235.28000000000003,NEAS SOUTH TYNESIDE CCG,-1.712365,54.969713
479.02,GP SERVICES-CRAWLEY HUB,-0.175734,51.240416
281.35,PROCARE HEALTH SERVICES,-0.708282,51.091746
4605.72,GLOUCESTER (CARE UK) OOH,-2.30608,51.879263
48.85,MERTON REHAB BEDS,-0.224115,51.437407
27.04,EXTENDED ACCESS PCD CONISBROUGH GROUP,-1.237653,53.482282
3232.51,THE GARTH,-1.055444,54.532597
1329.03,THE GABLES MEDICAL GROUP,-1.564429,55.140811
1614.5600000000004,HAYDON BRIDGE & ALLENDALE MEDICAL PRACT,-2.250059,54.975681
1381.3000000000004,SPRING TERRACE HEALTH CENTRE,-1.450673,55.010941
1447.1400000000006,PRACTICE ONE,-0.201064,54.084715
3468.180000000001,CHURCH STREET SURGERY,-1.583343,53.681523
1768.09,SOUTH WIGSTON HEALTH CTR.,-1.129183,52.580452
418.5,BRAMCOTE SURGERY,-1.244985,52.935604
1751.62,CAMPINGLAND SURGERY,0.690978,52.645997
3236.0,LEIGHTON ROAD SURGERY,-0.66795,51.915779
2291.51,WILLOW TREE FAMILY DOCTORS,-0.265224,51.589337
1357.84,QUEENS WALK PRACTICE,-0.312985,51.524803
1366.72,HIGH STREET SURGERY  EPPING,0.113402,51.700812
3626.320000000001,OLD ROAD SURGERY,1.148421,51.795466
664.91,HIGH STREET SURGERY,0.223589,51.561554
2547.51,THE LIMEHOUSE PRACTICE,-0.028747,51.511253
301.6,MEDICUS HEALTH PARTNERS-WILLOW HOUSE,-0.07659,51.654209
2621.870000000001,MAIDSTONE RD RAINHAM SURGERY,0.600379,51.36233
368.0899999999999,BANK HOUSE SURGERY,0.069949,51.359218
833.77,FORDBRIDGE MEDICAL CENTRE,-0.46301,51.431269
1275.41,EVERSLEY MEDICAL CENTRE,-0.11191300000000001,51.388514
1261.94,YORK MEDICAL PRACTICE,-0.325697,51.449369
609.9999999999999,BERRYLANDS SURGERY,-0.299929,51.390825
1945.3600000000006,CRICKET GREEN MEDICAL PRACTICE,-0.174025,51.404579
1248.74,CARRINGTON HOUSE SURGERY,-0.749217,51.632299
445.65,PROSPECT HOUSE SURGERY,-0.705258,51.701136
855.93,WEMBURY SURGERY,-4.072566,50.32186
1250.2700000000002,HOLLYOAKS MEDICAL CENTRE,-1.869052,52.377979
1659.0,WOODSETTON MEDICAL CENTRE,-2.10089,52.537994
2414.48,SHERWOOD HOUSE MEDICAL PRACTICE,-1.959426,52.473851
564.3399999999998,GARSTON FAMILY HEALTH CENTRE,-2.89683,53.353909
1107.7399999999998,COMMONFIELD RD SURGERY,-3.086369,53.370187
1484.9199999999994,THE BORCHARDT MEDICAL CENTRE,-2.237795,53.434307
521.88,WERNETH MEDICAL PRACTICE,-2.126938,53.53497
416.87000000000006,CHAPEL MEDICAL CENTRE,-2.418293,53.449094
784.58,DR VICTORIA MUIR'S PRACTICE,-0.151358,51.490651
2566.52,WELLFIELD MEDICAL CENTRE,-2.242019,53.512545
2872.740000000001,NEWLANDS MEDICAL CENTRE,-1.226035,54.571931
2336.23,WIGTON GROUP MEDICAL PRACTICE,-3.159002,54.820303
802.0599999999998,THE FAMILY PRACTICE,-3.229282,54.116755
3459.2000000000007,SKERNE MEDICAL GROUP,-1.4488,54.654032
1469.44,ST ANDREWS SURGERY,-0.361958,53.735566
1916.91,COWGILL SURGERY,-1.814543,53.781952
1749.2400000000002,VILLAGE SURGERY,-1.485797,52.896347
533.4700000000001,THE GLENSIDE COUNTRY PRACTICE,-0.537958,52.75451
518.03,PLEASLEY SURGERY,-1.250873,53.175809
777.2199999999998,BACON LANE SURGERY,-0.275903,51.605078
1456.0600000000004,THE MEDICAL CENTRE  DR JEFFERIES & PARTN,-0.212607,51.481206
281.28,MEANWHILE GARDEN MEDICAL CENTRE,-0.203126,51.522228
3834.38,THE LIMES MEDICAL CENTRE,0.123958,51.706179
2066.48,CHIGWELL MEDICAL CENTRE,0.083876,51.60551
550.6400000000001,NORTH AVENUE SURGERY,0.735187,51.546618
1437.4699999999998,ROSERTON STREET SURGERY,-0.010049,51.498482
311.32000000000005,MEDICUS HEALTH PARTNERS- BUSH HILL PARK,-0.066545,51.63953
1935.9100000000005,ALBION PLACE MEDICAL PRACTICE,0.529542,51.274206
845.5200000000002,OLD PARSONAGE SURGERY,0.460418,51.112785
1076.61,TRIVENI PMS,0.058438,51.490321
1815.06,HAWTHORNS SURGERY,-0.175174,51.241163
2125.0799999999995,TRINITY MEDICAL CENTRE,-0.158437,51.437554
247.58,MITCHAM FAMILY PRACTICE,-0.167118,51.410109
1413.66,THE WELLBRIDGE PRACTICE,-2.225354,50.679039
3575.530000000001,THE HARVEY PRACTICE,-1.993525,50.761018
3727.85,HOMEWELL.CURLEW PRACTICE,-0.978019,50.851067
1614.1600000000005,SPA MEDICAL CENTRE,-2.126012,51.366868
1135.7799999999995,COOKHAM MEDICAL CENTRE,-0.725805,51.558356
2335.1799999999994,THE MISBOURNE SURGERY,-0.558045,51.607786
2759.9899999999993,ORCHARD MEDICAL CENTRE,-2.510659,51.462087
941.25,LYNGFORD PARK,-3.090916,51.036442
2710.5699999999993,STAFFORD HEALTH AND WELLBEING,-2.123291,52.817722
929.47,BOURNBROOK VARSITY MEDICAL CENTRE,-1.929903,52.445713
253.15,CAUSEWAY GREEN ROAD SURGERY,-2.014697,52.484564
3515.660000000001,PATTERDALE LODGE MED CTRE,-2.64461,53.452446
1362.0299999999995,SUNLIGHT GROUP PRACTICE,-3.00005,53.363076
1237.5499999999995,SHAY LANE MEDICAL CENTRE (KELMAN),-2.31556,53.372189
1099.7600000000002,BLYTH ROAD MEDICAL CENTRE,-1.20365,53.422231
0.8399999999999997,INSPIRING RECOVERY SERVICE,-1.497086,53.68441
1678.3000000000006,CENTRAL MEDICAL CENTRE,-0.245977,52.587
1129.16,HARBOUR MEDICAL PRACTICE,0.324489,50.797353
41.27,URGENT CARE CTR (FCMS) OOH,-3.015863,53.820616
2972.8,MORRAB SURGERY,-5.538987,50.116924
2728.92,WILLOW BANK SURGERY,-2.102853,52.97847
2085.84,EVERGREEN PRIMARY CARE CENTRE,-0.059836,51.623784
11.8,MEANWOOD GROUP PRACTICE ENT SERVICE,-1.565811,53.827167
214.71999999999997,BHC NON MEDICAL PRESCRIBERS,0.010423,51.377216
1.5,M & A LTC PALLIATIVE CARE NURSE,-1.238124,52.98146
6541.569999999999,BARDOC GP OOH,-2.427769,53.590447
188.55,BANES ENHANCED MEDICAL SERVICE (BEMS+),-2.372621,51.358169
2862.9,SHAKESPEARE WIC,-1.525196,53.802098
153.23000000000005,BROOMFIELD DOCTOR IN ED,0.465993,51.774654
108.53,CCG ACUTE VISITING SERVICE,-2.178123,53.021853
5.32,NEWMEDICA COMMUNITY OPHTHALMOLOGY,-0.108523,53.567689
537.9599999999998,LGI GPS IN A+E,-1.551744,53.801445
645.86,M&A AHVS (PICS),-1.238124,52.98146
3476.69,BARBOURNE HEALTH CENTRE,-2.224952,52.208752
723.6500000000003,CRAVEN ARMS SURGERY,-2.835416,52.442323
4370.910000000002,THE HAYMARKET HEALTH CTR,-2.211781,53.060343
1747.2300000000007,GOLDENHILL MEDICAL CENTRE,-2.221385,53.076901
1234.1099999999994,JIGGINS LANE MEDICAL CENTRE,-1.995411,52.436801
254.04,DARTMOUTH MEDICAL CENTRE,-2.005409,52.520435
1118.27,ARRAN MEDICAL CENTRE,-1.748679,52.50386700000001
1534.1999999999996,CHAPEL LANE SURGERY,-3.061428,53.557075
721.2399999999997,HEATHERLANDS MED CTR,-3.089543,53.381475
927.3999999999999,TOWN HALL SURGERY,-2.092973,53.478374
949.99,LILFORD PARK SURGERY,-2.511455,53.503236
122.60000000000002,PEEL PRECINCT SURGERY,-0.198814,51.534421
1583.4799999999998,CATHEDRAL MEDICAL CENTRE,0.275488,52.413145
2107.4,NDUC NEWCASTLE GATESHEAD OOH,-1.58819,55.01931999999999
1.08,MARSDEN INTERMEDIATE CARE,-1.696689,53.676075
392.91,EXTENDED ACCESS PRIMARY CARE HUB,-0.079465,51.533775
1003.7799999999997,LCW WLCCG OOH,-0.217218,51.522362
491.00000000000006,MALLING HEALTH AT STOKE ALDERMOOR,-1.479565,52.402142
1014.7500000000003,THGPCG SERVICE OOH,-0.004927,51.514483
752.0,DENMARK ROAD SURGERY,-0.06725100000000002,51.393136
2106.27,VC WEST LANCS HC-UCC,-2.871252,53.564616
363.4500000000001,HOME VISITING SERVICE,-2.165957,53.412542
1166.79,MEIR PARK & WESTON COYNEY MEDICAL PRACT,-2.094889,52.966305
1268.87,HAMSTEAD ROAD SURGERY,-1.919012,52.504474
2019.2300000000007,OAKWOOD SURGERY,-1.858645,52.444556
104.35,SURGERY AUBERY ROAD,-1.846411,52.46633
621.2399999999999,MOXLEY MEDICAL CENTRE,-2.051113,52.560033
2126.330000000001,NORTH PARK HEALTH CENTRE,-2.995994,53.458392
1320.21,MEDICARE UNIT SURGERY,-2.69241,53.725239
1074.22,LOSTOCK MEDICAL CENTRE,-2.328128,53.45458000000001
714.69,THE GROVE MEDICAL PRACTICE,-0.362401,51.55534
775.0399999999998,THE GAMSTON MEDICAL CTR.,-1.100495,52.924252
993.19,LANGLEY MEDICAL PRACTICE,-0.299929,51.390825
16.13,TELFORD OOH,-2.732712,52.740396
599.5799999999998,THE DURU PRACTICE,-2.116945,53.543824
65.55,CRISIS RESPONSE TEAM,-2.186902,53.52264
71.72,RAMSAY HEALTHCARE - NORTH DOWNS HOSPITAL,-0.079153,51.273556
9.28,WILLEN HOSPICE,-0.719831,52.062768
330.4899999999999,CENTRAL DURHAM GP EXT'D ACCESS SERVICE,-1.56716,54.7787
773.9699999999998,SHAP MEDICAL PRACTICE,-2.677931,54.52889
3632.9199999999987,AUCKLAND MEDICAL GROUP,-1.678996,54.648085
2170.6,THE GLEN MEDICAL GROUP,-1.52187,54.97385
2314.1800000000007,ASHBY TURN PRIMARY CARE PARTNERS,-0.6542,53.566147
7737.170000000001,HAXBY GROUP PRACTICE,-1.081866,54.019329
600.6900000000002,BRADFORD MOOR PRACTICE,-1.7218490000000002,53.797834
3136.4400000000005,ASH GROVE,-1.245572,53.704968
3265.22,MILLVIEW MEDICAL CENTRE,-0.30904,52.981326
2171.4100000000008,HOLLIES MEDICAL CENTRE,-1.494834,53.363179
155.58,VERITAS HEALTH CENTRE,-1.481026,53.354257
46.74,BRETTON MEDICAL PRACTICE,-0.281891,52.590431
2940.67,LONG STRATTON MEDICAL PARTNERSHIP,1.229088,52.491027
2511.7400000000007,THE NEVELLS ROAD SURGERY,-0.22942,51.980882
2068.06,THE HEALTH CENTRE PRACTICE,-0.020738999999999997,52.048757
909.85,HIGHFIELD SURGERY,-0.459233,51.766434
754.22,BELGRAVIA SURGERY,-0.14856,51.495004
369.49,COLLINGWOOD ROAD SURGERY,0.638271,51.802938
1369.48,CHAPEL STREET SURGERY,0.051144,50.79327
2473.0199999999995,STOCK HILL SURGERY,0.031768,51.312089
1287.22,CLAREMONT MEDICAL CENTRE,-0.306132,51.390808
1392.0800000000006,WATERFRONT AND SOLENT SURGERY,-1.403379,50.870013
580.81,GREEN PRACTICE,-0.371755,51.468263
825.2800000000002,THE ABBOTSBURY PRACTICE,-0.397406,51.579266
6539.850000000005,NUFFIELD HOUSE HEALTH CENTRE,0.112828,51.774439
2365.62,MARTINS OAK SURGERY,0.483675,50.91716
1080.6,THE GLEBE FAMILY PRACTICE,0.544473,51.383164
935.9899999999997,MALLING HEALTH BLUE SUITE,0.609995,51.363412
1518.89,KNOLL MEDICAL PRACTICE,0.101068,51.375411
431.95,CLIFTON RISE FAMILY PRACTICE,-0.03143300000000001,51.476334
554.43,BLACKFRIARS MEDICAL PRACTICE,-0.105775,51.505364
2656.47,HASLEMERE HEALTH CENTRE,-0.707586,51.092107
2841.9100000000008,FARNHAM DENE MEDICAL PRACTICE,-0.777405,51.200549
1475.61,THE DORCHESTER RD SURGERY,-2.457512,50.625193
656.8400000000001,CRONDALL NEW SURGERY,-0.858386,51.237211
1141.3099999999995,ST.JAMES SURGERY,-1.989956,51.352926
562.0600000000001,CORDWALLIS ROAD SURGERY,-0.7240259999999998,51.528097
1960.0400000000006,BOTLEY MEDICAL CENTRE,-1.299442,51.753753
987.2399999999997,ST. MARY'S SURGERY,-2.479869,51.326082
2163.6600000000008,QUEEN'S MEDICAL CENTRE,-4.057196,51.080161
3825.89,BRUNEL MEDICAL PRACTICE,-3.516948,50.479349
979.39,EXMOOR MEDICAL CENTRE,-3.544825,51.038507
825.0299999999999,CHADDESLEY SURGERY,-2.158038,52.361961
3868.7499999999986,THE MANOR PRACTICE,-1.8236169999999998,52.55816
582.5499999999998,CHARLES ROAD SURGERY,-1.850621,52.4722
1066.05,DUNCAN STREET PRIMARY CARE PARTNERSHIP,-2.126602,52.57346999999999
1288.63,DR JUDE'S PRACTICE - RIVERSIDE,-2.943016,53.398876
866.4800000000001,WESTOVER SURGERY,-5.07501,50.148927
199.65,LANGTHORNE SHARMA FAMILY PRACTICE,0.0021,51.555415
551.57,THE MANOR PARK PRACTICE,0.057339,51.55393
1539.9799999999998,WEST MEADS SURGERY,-0.701481,50.788299
601.38,TRENTHAM MEWS MEDICAL CENTRE,-2.189898,52.970452
603.71,WILLESDEN GREEN SURGERY,-0.216091,51.553773
517.04,THE SUMMITT PRACTICE,0.04536,51.539588
1836.01,SELDOC HEALTHCARE,-0.283378,51.412517
2.34,WESTMINSTER DIABETES CENTRE,-0.169323,51.524736
133.98,PARKFIELD (H) MINOR EMERGENCY,-3.00005,53.363076
312.67999999999995,PRUH URGENT CARE CENTRE,0.059146,51.366243
297.36,CANNOCK MINOR INJURIES UNIT,-2.030614,52.693241
359.38999999999993,PBORO WEEKEND HOURS GP PILOT,-0.279386,52.583921
589.6999999999998,WIDNES GP EXTRA SERVICE,-2.735705,53.362158
2.31,MALLING CLUSTER,0.277462,51.194717
1351.27,DR THORNILEY-WALKER & PARTNERS,-1.460703,54.949762
795.0299999999999,DR U AKBAR,-1.777945,53.803569
1562.9700000000007,BROOKROYD HOUSE,-1.67818,53.707224
812.61,AIREBOROUGH FAMILY PRACTICE,-1.684881,53.866663
2101.849999999999,BUSHLOE SURGERY,-1.116921,52.583283
2076.4300000000007,THE BURBAGE SURGERY,-1.361645,52.53009599999999
365.87000000000006,PASLEY ROAD HEALTH CENTRE (TK KHONG),-1.146741,52.591287
3043.99,NETTLEHAM MEDICAL PRACTICE,-0.476253,53.262865
542.0300000000002,HAROLD STREET MEDICAL CENTRE,-1.492871,53.393121
1752.91,UNIVERSITY HEALTH SERVICE HEALTH CENTRE,-1.482709,53.380323
1058.4899999999998,LEISTON SURGERY,1.575953,52.207708
1076.9900000000002,HEATHFIELDE MEDICAL CENTRE,-0.179797,51.585238
961.0199999999996,BRENTFIELD MEDICAL CENTRE,-0.260251,51.550588
1204.5499999999995,DR NAVIN KUMAR,0.70187,51.544989
1033.3,RUSTON STREET CLINIC,-0.027306,51.536264
1159.4599999999996,SCHOOL HILL MEDICAL PRACTICE,0.012064,50.873469
2892.24,MOTE,0.545625,51.246876
1738.91,SHEPPERTON MEDICAL PRACTICE,-0.453153,51.396402
2280.960000000001,GRAYSHOTT SURGERY,-0.745626,51.110093
1779.1799999999996,THE MANOR PRACTICE,-0.234983,50.835138
856.7099999999998,HAMPTON HILL MEDICAL CENTRE,-0.354892,51.427508
253.12999999999997,CLAPHAM JUNCTION MEDICAL PRACTICE,-0.173908,51.465969
587.61,OLD SCHOOL HOUSE SURGERY,-1.604408,51.376032
1899.64,WINSCOMBE SURGERY,-2.830537,51.315196
6279.200000000002,PEMBROKE MEDICAL GROUP,-3.560246,50.445527
292.3400000000001,ST PETER'S URGENT TREATMENT CENTRE,-0.52706,51.377832
645.02,PRIORY ROAD SURGERY,0.589253,50.860828
3903.71,SWANSCOMBE HEALTH CENTRE,0.28731,51.424657
532.6,ELTHAM PARK SURGERY,0.061023,51.4547
1600.12,JAMES O'RIORDAN MEDICAL CENTRE,-0.212686,51.385157
3633.6,WISTARIA & MILFORD SURGERIES,-1.547285,50.760041
1182.3300000000004,27 BEAUMONT STREET,-1.26216,51.755081
666.23,WIDCOMBE SURGERY,-2.354321,51.376371
1395.94,ST LUKES MEDICAL CENTRE,-3.517636,50.394313
1367.68,FRITHWOOD SURGERY,-2.162379,51.729707
2562.890000000001,HILLVIEW MEDICAL CENTRE,-1.951153,52.305568
1727.99,GORDON STREET SURGERY,-1.644613,52.810998
1512.84,LONGTON MEDICAL CENTRE,-2.770123,53.417492
1152.15,PRIMROSE SURGERY,-2.357311,53.456159
1470.62,DR AHMAD & PTNRS,-2.595925,53.522279
1838.8,THE OLD DAIRY HEALTH CENTRE,-0.091201,51.436586
1244.35,THE ISLAND SURGERY,0.591014,51.520226
1996.67,JS MEDICAL PRACTICE,-0.078706,51.589103
3411.840000000001,GATEWAY PRIMARY CARE,-1.352431,53.429997
293.55,BRADFORD DERMATOLOGY SERVICE,-1.781103,53.830481
366.22,ESSINGTON MEDICAL CENTRE,-2.056915,52.63194
3708.92,SUMMERFIELD GP SURG & URGENT CARE CENTRE,-1.937353,52.487686
50.56,HAVERING CCG,0.179796,51.579247
969.95,THE WILLASTON SURGERY,-3.011643,53.292908
14.54,SOUTH KENT GROUP,1.118942,51.075872
1.08,SUTTON COMMUNITY SERVICES,-0.183642,51.380313
12.27,WHITTINGTON HEALTH (ISLINGTON),-0.139066,51.566482
3.76,ST MICHAELS HOSPICE,-1.518091,53.977242
3131.9200000000014,URGENT CARE CENTRE NORTHWICK PARK HOSP,-0.322037,51.575407
1.78,QVM HOSPITAL,-0.222867,51.827957
20.28,SLEAFORD EXTENDED ACCESS K2,-0.406507,52.997784
1577.49,STONELEIGH SURGERY,-2.770704,54.227277
581.1900000000002,BROWNEY HOUSE SURGERY,-1.670679,54.800313
1577.7599999999993,TOWNHEAD SURGERY,-2.276903,54.070534
804.0499999999998,HORNE STREET SURGERY,-1.871717,53.725678
1393.3399999999995,HONLEY SURGERY,-1.791936,53.602386
1080.66,GOSBERTON MEDICAL CENTRE,-0.159263,52.869915
2045.5199999999993,THE MANOR SURGERY,-1.216371,52.925036
873.6100000000001,PROSPECT MEDICAL PRACTICE,1.285656,52.643921
4345.780000000002,THE GARDEN CITY PRACTICE,-0.209287,51.797151
1574.6200000000006,MAPESBURY MEDICAL GROUP,-0.209473,51.551496
1709.4699999999993,RIVERMEAD GATE MED.CTR.,0.472887,51.740849
741.51,ROMAN WAY MEDICAL CENTRE,-0.10550599999999999,51.544561
746.4699999999997,CHOLMLEY GARDENS SURGERY,-0.195423,51.552261
1485.4299999999996,ESSEX LODGE,0.026685000000000004,51.527915
1695.7499999999993,GROVELANDS MEDICAL CENTRE,-0.112028,51.620685
3204.0999999999995,HIGH GLADES MEDICAL CENTRE,0.551301,50.878354
1968.5500000000006,ST JAMES' SURGERY,1.315702,51.128516
914.0999999999997,OXSHOTT MEDICAL PRACTICE,-0.360843,51.333099
2510.899999999999,BRIDGE MEDICAL CENTRE,-0.166439,51.117364
1061.4799999999998,LAVENDER HILL GROUP PRACTICE,-0.15683,51.466044
2956.1700000000005,THE CRANBORNE PRACTICE,-1.9192779999999998,50.919773
2487.610000000001,ST.MARY'S SURGERY,-1.397475,50.905746
1809.78,NEW FOREST MEDICAL GROUP,-1.576665,50.81471
2379.31,SWALLOWFIELD MEDICAL PRACTICE,-0.958531,51.378289
2035.8900000000006,CHERRYMEAD SURGERY,-0.700228,51.608271
3035.61,HORFIELD HC,-2.576275,51.489998
836.71,CARNON DOWNS SURGERY,-5.091905,50.22345
1074.11,WHITE HOUSE SURGERY,-1.705957,51.983554
1004.1,SPRINGMEAD SURGERY  CHARD,-2.967972,50.869562
1133.41,CHURCH STRETTON MEDICAL CENTRE,-2.806169,52.537286
1482.2099999999996,DR KS UPTON'S PRACTICE,-1.986582,52.988358
3270.610000000001,KINGSWAY MEDICAL CENTRE,-1.289009,54.606459
2177.69,WARWICK ROAD SURGERY,-2.928541,54.893858
1696.0300000000002,PRUDHOE MEDICAL GROUP,-1.853822,54.96186
2871.04,TALBOT MEDICAL CENTRE,-1.440661,54.973054
1187.5700000000004,NOVA SCOTIA MEDICAL CNTR,-1.373051,53.747561
1549.3900000000006,ARTHUR MEDICAL CENTRE,-1.422636,53.001503
1386.5500000000006,WOODVILLE SURGERY,-1.5365030000000002,52.770685
2301.81,NEWBOLD VERDON MED.PRACT.,-1.34334,52.634612
1515.4100000000005,PORTLAND MEDICAL PRACTICE,-0.539074,53.22371999999999
3116.700000000001,TORKARD HILL MEDICAL CTRE,-1.207389,53.029901
821.74,BAKERSFIELD MEDICAL CENTRE,-1.104957,52.960219
1568.7600000000002,HIGH STREET PRACTICE,-1.458313,53.597926
2268.8099999999995,VILLAGE SURGERY,-1.251934,53.39421
274.82000000000005,ALLENBY CLINIC,-0.376261,51.531514
6810.440000000002,DR PUZEY DR KOTHARI AND DR NANDA,0.705992,51.582107
988.95,DR BAKER & PARTNERS,0.548167,51.570733
832.3299999999998,INGREBOURNE MEDICAL CENTRE,0.210579,51.600308
933.3399999999997,THE ORDNANCE UNITY CENTRE FOR HEALTH,-0.039073,51.672653
1291.65,CROUCH HALL ROAD SURGERY,-0.127301,51.579178
1917.78,CENTRAL SURGERY,-0.299929,51.390825
3577.450000000001,ST PAUL'S SURGERY,-1.32139,51.065963
1373.6,SHEET STREET SURGERY,-0.605507,51.479648
2202.7699999999995,HEDENA HEALTH,-1.204547,51.76203
2189.5199999999995,BLOXHAM SURGERY,-1.372977,52.018108
1873.32,KINGTON MEDICAL PRACTICE,-3.022556,52.199361
4221.930000000001,SEVERN FIELDS MEDICAL PRACTICE,-2.721619,52.728047
641.63,SELLY OAK HEALTH CENTRE,-1.939144,52.438251
3078.3100000000004,PEELHOUSE MEDICAL PLAZA,-2.72256,53.372135
2642.52,CUMBERLAND HOUSE SURGERY,-2.990437,53.638743
2193.41,LANE ENDS SURGERY,-2.727014,53.770173
382.43000000000006,HOLLINS GROVE SURGERY,-2.477472,53.705346
1601.2399999999998,WHITTAKER LANE MED CENTRE,-2.268645,53.528488
1504.5900000000006,WEST GORTON MEDICAL PRACTICE,-2.203859,53.46720500000001
1136.23,OLDHAM FAMILY PRACTICE,-2.116945,53.543824
860.0599999999998,SHAY LANE MEDICAL CENTRE (PATEL),-2.31556,53.372189
157.67,AT HOME SERVICE,-0.10603,51.438104
53.54,NMP CASTLE POINT AND ROCHFORD CCG,0.702782,51.583955
30.56,NON MEDICAL PRESCRIBERS,-0.8019889999999998,51.797983
1945.52,GP HUBS - GP HEALTH PARTNERS LTD,-0.266331,51.334184
44.94,SALFORD ACUTE HOME VISITING SERVICE,-2.33763,53.484827
28.630000000000006,NORTH COTSWOLDS IMPROVED ACCESS,-2.239997,51.862659
61.61,EXTENDED ACCESS PCD TICKHILL SURGERY,-1.110773,53.43304499999999
5085.16,BIRTLEY MEDICAL GROUP,-1.576441,54.891881
2992.82,THE LEEDS ROAD PRACTICE,-1.535156,53.980466
976.0699999999998,APOLLO COURT MEDICAL CENTRE,-1.524816,53.542364
1682.8100000000006,THE LAKESIDE PRACTICE,-1.148909,53.61549599999999
1135.97,FOXHILL MEDICAL CENTRE,-1.501327,53.429911
974.0699999999997,WESTWOOD CLINIC,-0.269054,52.591395
1319.89,THEOBALD MEDICAL CENTRE,-0.285584,51.661381
877.9399999999998,SUDBURY & ALPERTON MEDICAL CENTRE,-0.298046,51.536916
178.86,THE SURGERY,-0.184519,51.497627
3188.1099999999988,CHURCHILL MEDICAL CENTRE,-0.018466,51.618226
2900.5400000000004,THE CHESTERFIELD DRIVE PRACTICE,1.132012,52.07623
1770.65,COMBS FORD SURGERY,0.995999,52.180181
2173.7499999999995,CAULDWELL MEDICAL CENTRE,-0.472495,52.128265
2346.53,PRIORY MEDICAL CENTRE,-0.50567,52.167181
1497.1500000000005,HILLVIEW SURGERY,-0.318331,51.540536
506.19,DR HAFFIZ,-0.119262,51.539321
278.02,SANDRINGHAM PRACTICE,-0.067207,51.547773
274.32000000000005,ESK ROAD MEDICAL CENTRE,0.024266,51.522454
1091.5400000000004,MONTPELIER SURGERY,-0.149079,50.827148
1379.5300000000002,THE AVENUE SURGERY,-0.113425,50.844357
3466.180000000001,REACH HEALTHCARE,0.52408,51.337756
741.5200000000002,SELLINDGE SURGERY,1.002785,51.103536
2217.49,LAKESIDE MEDICAL,0.122454,51.496518
1113.9899999999998,CAMBERLEY HEALTH CENTRE,-0.754069,51.324435
2647.080000000001,HARBOUR VIEW HEALTHCARE,-0.27437,50.833817
1517.13,NEW POND ROW SURGERY,-0.322292,50.824911
612.3,FLOOD (ESSEX HOUSE),-0.247469,51.472541
3576.53,WILSON PRACTICE,-0.966958,51.153736
941.8,WOLLASTON AND BOZEAT SURGERIES,-0.674311,52.252471
3478.71,LEAP VALLEY MEDICAL CENTRE,-2.487852,51.496541
2252.18,KINGSTEIGNTON MEDICAL PRACTICE,-3.597395,50.54898
2128.2,ST.LEVAN SURGERY,-4.177328,50.383921
3684.0000000000014,STIRCHLEY MEDICAL PRACTICE,-2.433777,52.655188
2229.79,LUDLOW - PORTCULLIS,-2.715958,52.368905
2016.22,BARTON,-1.725223,52.761751
762.5899999999998,RED LION SURGERY,-2.030614,52.693241
114.7,DADHANIA SURGERY,-1.491047,52.405815
245.62,ST JAMES MEDICAL PRACTICE1,-2.097323,52.514234
320.1400000000001,HAWTHORNS MEDICAL CENTRE,-1.967268,52.501507
611.0500000000002,BROWNLOW AT MARYBONE,-2.987806,53.411269
777.66,MORETON MEDICAL CENTRE,-3.110005,53.39886
619.1499999999999,LITTLE LEVER HEALTH CENTRE 1,-2.370624,53.55981800000001
849.8600000000001,WOODBANK SURGERY,-2.308802,53.60507
2097.120000000001,DRS HANIF &  BANNURU,-2.184157,53.484308
502.73,4/LOWER BROUGHTON MEDICAL PRACTICE,-2.258808,53.49359
2911.8299999999986,BRINNINGTON SURGERY,-2.132367,53.427651
2479.4,CONWAY ROAD MEDICAL PRACTICE,-2.303561,53.417873
1271.74,DESFORD MEDICAL CENTRE,-1.296116,52.627473
274.21,DR VIJE'S SURGERY,-1.650877,52.617569
962.0,HIGHFIELD HEALTH,-1.395746,50.932777
40.05,ALICE HOUSE HOSPICE,-1.224421,54.704049
156.16000000000003,DR R SHARMA'S PRACTICE,-0.096482,51.499125
365.61999999999995,HALF PENNY STEPS HEALTH CENTRE,-0.206044,51.526213
4624.94,NORTON MEDICAL CENTRE,-1.308737,54.588737
10103.499999999996,CARLISLE HEALTHCARE,-2.930647,54.893714
363.50000000000006,PEEL PARK SURGERY,-1.731903,53.806791
2466.37,MAYBUSH MEDICAL CENTRE,-1.489249,53.670273
2545.9500000000007,THE GOLDEN BROOK PRACTICE,-1.272531,52.901553
1982.3300000000006,IBSTOCK HOUSE SURGERY,-1.401818,52.684869
2636.13,RUSKINGTON SURGERY,-0.400977,53.048226
3539.5699999999993,BARNBY GATE SURGERY,-0.8049699999999999,53.074931
1692.28,DUKE MEDICAL CENTRE,-1.455657,53.378576
446.0,FALKLAND HOUSE SURGERY,-1.514423,53.359728
3618.9400000000014,PRIORY FIELDS SURGERY,-0.179856,52.332272
836.4100000000003,BOURN SURGERY,-0.063404,52.193155
1598.9199999999994,COACHMANS MEDICAL PRACTICE,-0.203875,51.096335
2689.3100000000004,MILTON KEYNES VILLAGE SURG,-0.697865,52.043891
839.21,DRS DE ROSA & WILLIAMS,-2.167857,52.569265
11.58,CHILD AND FAMILY SERVICES,-1.5080049999999998,52.413401
314.74,INTERMEDIATE CARE-GP SERVICE,-2.130253,53.548188
610.7299999999998,BASSETLAW HEALTH PARTNERSHIP,-0.950634,53.325451
60.26,DMC COMMUNITY DERMATOLOGY SFSS,-2.98492,53.449136
1874.78,FIELDHOUSE MEDICAL GROUP,-0.112579,53.564436
3124.8100000000004,HEREWARD MEDICAL CENTRE,-0.380913,52.768626
1138.53,SAXON CROSS SURGERY,-1.273642,52.931099
3172.799999999999,PENISTONE GROUP PMS PRACTICE,-1.630732,53.523565
1214.0499999999995,THE NAYAR PRACTICE,-1.1933790000000002,53.480824
630.2199999999998,DR RAOLU'S PRACTICE,-1.204348,53.423549
2025.1200000000006,THE PARK SURGERY,1.7292759999999998,52.606218
1380.3000000000006,EAST BARNET HEALTH CENTRE,-0.166424,51.646339
836.6900000000002,LANFRANC MEDICAL CENTRE,-0.332746,51.561586
390.04,THE TUDOR HOUSE MEDICAL CENTRE,-0.266689,51.564495
1107.84,LABURNUM HEALTH CENTRE,0.151208,51.560662
120.52000000000002,NEW NORTH HEALTH CENTRE,-0.091592,51.537534
1550.2500000000002,HOVE MEDICAL CENTRE,-0.19539,50.845024
1121.14,PRIMECARE PMS (SOUTH STREET),-0.012448,51.476194
606.25,THE GARDENS SURGERY,-0.066803,51.46061
1457.37,FORT HOUSE SURGERY,-0.412578,51.37881
3151.37,OXTED HEALTH CENTRE,9.9e-05,51.257686
2496.49,THE WRYTHE GREEN SURGERY,-0.171312,51.371749
1334.53,THE LAWN MEDICAL CENTRE,-1.7619029999999998,51.547821
2213.09,NORDEN HOUSE SURGERY,-0.882727,51.944924
367.9000000000001,ST MARY'S HEALTH CENTRE,-6.308668,49.911605
2751.9600000000005,TOPSHAM SURGERY,-3.462097,50.683825
3135.4499999999994,BAMPTON SURGERY,-1.55034,51.729032
2448.08,WOODLANDS MEDICAL CENTRE,-1.258898,51.603637
3393.95,PETROC GROUP PRACTICE,-4.943163,50.430739
2512.05,TAVYSIDE HEALTH CENTRE,-4.145976,50.545824
3131.3900000000012,EAST QUAY MEDICAL CENTRE,-3.000471,51.135669
