total_cost,name,longitude,latitude
64760.73000000007,THE ABINGDON HEALTH CENTRE,-0.197138,51.496085
66462.91,ELTHAM PALACE PMS,0.053714,51.449946
132637.40999999995,CHAWTON PARK SURGERY,-0.989411,51.139814
175102.0700000003,THE OAKS MEDICAL CENTRE,-1.895827,52.552454
85841.02000000003,NEWBRIDGE SURGERY,-2.155299,52.5936
19123.59,ST.GEORGES MEDICAL CENTRE,-0.24612,51.558731
1413.91,EAST CAMHS,-1.531703,53.817673
32.9,GPSI DERMATOLOGY HEAVITREE HC,-3.505542,50.723202
78708.14000000003,OAKWOOD MEDICAL CENTRE,-0.134269,51.646534
11252.78,C.A.M.H.S.,-2.689816,53.693597
4.5,VIOLENT PATIENT ENHANCED SERVICE 1,-2.2227,53.49493
3967.610000000001,SMGPF,-2.237795,53.434307
30715.789999999994,DCHS DERBY CITY,-1.441882,53.221288
73277.79,REDBURN PARK MEDICAL CENTRE,-1.474775,55.00092
50984.64999999998,BARKEREND HC - EL ELIWI,-1.7218490000000002,53.797834
54777.8700000001,ROSEMEAD DRIVE SURGERY,-1.083088,52.5934
89546.85,BRENTFORD GROUP PRACTICE,-0.310054,51.48676
234437.42999999961,JUBILEE MEDICAL CENTRE,0.300332,51.3978
81815.36999999997,LAMBETH WALK GROUP PRACTICE,-0.11259100000000001,51.495609
45552.56000000005,SOUTHMEAD SURGERY,-0.616953,51.552538
100531.02000000002,MALLING HEALTH BLUE SUITE,0.609995,51.363412
153706.18999999968,FARNHAM DENE MEDICAL PRACTICE,-0.777405,51.200549
231618.7200000002,BRUNEL MEDICAL PRACTICE,-3.516948,50.479349
221146.61000000016,THE MANOR PRACTICE,-1.8236169999999998,52.55816
120801.68,DUNCAN STREET PRIMARY CARE PARTNERSHIP,-2.126602,52.57346999999999
82875.83999999998,WESTOVER SURGERY,-5.07501,50.148927
22830.05,LANGTHORNE SHARMA FAMILY PRACTICE,0.0021,51.555415
132204.53999999998,WEST MEADS SURGERY,-0.701481,50.788299
2807.360000000001,PBORO WEEKEND HOURS GP PILOT,-0.279386,52.583921
7413.06,ADDACTION REDCAR & CLEVELAND - REDCAR,-1.059041,54.617383
141819.93000000002,BUSHLOE SURGERY,-1.116921,52.583283
90126.98999999989,LEISTON SURGERY,1.575953,52.207708
81815.39000000022,HEATHFIELDE MEDICAL CENTRE,-0.179797,51.585238
144134.74000000017,MOTE,0.545625,51.246876
138206.08000000005,WINSCOMBE SURGERY,-2.830537,51.315196
66279.74999999996,ELTHAM PARK SURGERY,0.061023,51.4547
103619.61999999976,JAMES O'RIORDAN MEDICAL CENTRE,-0.212686,51.385157
55207.77000000004,27 BEAUMONT STREET,-1.26216,51.755081
17252.909999999996,ST LUKES MEDICAL CENTRE,-3.517636,50.394313
90765.05999999987,PRIMROSE SURGERY,-2.357311,53.456159
54321.520000000055,THE OLD DAIRY HEALTH CENTRE,-0.091201,51.436586
4434.999999999999,BRADFORD DERMATOLOGY SERVICE,-1.781103,53.830481
5586.230000000001,SUTTON COMMUNITY SERVICES,-0.183642,51.380313
137123.74000000008,THE MANOR SURGERY,-1.216371,52.925036
118547.74,ESSEX LODGE,0.026685000000000004,51.527915
135413.54999999993,BRIDGE MEDICAL CENTRE,-0.166439,51.117364
155018.09999999995,THE CRANBORNE PRACTICE,-1.9192779999999998,50.919773
108390.35000000006,NEW FOREST MEDICAL GROUP,-1.576665,50.81471
136420.2500000001,SWALLOWFIELD MEDICAL PRACTICE,-0.958531,51.378289
137786.76,TALBOT MEDICAL CENTRE,-1.440661,54.973054
54134.20000000001,NOVA SCOTIA MEDICAL CNTR,-1.373051,53.747561
11.09,DORSET IUC PARTNERSHIP,-1.856578,50.81726
223190.24000000017,ABBEY SURGERY,-4.150401,50.546904
130796.90999999984,WHITEACRES MEDICAL CENTRE,-2.300547,52.124716
74981.68999999993,AUDLEM MEDICAL PRACTICE,-2.508717,52.989615
60931.69,KENNETH MACRAE MED CENTRE,-2.786435,53.49903
45978.18999999998,WOODLANDS MEDICAL PRACTICE,-0.170943,51.592914
332.8400000000001,END OF LIFE & PALLIATIVE CARE SERVICE,-2.13932,53.597586
1552.99,WHHFT COMMUNITY NURSE PRESCRIBERS,-2.610717,53.393973
113.85,DMC COMMUNITY DERMATOLOGY SERVICE,1.087083,51.266589
4.84,OLDER AGE - CHARLTON LANE HOSPITAL,-2.073674,51.881059
99814.60000000006,VERNON STREET MEDICAL CTR,-1.49039,52.924019
224323.71999999988,BRIDGE COTTAGE SURGERY,-0.215995,51.830002
78450.51999999987,DR KRISHNAN & PTNR - KENT ELMS HC,0.664114,51.563831
66710.64999999997,CRANHAM HEALTH CENTRE,0.265291,51.568865
78442.31999999985,LEWISHAM MEDICAL CENTRE,0.004522,51.458513
88796.38000000003,LYDNEY PRACTICE,-2.529867,51.727913
128764.76000000002,ST. JOHNS SURGERY,-2.059728,52.337612
89001.06000000003,MONTAGUE MEDICAL PRACTICE,-0.872899,53.707031
95641.19999999997,HORTON BANK PRACTICE,-1.806018,53.774478
98454.75999999986,HIGH STREET PRACTICE,-1.458313,53.597926
82809.77000000003,DR BAKER & PARTNERS,0.548167,51.570733
40348.51999999998,INGREBOURNE MEDICAL CENTRE,0.210579,51.600308
61523.929999999935,CROUCH HALL ROAD SURGERY,-0.127301,51.579178
169708.42000000033,CENTRAL SURGERY,-0.299929,51.390825
128899.44000000006,ST PAUL'S SURGERY,-1.32139,51.065963
117906.18999999994,KINGTON MEDICAL PRACTICE,-3.022556,52.199361
99514.25000000004,WEST GORTON MEDICAL PRACTICE,-2.203859,53.46720500000001
6730.97,NON MEDICAL PRESCRIBERS,-0.8019889999999998,51.797983
93.99,HEALTH HARMONIE GYNAECOLOGY,-1.922375,52.471325
191493.6700000004,THE LEEDS ROAD PRACTICE,-1.535156,53.980466
99743.49999999983,FOXHILL MEDICAL CENTRE,-1.501327,53.429911
75294.65000000002,CAULDWELL MEDICAL CENTRE,-0.472495,52.128265
36004.51999999997,SANDRINGHAM PRACTICE,-0.067207,51.547773
133498.59000000026,LAKESIDE MEDICAL,0.122454,51.496518
141413.71999999974,LEAP VALLEY MEDICAL CENTRE,-2.487852,51.496541
38102.37000000002,ST JAMES MEDICAL PRACTICE1,-2.097323,52.514234
84917.11999999998,MORETON MEDICAL CENTRE,-3.110005,53.39886
84600.53000000001,DRS HANIF &  BANNURU,-2.184157,53.484308
179741.73,SWALLOWNEST HEALTH CENTRE,-1.317097,53.362997
45837.12999999991,BOUNDARY HOUSE SURGERY,-0.054245,51.632475
297266.80999999965,WESTBURY GROUP PRACTICE,-2.203558,51.252792
53178.10000000004,HIGHLEY MEDICAL CENTRE,-2.392978,52.456165
62964.58999999993,WOLSTON SURGERY,-1.392727,52.376806
74528.51999999996,BALLIOL ROAD SURGERY,-1.471449,52.415924
65722.14000000001,NEWTON MEDICAL CENTRE,-2.638386,53.457172
54311.14999999993,TIMPERLEY HEALTH CENTRE (WESTWOOD),-2.323566,53.397228
40.5,CHILDREN & YP DIR.,-0.017051,51.454329
17247.88,SUFFOLK RECOVERY SERVICE - IPSWICH,1.150763,52.057299
26502.72999999999,COMM PAEDIATRIC & LAC HEALTH SERVICE,-2.756261,53.446091
103864.21000000008,LIMES MEDICAL CENTRE,-1.387885,53.098493
68064.14999999992,SELSTON SURGERY,-1.299871,53.070196
93702.4600000001,CRYSTAL PEAKS MEDICAL CENTRE,-1.354473,53.342881
69748.39,CHURCH LANE SURGERY,-0.262165,51.574931
52428.27,ACRE SURGERY,-0.411552,51.604465
46844.75999999997,CUMBERLAND MEDICAL CENTRE,0.026047,51.519716
42503.519999999924,MAIDSTONE RD CHATHAM SURGERY,0.516708,51.361226
79776.24999999996,LONG BARN LANE SURGERY,-0.967033,51.436181
62787.06999999991,OMBERSLEY MEDICAL CENTRE,-2.229023,52.276554
116763.12000000005,MAYFIELD MEDICAL CENTRE,-2.093284,52.583046
48194.88999999996,DR M GOYAL'S PRACTICE,0.156711,51.540066
135728.7100000002,TOLLGATE MEDICAL CENTRE,0.056362,51.515573
91411.28999999992,WAKE GREEN SURGERY,-1.883357,52.446103
105135.63999999993,RAINHILL VILLAGE SURGERY,-2.763813,53.41631
77805.81999999998,NEW ISLINGTON MEDICAL CENTRE,-2.219472,53.4829
140472.6700000002,CLARENDON MEDICAL CENTRE,-2.079951,53.45264
3261.2900000000004,WIRRAL WIC (APH)_WIC APH,-3.096815,53.36964
5671.0700000000015,(FRACTURE CLINIC) NORTH OOH,-0.883829,52.236068
204.97999999999996,CARLISLE LOCALITY PRIMARY CARE SERVICES,-2.8956419999999996,54.892234
25254.52999999998,MERSEYCARE NHS TRUST - NMP,-2.933499,53.407265
874.7799999999999,CORRINGHAM HUB,0.42690200000000006,51.513843
361.3,OPTIMUSEXTENDEDACCESS,-0.596637,53.18754
989.11,COMMUNITY RESPIRATORY TEAM,-2.931104,53.466323
128562.41999999981,COLLEGE LANE SURGERY,-1.336292,53.644573
125254.6100000001,THE ORCHARD MED PRACTICE,-1.231693,52.533972
409994.7799999999,STANMORE MEDICAL GROUP,-0.204612,51.913274
92393.69999999981,KEATS GROUP PRACTICE,-0.17103,51.555534
130425.11000000012,DOWNING STREET GROUP PRACTICE,-0.7989009999999998,51.212905
31238.76000000004,ASHBURTON PARK MEDICAL CENTRE,-0.064221,51.384147
38619.23000000002,NEATH HILL HEALTH CENTRE,-0.747321,52.060411
196644.3000000005,BRINNINGTON SURGERY,-2.132367,53.427651
29037.85999999997,HALF PENNY STEPS HEALTH CENTRE,-0.206044,51.526213
534883.71,CARLISLE HEALTHCARE,-2.930647,54.893714
127494.12,THE GOLDEN BROOK PRACTICE,-1.272531,52.901553
144503.60000000006,RUSKINGTON SURGERY,-0.400977,53.048226
70768.56000000003,DUKE MEDICAL CENTRE,-1.455657,53.378576
2308.36,CHILD AND FAMILY SERVICES,-1.5080049999999998,52.413401
6841.849999999994,DMC COMMUNITY DERMATOLOGY SFSS,-2.98492,53.449136
40508.83999999999,THE TUDOR HOUSE MEDICAL CENTRE,-0.266689,51.564495
108232.01000000004,LABURNUM HEALTH CENTRE,0.151208,51.560662
72045.77999999993,PRIMECARE PMS (SOUTH STREET),-0.012448,51.476194
56398.28000000001,THE GARDENS SURGERY,-0.066803,51.46061
100264.29999999989,NORDEN HOUSE SURGERY,-0.882727,51.944924
57859.61999999993,BREDON HILL SURGERY,-2.104857,52.030166
87008.20999999992,PHOENIX FAMILY CARE,-1.51543,52.390005
120932.38999999994,CHURCH STREET PRACTICE,-0.459783,51.37345
62131.1,LEYBOURNE SURGERY,-1.88721,50.758437
165182.3300000001,PATFORD HOUSE PARTNERSHIP,-2.005519,51.437601
54774.099999999984,ESTOVER SURGERY,-4.0952,50.411271
95665.03999999986,NORTHGATE MEDICAL CENTRE,-2.892972,53.19509300000001
73834.82999999997,WESTLEIGH MEDICAL PRACTICE,-2.526024,53.510851
72638.83000000006,WINDMILL SURGERY,-1.48555,52.449933
50508.33999999991,ARNOS GROVE MEDICAL CENTR,-0.129838,51.615476
23748.630000000023,ST.QUINTIN HEALTH CENTRE,-0.220325,51.519199
63156.38999999997,PARK COMMUNITY PRACTICE,-1.871717,53.725678
3378.9300000000007,WALTHAM FOREST CCG(NMP-COMMUNITY HEALTH),-0.022546,51.616083
61.35,BELLE VUE (HOSPITAL BEDS),-1.215564,54.570237
164.96999999999997,OPHTHALMOLOGY-COT-JG,0.440508,51.298688
30.43,NELC CHILDREN'S HEALTH PROVISION,-0.071571,53.573616
40.99999999999999,CCS HEALTH VISITORS (NORTH),-0.067127,52.322863
0.8199999999999998,HMP LEWES,-0.005303,50.872867
637.6899999999998,CHESTERFIELD HEALTH PROVIDER LTD,-1.43962,53.233943
32359.00000000001,MELROSE SURGERY,-1.287301,54.609397
119335.1999999999,LAKENHAM SURGERY,1.296577,52.6183
101160.24000000003,ISLAND HEALTH,-0.013513,51.495357
130771.7699999998,STANFORD MEDICAL CENTRE,-0.148293,50.838378
127472.5199999999,NEWINGTON ROAD SURGERY,1.399222,51.343459
113417.32999999984,THE WHITELEY SURGERY,-1.266072,50.88262
139638.22999999992,THE ELMS PRACTICE,-0.976476,50.789794
58578.41999999997,CHILLINGTON HEALTH CENTRE,-3.693645,50.272623
21151.550000000017,AMBAR MEDICAL CENTRE,-1.991354,52.575093
5676.03,STREET LANE DERMATOLOGY CLINIC,-1.513393,53.843234
945.7800000000003,NEUROLOGY LONG TERM CONDITIONS,-2.384279,53.582354
92203.78999999992,RISEDALE SURGERY,-3.224778,54.109942
153232.99000000008,BASLOW RD  SHOREHAM ST & YORK RD SRGIES,-1.531066,53.316325
124020.47000000006,MANOR DRIVE MEDICAL CENTRE,-0.24836599999999998,51.380785
2200.0,C1 ESTERASE,1.507338,52.34806
2795.67,NELFT SOUTH WEST ESSEX CS,0.496195,51.591456
551.9300000000001,LEARNING ASSESSMENT & NEUROCARE BURY,-2.29898,53.59031
41.55,COMMUNITY MIDWIVES,-2.784954,53.420469
10259.89,CGL BROMLEY,0.010068,51.409191
177299.19000000003,WIBSEY & QUEENSBURY MED P,-1.779715,53.767225
25664.239999999987,BROOK GREEN SURGERY,-0.218145,51.495291
49168.30999999999,DR MOHAMMED GREEN MAN MEDICAL CENTRE,0.015000999999999999,51.571506
90793.53999999992,NORK CLINIC,-0.215842,51.326429
70046.45999999983,QUEENHILL MEDICAL PRACTICE,-0.066791,51.34499
252510.78999999995,THE BOSMERE MEDICAL PRACTICE,-0.990581,50.850232
75722.26999999996,THE LONG BUCKBY PRACTICE,-1.08255,52.30049
107255.85999999988,GLOUCESTER CITY HEALTH CENTRE,-2.245328,51.860355
81601.42999999985,NORTHWAY MEDICAL CENTRE,-2.130997,52.54810500000001
103742.35999999984,ASHBOURNE MEDICAL PRACTICE,-1.737589,53.012862
118709.78999999992,BIRLEY HEALTH CENTRE,-1.396985,53.340317
136067.45999999988,PARKFIELD MEDICAL CENTRE,-0.179588,51.695129
62226.18999999993,REDWOOD PRACTICE,-0.359614,51.461125
38116.77000000001,ABBEY COURT,0.26122,51.137755
87690.28999999995,OPEN DOOR SURGERY,-0.155581,51.443166
57049.04000000002,BROSELEY MEDICAL PRACTICE,-2.481266,52.611554
57744.70999999996,BEECH TREE MEDICAL PRACTICE,-1.252936,52.377534
2906.64,STORTHFIELD HOUSE,-1.332746,53.097559
219.88999999999996,I HEART BARNSLEY OOH,-1.4569,53.543072
125941.61999999994,ROYSTON GROUP PRACTICE,-1.451018,53.600005
10796.309999999989,FULHAM CROSS MEDICAL CENTRE,-0.214067,51.482774
108354.54000000002,BELMONT SURGERY,0.340829,51.061952
58573.36999999998,BANBURY ROAD MEDICAL CENTRE,-1.263535,51.774771
20058.88999999998,HILL TOP PRACTICE,-2.011775,52.537791
2759.76,GREAT CHAPEL STREET MEDICAL CENTRE,-0.134097,51.51508
126.06000000000002,A&E GPS,-2.629091,53.55774
137739.10999999993,WINTERTON MEDICAL PRACTICE,-0.606876,53.652511
96125.98999999979,THE OLD SCHOOL MEDICAL PRACTICE,-1.1424040000000002,53.916163
91448.65,MEXBOROUGH HEALTH CENTRE,-1.279795,53.494237
66.81,HMP EASTWOOD PARK,-2.467383,51.634454
8556.259999999998,ROTHERHAM HOSPICE,-1.340784,53.424046
692.97,THANET ANTICOAG SERVICE - PAYDENS,1.08554,51.071506
39013.10000000003,UHMB COMMUNITY NMP,-2.799232,54.042726
177024.32999999987,NORWOOD MEDICAL CENTRE,-3.222974,54.119201
98285.93000000002,PICTON MEDICAL CENTRE,-1.77624,53.807296
270945.7800000008,ORCHARD MEDICAL PRACTICE,-1.206764,53.141121
51490.21999999997,THE VILLAGE SURGERY,-0.168135,51.648069
100176.58,ST. BARTHOLOMEWS SURGERY,0.051755,51.532409
483167.4900000001,THE WILLOW GROUP,-1.143034,50.800579
95537.40999999996,PORT VIEW SURGERY,-4.214351,50.40735
141160.20000000024,STANMORE HOUSE SURGERY,-2.231468,52.391138
292514.18,SOLIHULL HEALTHCARE PARTNERSHIP,-1.775235,52.419642
788.59,RICHARDSON COMMUNITY HOSPITAL,-1.9161529999999998,54.545708
6350.459999999996,BSUH DERMATOLOGY SERVICE,-0.115477,50.83046
137635.51000000007,IVY GROVE SURGERY,-1.402822,53.042198
85906.99999999993,THE LINDEN MEDICAL GROUP,-1.273642,52.931099
88162.39999999997,BUTE HOUSE MEDICAL CENTRE,-0.423966,51.880162
114386.18999999994,GURU NANAK MEDICAL CENTRE,-0.387151,51.511774
146.17999999999995,WESTMINSTER SCHOOL,-0.128107,51.498762
35356.889999999985,SOUTH GREEN SURGERY,0.430504,51.613411
39971.230000000025,RICHMOND ROAD MEDICAL CENTRE,-0.065532,51.543051
173403.71000000017,OLD SCHOOL SURGERY,0.100722,50.772062
154255.28999999998,LAMBTON ROAD MEDICAL PRACTICE,-0.231169,51.411219
171493.52999999994,LORDSHILL HEALTH CENTRE,-1.448733,50.940999
128589.9099999998,HOLES LANE MEDICAL CENTRE,-2.545107,53.399828
84891.59999999998,THE GILL MEDICAL PRACTICE,-2.398384,53.524288
40853.16000000004,PAK HEALTH CENTRE,-1.856091,52.490749
29455.320000000032,WALFORD STREET  TIVIDALE,-2.059752,52.513192
44049.61999999999,NT&H COMM NURSES DN,-1.227837,54.702398
111.97,SOUTH WARK COMM RECOVERY TEAM IPU 10-17,-1.530545,52.285479
1045.52,ADULT ADHD WIGAN/LEIGH NMP,-2.606862,53.42951600000001
69334.38999999998,RUSHEY MEAD HEALTH CENTRE,-1.103823,52.663187
156806.57999999993,BRAMHALL HEALTH CENTRE,-2.162929,53.36001
41118.77999999999,AYLESBURY SURGERY,-1.876053,52.542854
26386.06999999999,NEVILLE ROAD SURGERY,-0.443036,51.906419
99.35999999999996,INTEGRATED COMMUNITY RESPONSE SERVICE,-0.371755,51.468263
63963.77000000001,THE PRACTICE BEAUMONT LEYS,-1.15392,52.662296
40988.189999999966,KINGSWAY SURGERY,-0.437208,51.517478
121383.53000000006,BELLEGROVE SURGERY,0.09579,51.464561
177748.53999999995,CHEAM GP CENTRE,-0.225239,51.368621
55155.87999999996,HANDSWORTH MEDICAL PRACT.,-1.941212,52.505377
46750.68999999997,BEARWOOD MEDICAL CENTRE,-1.97344,52.476903
28840.509999999984,BEEHIVE SURGERY,-2.419172,53.564161
93816.10999999988,THE CHEYLESMORE SURGERY,-1.503924,52.391324
164779.48,ST PETER'S SURGERY,-1.984855,52.594537
98965.81000000003,MANOR HEALTH CTR,-3.044493,53.421061
32855.520000000004,THE CROSSROADS SURGERY,-2.770123,53.417492
137.89,WORC OA CMHT,-2.186957,52.2101
15.3,PALLIATIVE CARE NORTH,-2.109085,52.810605
2654.7900000000004,LAS S.E. LONDON IUC CAS,-0.10903099999999999,51.500174
174141.5999999999,ADELAIDE STREET SURGERY,-3.048397,53.817351
33545.62999999998,CAVENDISH HEALTH CENTRE,-0.148092,51.519331
157546.19000000038,BROWNLOW GROUP PRACTICE,-2.96585,53.405021
260.79,COMMUNITY GYNAE SERVICE,-1.555879,53.778323
551.8000000000001,ADHD CLINIC,-3.04853,53.805489
46079.8,WYRE FOREST COMMUNITY NURSES,-2.244954,52.387785
38781.18999999999,CONTINENCE PRESCRIBING SERVICE,-2.25528,53.390625
126616.99999999984,THE LAKES MEDICAL PRACTICE,-2.742581,54.656125
196142.2700000001,OSMASTON SURGERY,-1.467954,52.911084
152247.55999999982,HOLBEACH MEDICAL CENTRE,0.014430000000000002,52.804778
77053.8899999999,LAMBOURN SURGERY,-1.526933,51.504696
179873.89000000007,KNOWLE HOUSE SURGERY,-4.134098,50.40863
76657.62000000002,VALE OF RED HORSE,-1.510351,52.15797
110976.26999999989,BALSALL COMMON & MERIDEN GROUP PRACTICE,-1.643862,52.394956
176522.71999999988,DINAS LANE MEDICAL CENTRE,-2.861513,53.417388
10875.71,DORKING HEALTHCARE LLP,-0.333421,51.225985
12655.179999999995,DURNFORD DERMATOLOGY CATS,-2.197033,53.554038
97193.49000000003,GREAT BRIDGE HEALTH CENTRE,-2.02775,52.527792
89766.51000000002,NON MEDICAL PRESCRIBING SOUTHEND CCG,0.702782,51.583955
1297.99,FITZWILLIAM HOSPITAL,-0.297549,52.576469
124162.39999999982,ST ANN'S ROAD SURGERY,-0.08783399999999998,51.581428
10536.71,DAWN CLINIC,-1.7272,51.538528
6698.840000000005,TAURUS HEALTHCARE LTD,-2.71099,52.05708
45049.96999999996,CARTMEL SURGERY,-2.946985,54.199165
158432.6300000001,MEADOWGREEN HEALTH CENTRE,-1.480804,53.326831
115.83,TISSUE VIABILITY EAST,-2.109085,52.810605
23145.16,COVENTRY SMS,-1.513076,52.41159
16.37,CORNWALL IMPROVED ACCESS SCHEME,-5.097984,50.265937
48.42,BDCT 0-19 CHILDRENS PH SERVICE,-1.788605,53.839675
158548.71000000005,CRUDDAS PARK SURGERY,-1.630965,54.968173
130434.40000000008,HAWORTH MEDICAL PRACTICE,-1.954883,53.831322
37167.96999999997,WELBECK SURGERY,-1.147823,52.979645
138434.31999999983,WICKHAM MARKET MEDICAL CENTRE,1.363674,52.151842
56138.78999999991,DR YADAVA N PRACTICE,0.334586,51.476703
220127.47999999984,THORNHILLS MEDICAL PRACTICE,0.440958,51.300117
161511.42999999982,BIDDULPH VALLEY SURGERY,-2.178498,53.116111
182929.84000000023,STOCKTON HEATH MED.CENTRE,-2.582161,53.37195
139769.23000000007,CHORLTON FAMILY PRACTICE,-2.279717,53.443773
26036.700000000026,DR R KAPUR & PARTNERS,-1.119092,52.631036
50599.25000000004,WESTBOURNE SURGERY,-1.8061,53.650937
47511.66000000001,DR WEBB AND PARTNERS,-1.308041,52.968251
59959.76000000004,SILVERDALE MEDICAL CENTRE,-1.090548,52.672318
197824.53999999966,PARKBURY HOUSE SURGERY,-0.334063,51.756766
67758.20000000003,THORNTON & VALLEY PARK SURGERY,-0.120709,51.388871
98316.42000000001,MOORDOWN MEDICAL CENTRE,-1.874485,50.756212
138588.35999999984,WOLVERTON HEALTH CENTRE,-0.814934,52.054197
52791.49000000001,GREET MEDICAL PRACTICE,-1.857778,52.453195
198701.70000000016,THE PARK MEDICAL PRACTICE,-2.739045,53.77018
32311.02999999995,CROSSWAYS PRACTICE,-3.023992,53.484655
3072.11,DERMATOLOGY-MERTON CCG,-0.210281,51.409967
221610.00999999995,CENTRAL SURGERY,-1.265473,52.371743
2079.08,RESOURCE CENTRE,-0.356441,51.50598
1237.01,NY HORIZONS SKIPTON,-2.01705,53.963253
60.97,HMP BRISTOL,-2.591585,51.480902
49247.229999999974,BHF LUNDWOOD SURGERY,-1.438538,53.557711
171.29000000000005,WORKING AGE ADULTS - AVON HOUSE,-2.13216,51.999104
88986.35000000003,WOODLANDS PARK HEALTH CTR,-1.628825,55.04614
153580.59000000008,MAYFORD HOUSE SURGERY,-1.446534,54.328376
134720.59000000005,HAVEN MEDICAL CENTRE,-1.416874,52.891498
180258.75999999995,CASTLE HEALTHCARE PRACTICE,-1.144908,52.930476
55411.31000000001,IMEARY STREET PRACTICE,-1.424863,54.98753000000001
140542.9100000001,TRINITY & BOWTHORPE MEDICAL PRACTICE,1.280248,52.624411
32053.76000000002,WAKEMANS HILL SURGERY,-0.254209,51.587088
133352.45999999993,HARROW ROAD GP CENTRE,0.012856,51.559538
320545.1600000002,THE SWAN PRACTICE,-0.985664,52.001593
117331.8300000001,NESTON MEDICAL CENTRE,-3.064349,53.291818
128297.10000000015,ST.MARY'S HEALTH CENTRE,-2.729589,53.747433
24543.97999999999,ASKAM SURGERY,-3.210918,54.183705
78328.1,GRANGE PARK SURGERY,-1.7481080000000002,53.912695
214332.9499999999,BEECHFIELD MEDICAL CENTRE,-0.145012,52.787253
109500.95999999996,GRIMETHORPE SURGERY,-1.378978,53.573614
48829.72999999993,HANWELL HEALTH CENTRE (NAISH),-0.334375,51.510263
137480.35000000006,WEST ROAD SURGERY,0.70187,51.544989
97799.95000000003,PENN SURGERY,-2.145001,52.568567
33439.000000000044,SARAF MEDICAL PRACTICE,-2.076954,53.561455
51879.99000000003,DELL MEDICAL CENTRE,0.328114,51.480258
2003.05,GATDOC OOH,-1.580781,54.93938000000001
41230.33000000001,THE TRINITY MEDICAL CENTRE,0.085815,51.478803
21.83,MCH PHYSIO SWALE,0.571235,51.364197
65303.05000000002,ASHVILLE SURGERY,-0.201145,51.476255
5156.44,DR HANTSDOC N OOH,-1.109918,51.280633
109718.13999999996,SOUTH COUNTY CONTINENCE PRESCRIPTION SER,-1.273227,52.930792
2364.179999999999,HOLYWELL AT LANGLEY HOUSE HCT,-0.391206,51.683651
228.7,NEAS HAST CCG,-1.712365,54.969713
3629.4800000000014,DGS HEALTH,0.343258,51.435153
926.44,DARLINGTON PALLIATIVE CARE,-1.567053,54.529074
2921.72,EN HERTS ACUTE IN-HOURS VISITING SERVICE,-0.191727,51.782567
1595.2900000000004,PARTNERSHIP STOKE,-2.109085,52.810605
24.270000000000003,BOOTS OPTICIANS,-2.36637,53.753902
48989.65,OAK GLEN SURGERY,-1.816352,53.854799
46629.73000000001,OAKWOOD SURGERY,-1.4290459999999998,52.941386
76827.6799999999,THE KAKOTY PRACTICE,-1.473444,53.5464
3179.1900000000005,NEWCASTLE GP IN MOLINEUX WIC,-1.583491,54.977507
305.01,ST CATHERINES PALLIATIVE CARE TEAM,-2.681517,53.720825
95032.84,BURNGREAVE SURGERY,-1.459815,53.393327
457017.77000000037,COLCHESTER MEDICAL PRACTICE,0.909325,51.890029
104000.48,ESHER GREEN SURGERY,-0.370196,51.375782
153056.4099999999,ASHFIELD MEDICAL CENTRE,-0.7382729999999998,52.019666
151849.92999999967,TETTENHALL MEDICAL PRACTICE,-2.159502,52.600723
69501.52999999993,PENNY LANE SURGERY,-2.915004,53.389404
50952.0,CORNERSTONE SURGERY,-2.457402,53.58815500000001
57246.4499999999,VICTORIA PARK HEALTH CENTRE,-1.1192,52.619071
44649.84000000005,OLD FORGE SURGERY,-2.079758,54.623041
67744.08000000006,VESPER ROAD,-1.615337,53.827318
81640.15000000002,GLADSTONE HOUSE SURGERY,-1.307927,52.968816
76881.36000000003,LANGSTONE WAY SURGERY,-0.210815,51.606981
46056.8099999999,ELMTREES SURGERY,-0.335968,51.550787
180070.29000000004,SNODLAND MEDICAL PRACTICE,0.441488,51.326053
92177.30999999998,LEITH HILL PRACTICE,-0.322969,51.150452
49809.71000000005,MALTHOUSE MEADOWS SURGERY,-2.568038,50.668698
74661.96000000002,HARBURY SURGERY,-1.458027,52.236759
196193.7599999996,QUEEN SQUARE MEDICAL PRACTICE,-2.800994,54.046219
88846.47000000002,MARUS BRIDGE PRACTICE,-2.643772,53.529393
13186.499999999995,HEALTH E1,-0.07152500000000002,51.518304
12197.409999999994,CAXTON HOUSE SURGERY,-1.382415,53.575347
2230.4800000000014,OUT OF HOURS CENTRE,-1.842798,54.869081
779.9599999999998,LONDON SHA PHP,-0.125975,51.485142
586.89,ALEX CENTRE UNREGISTERED WIC,-0.369696,51.568372
68829.51999999995,WESTCOTES MEDICAL CENTRE,-1.153587,52.63133199999999
3258.4500000000007,WEST MERTON ACCESS HUB,-0.210281,51.409967
2584.290000000001,DERBY CITY SOUTH HEALTHCARE LTD,-1.531656,52.891817
229.67,SAFECARE NETWORK,-0.647232,53.568261
61005.99999999991,BUNBURY MEDICAL PRACTICE,-2.649377,53.116827
157565.09000000014,CASTLETON HEALTH CENTRE,-2.18229,53.597034
2639.579999999999,SALFORD GP OUT OF HOURS,-2.323424,53.487545
3628.99,NOTTINGHAM CITYCARE,-1.155769,52.951832
1405.5600000000004,ASHTON PCC SEVEN DAY ACCESS OOH,-2.099981,53.485827
76098.82000000002,DR A CALOW'S PRACTICE,-2.503837,53.742584
205507.3299999998,CHEADLE MEDICAL PRACTICE,-2.213539,53.393745
73213.08999999995,GREEN STREET GREEN MED CT,0.089996,51.354366
54194.300000000076,3/ST ANDREWS MEDICAL CENTRE,-2.339619,53.484875
64.96,EAR NOSE AND THROAT CLINIC,-1.597685,54.851721
36073.78000000001,BLACKFRIARS,-2.254244,53.484135
78.51999999999998,ST CATHERINE'S HOSPICE DAY THERAPY,-2.681517,53.720825
1590.0999999999995,FIRST COMMUNITY HEALTH & CARE,-0.170767,51.235608
416.99,KINGSTON LEARNING DISABILITY,-0.292882,51.386515
17450.450000000004,SNAPS STOMA,-2.475863,53.117685
61731.11999999992,CALDBECK SURGERY,-3.050622,54.749864
113139.0099999998,DR INGRAM & PTRS,-1.526892,54.136451
55824.44999999998,HOUNSFIELD SURGERY,-0.811033,53.183702
84020.2199999999,LENSFIELD MEDICAL PRACTICE,0.124449,52.198365
119953.24,CEDAR BROOK PRACTICE,-0.41413199999999994,51.534092
60730.92999999992,ROSE VILLA SURGERY,0.506616,51.566232
83205.74999999999,BOYATT WOOD SURGERY,-1.36001,50.977856
136604.82000000007,RISING BROOK,-2.118782,52.787133
74549.3599999999,ST JAMES MEDICAL PRACTICE2,-2.097323,52.514234
36272.619999999966,LINGHOLME HEALTH CENTRE,-2.744752,53.457769
253349.45000000013,PEEL HOUSE MEDICAL PRACTICE,-2.365995,53.75089200000001
147112.53999999995,GRASMERE SURGERY,-2.511455,53.503236
567327.1499999998,TELDOC,-2.435206,52.672614
25012.26999999999,SW INTEGRATED TEAM WORCESTER,-2.178135,52.192339
118.42000000000002,MIDDLESBROUGH 0-19 HCP,-1.517573,53.993807
1308.2500000000005,GP EXTENDED ACCESS - HARROGATE,-1.529793,53.996354
171182.54000000042,ST ANDREW'S MEDICAL PRACTICE,-1.598213,54.699634
261763.8499999998,SPINNEY HILL MEDICAL CENTRE,-1.109212,52.637381
88702.38999999987,MARTLESHAM SURGERY,1.272068,52.061314
31038.780000000013,THE AVENUE SURGERY,-0.319031,51.518389
262621.7200000001,ST.JAMES SURGERY,1.147433,51.787326
200694.2500000001,SANDWICH MEDICAL PRACTICE,1.337364,51.274071
11329.13,MODALITY ANN JONES FAMILY HEALTH CENTRE,-1.871333,52.462659
110306.40999999996,CENTRAL SURGERY,-2.74261,53.456686
42658.54000000003,DALTON TM,-2.643772,53.529393
5915.329999999997,MIRIAM MINOR EMERGENCY,-3.04649,53.39824599999999
16354.460000000008,LIVEWELL S/W,-4.116613,50.378837
115.1,NORTH CMHT,-4.126897,50.430114
6446.249999999999,WIRRAL HEART SUPPORT,-3.026531,53.380029
365.56,NT&H COMM DIAB N DDES,-1.227837,54.702398
64432.73999999994,BALDERTON SURGERY,-0.7864679999999998,53.052881
188.74,ADULT ADHD KNOWSLEY NMP,-2.606862,53.42951600000001
139801.60000000006,NORTH ROAD SUITE RAVENSTHORPE HEALTH CTR,-1.661589,53.677829
113084.66,CASTLE MEAD MEDICAL CENTRE,-1.367743,52.541052
99991.8800000002,RISE PARK SURGERY,-1.174951,53.011477
142280.09999999983,THE MEDICI MEDICAL PRACTICE,-0.418382,51.874494
102809.43999999996,ELLIS PRACTICE,-0.276552,51.563894
85007.91999999998,NEW ELTHAM AND BLACKFEN MEDICAL CENTRE,0.074199,51.434495
194013.05,THE GROVE MEDICAL CENTRE,-2.513702,50.953273
260366.68000000034,THE HADLEIGH PRACTICE,-1.993525,50.761018
307745.5200000005,THREE CHEQUERS MEDICAL PRACTICE,-1.794625,51.071924
50708.08999999997,CORNERSTONE SURGERY,-2.724149,53.454211
31413.58999999996,HIGHER HEYS SURGERY,-2.394094,53.740865
161093.66000000006,DELAMERE MEDICAL PRACTICE,-2.307365,53.450887
84058.95999999993,OAK TREE HEALTH CENTRE,-1.2409629999999998,51.614986
76736.28000000007,THE TRINITY MEDICAL PRACTICE,0.760305,51.684982
78.66999999999999,ST RAPHAEL'S HOSP (SUTTON),-0.220816,51.37886
1062.3600000000004,BECKENHAM BEACON URGENT CARE CENTRE,-0.033209,51.405232
11361.77,CGL RESOLUTIONS SERVICE,-0.416036,51.876369
1865.7800000000007,NORWICH IMPROVED ACCESS HUB,1.319958,52.632405
79.2,BRAMLEY COMMUNITY CARE BEDS,-1.623032,53.80781999999999
156612.06000000006,BRIDGE VIEW MEDICAL GROUP,-1.401824,54.919455
138964.8900000002,CAYTHORPE & ANCASTER MEDICAL PRACTICE,-0.536327,52.981851
22327.559999999976,BRAYFORD SQUARE SURGERY,-0.050404,51.514375
118358.24,ELMDENE SURGERY,0.263153,51.446098
78481.55999999995,THAMES AVE SURGERY,0.603057,51.36344
24952.25000000001,TRAFALGAR SURGERY,-0.074414,51.485672
81997.61999999997,THE ORCHARD PRACTICE,-0.303542,51.369116
43956.92999999995,UNIVERSITY HEALTH SERVICE,-1.395714,50.934099
90461.31999999986,LINDEN MEDICAL CENTRE,-0.737415,51.530813
64267.14000000001,ST SAVIOURS SURGERY,-2.308488,52.130324
96077.27000000009,WEST HEATH SURGERY,-1.96202,52.401797
35166.150000000045,MOOR PARK MEDICAL PRACTICE,-1.7218490000000002,53.797834
17.31,COMMUNITY OPTHALMOLOGY SERVICE,-1.508913,52.401243
395.7699999999999,YORKSHIRE SMOKEFREE,-1.018306,53.503028
286579.1,THE CENTRAL SURGERY BARTON,-0.439445,53.684236
132945.33999999988,MICKLEOVER MEDICAL CENTRE,-1.54633,52.907111
42703.11999999995,THE ELMS SURGERY,-0.404224,51.661642
240730.86999999962,BUXTED MEDICAL CENTRE,0.132095,50.989406
167372.24000000028,WEST END ROAD SURGERY,-1.359281,50.916702
138548.5499999999,PINHOE SURGERY,-3.469622,50.737528
94686.4800000001,PRESCOTT SURGERY,-2.852689,52.784345
98762.8299999999,HEATON ROAD SURGERY,-1.579814,54.978269
34397.460000000036,HANCOCKS ME,-0.41296400000000005,53.782123
30202.790000000005,COLSTERWORTH SURGERY,-0.619356,52.806388
16093.869999999995,SOMERSET MEDICAL CENTRE,-0.371127,51.522244
186434.17999999985,DOWNLANDS MEDICAL CENTRE,0.244085,50.822919
122783.6,OTFORD MEDICAL PRACTICE,0.191446,51.31358
98554.52999999987,BURNEY STREET PMS,-0.009168,51.479034
352131.55999999907,ROYAL CRESCENT SURGERY,-2.452679,50.616587
16866.0,ABBEY MEDICAL CENTRE,-0.982406,51.453949
88597.87999999998,ST.BARTHOLOMEWS MEDICAL CENTRE,-1.232108,51.747668
182571.37999999968,DR SN CLAY AND PARTNERS,-1.832005,52.528641
136927.96999999994,WORDSLEY GREEN HEALTH CENTRE,-2.164692,52.480602
1243.3000000000004,COMMUNITY PAEDIATRICS (SILCS),-1.612399,53.799904
9345.229999999996,URGENT CARE,0.475497,50.850706
204418.1599999999,SAFFRON HEALTH PARTNERSHIP,-0.264459,52.084232
95891.03999999964,GLADSTONE MEDICAL CENTRE,-0.24612,51.558731
60657.26999999995,ST MARTINS MEDICAL CENTRE,-0.424566,51.577646
44233.27000000002,ABRIDGE SURGERY,0.12458,51.653631
139362.90000000005,WEAVER VALE PRACTICE,-2.696866,53.325561
132433.13999999993,GLOVERS LANE SURGERY,-2.971961,53.488314
34935.22999999998,VILLAGE SURGERY,-0.255874,51.399503
39220.49,DR KHALIQ,-1.799612,53.663276
57811.36999999992,NEWHOLME SURGERY,-2.74261,53.456686
1716.6699999999996,NEW HOPE,-0.752472,51.414889
38.81,CCCT 2,-2.019013,53.955694
36.27,FELIXSTOWE HOSPITAL,1.35594,51.963766
88160.1899999999,LUNESDALE SURGERY,-2.602213,54.200573
120671.05999999994,SPILSBY SURGERY,0.098963,53.173049
48892.98000000004,BRIDGEWAY PRACTICE,-1.147343,52.943574
254099.30000000005,LITTLE WALTHAM & GT NOTLEY SURGERY,0.477622,51.787396
73770.77999999987,DR KUMAR & PARTNER STUDFALL MEDICAL CTR,-0.704816,52.495882
170527.94999999995,CASTLE PLACE PRACTICE,-3.492865,50.908884
149269.35000000018,NUNWELL SURGERY,-2.507177,52.187931
213973.71000000046,THREE SPIRES MEDICAL PRACTICE,-5.055864,50.259982
129638.83000000025,MYTTON OAK MEDICAL PRACT.,-2.797762,52.707667
76666.61999999997,DR VSR CHADALAVADA,-2.139143,53.0416
15282.440000000004,KEYNELL COVERT,-1.911857,52.408441
2912.430000000001,STRELLEY HEALTH CENTRE (COCKRILL),-1.227726,52.973231
67845.77999999998,PHOENIX MEDICAL PRACTICE,0.48126899999999995,51.328805
15167.459999999995,INTERGRATED COMMUNITY PAEDIATRIC SERVICE,-2.384279,53.582354
28509.470000000016,KIRKHOLT MEDICAL PRACTICE,-2.162243,53.59832
62058.00000000002,DR AZIM & PARTNERS,-0.225729,51.579655
50564.489999999954,BHF HIGHGATE SURGERY,-1.378978,53.573614
178020.8699999998,DOLPHIN HOUSE SURGERY,-0.029818,51.810791
36825.67,THE CIVIC MEDICAL CENTRE,-0.337497,51.587155
66950.61999999997,CHANCERY LANE SURGERY,-1.521755,52.536173
64924.68999999992,NECHELLS PRACTICE,-1.876618,52.493743
110934.93,THE LIMES MEDICAL CENTRE,-1.974677,52.58065500000001
28767.959999999995,PRINGLE STREET SURGERY,-2.467594,53.742039
173106.28000000032,BROADWAY MEDICAL CENTRE,-3.033843,53.912667
37339.3,EASTGATE SURGERY,-0.519836,51.886145
93533.43999999986,PHOENIX PRIMARY CARE (SOUTH) LTD,-0.441597,51.88973
985.0799999999998,PATIENT FIRST SOCIAL ENTERPRISE,0.006461,51.542096
3677.15,CWP (WEST) PHYSICAL HEALTH,-2.897884,53.2088
11.44,REDDITCH CMHT,-1.940229,52.303594
3.66,HMP LIVERPOOL,-2.969166,53.457543
1073.22,NSC BOSWORTH HUB,-1.7536330000000002,52.480569
108217.2,THE NEW SPRINGWELLS PRACTICE,-0.340804,52.893623
3529.3299999999995,SAME DAY HEALTH CNTRE COASTAL HEALTHCARE,-2.859565,54.072841
441.8299999999999,THE CONFEDERATION HILLINGDON CIC,-0.47790600000000005,51.547653
48.73,HMR CCG HART,-2.152215,53.620446
642.8100000000002,ARC,-3.002931,53.801771
266.51000000000005,EXTENDED ACCESS PCD CONISBROUGH GROUP,-1.237653,53.482282
167935.95000000007,THE GARTH,-1.055444,54.532597
93734.4700000001,THE GABLES MEDICAL GROUP,-1.564429,55.140811
111442.2999999999,PRACTICE ONE,-0.201064,54.084715
186149.4399999998,CHURCH STREET SURGERY,-1.583343,53.681523
55731.61999999999,HIGH STREET SURGERY  EPPING,0.113402,51.700812
41997.76999999998,HIGH STREET SURGERY,0.223589,51.561554
57403.07999999996,BERRYLANDS SURGERY,-0.299929,51.390825
30991.91,PROSPECT HOUSE SURGERY,-0.705258,51.701136
107223.73000000008,WOODSETTON MEDICAL CENTRE,-2.10089,52.537994
85460.41000000009,THE BORCHARDT MEDICAL CENTRE,-2.237795,53.434307
18353.660000000007,CHAPEL MEDICAL CENTRE,-2.418293,53.449094
155419.41999999984,NEWLANDS MEDICAL CENTRE,-1.226035,54.571931
226023.3400000002,SKERNE MEDICAL GROUP,-1.4488,54.654032
97514.50000000004,BACON LANE SURGERY,-0.275903,51.605078
208013.85999999987,THE LIMES MEDICAL CENTRE,0.123958,51.706179
32024.72999999999,MITCHAM FAMILY PRACTICE,-0.167118,51.410109
165185.62000000002,SPA MEDICAL CENTRE,-2.126012,51.366868
59346.37999999999,BOURNBROOK VARSITY MEDICAL CENTRE,-1.929903,52.445713
33929.74999999999,CAUSEWAY GREEN ROAD SURGERY,-2.014697,52.484564
132412.73999999993,PATTERDALE LODGE MED CTRE,-2.64461,53.452446
86200.49999999999,CENTRAL MEDICAL CENTRE,-0.245977,52.587
173974.1900000001,WILLOW BANK SURGERY,-2.102853,52.97847
2765.3099999999986,BANES ENHANCED MEDICAL SERVICE (BEMS+),-2.372621,51.358169
74627.45999999988,GOLDENHILL MEDICAL CENTRE,-2.221385,53.076901
102249.11000000002,JIGGINS LANE MEDICAL CENTRE,-1.995411,52.436801
2052.76,DARTMOUTH MEDICAL CENTRE,-2.005409,52.520435
13418.759999999995,PEEL PRECINCT SURGERY,-0.198814,51.534421
59.22,PCH WARD,-2.077775,52.114052
3653.179999999999,VC WEST LANCS HC-UCC,-2.871252,53.564616
98674.79000000015,NORTH PARK HEALTH CENTRE,-2.995994,53.458392
194.03,TELFORD OOH,-2.732712,52.740396
21466.32,NHS BWD SUBSTANCE MISUSE SERVICE,-2.481065,53.75065
364.94999999999993,PRACTICE OPHTHALMOLOGY SERVICE HARINGEY,-0.574826,51.671154
584.9600000000002,RAMSAY HEALTHCARE - NORTH DOWNS HOSPITAL,-0.079153,51.273556
3563.4600000000005,QMUL TOBACCO CESSATION SERVICE,-0.047357,51.522265
42237.63,SHAP MEDICAL PRACTICE,-2.677931,54.52889
134452.22000000006,THE GLEN MEDICAL GROUP,-1.52187,54.97385
149403.48999999982,MILLVIEW MEDICAL CENTRE,-0.30904,52.981326
1249.6500000000005,BRETTON MEDICAL PRACTICE,-0.281891,52.590431
127958.89999999998,THE HEALTH CENTRE PRACTICE,-0.020738999999999997,52.048757
65995.03999999994,BELGRAVIA SURGERY,-0.14856,51.495004
101628.77000000008,CHAPEL STREET SURGERY,0.051144,50.79327
121865.56000000016,MARTINS OAK SURGERY,0.483675,50.91716
69842.79999999999,THE GLEBE FAMILY PRACTICE,0.544473,51.383164
137824.87999999983,KNOLL MEDICAL PRACTICE,0.101068,51.375411
44348.749999999935,CORDWALLIS ROAD SURGERY,-0.7240259999999998,51.528097
70797.59999999989,ST. MARY'S SURGERY,-2.479869,51.326082
22924.41000000001,THE SUMMITT PRACTICE,0.04536,51.539588
3783.6699999999987,SELDOC HEALTHCARE,-0.283378,51.412517
202.18,MALLING CLUSTER,0.277462,51.194717
30735.64000000001,PASLEY ROAD HEALTH CENTRE (TK KHONG),-1.146741,52.591287
32712.509999999995,HAROLD STREET MEDICAL CENTRE,-1.492871,53.393121
89739.90000000004,BRENTFIELD MEDICAL CENTRE,-0.260251,51.550588
75711.16000000003,DR NAVIN KUMAR,0.70187,51.544989
30002.569999999967,RUSTON STREET CLINIC,-0.027306,51.536264
78779.51999999996,HAMPTON HILL MEDICAL CENTRE,-0.354892,51.427508
806.31,ST PETER'S URGENT TREATMENT CENTRE,-0.52706,51.377832
81571.73999999998,THE OAKLAND MEDICAL CENTRE,-0.45129300000000006,51.546055
78544.99999999993,ABERFELDY PRACTICE,-0.004927,51.514483
91823.58999999992,BROCKBANK (PARK ROAD),-0.334596,51.423912
50650.95000000008,HOLLINSWOOD SURGERY,-2.437453,52.673936
63602.01999999998,VICTORIA ROAD MEDICAL CTR,-1.887197,52.501868
159494.84999999998,ST JOHN'S MEDICAL CENTRE,-1.932532,52.626307
244754.63,THE CORNERSTONE PRACTICE,-2.4524,53.739201
22822.63,PARK GRANGE MEDICAL CENTRE,-1.775929,53.789415
55494.62999999999,HETHERINGTON AT THE PAVILION,-0.116397,51.461633
4461.8899999999985,PCEC,-2.227711,53.462436
12.04,HMP YOI HOLLESLEY BAY,1.451269,52.051591
35259.899999999994,CASTLETOWN MEDICAL CENTRE,-1.450848,54.913341
45831.77000000008,ALDBROUGH ST JOHN SURGERY,-1.684645,54.496518
86174.26999999999,BRANSTON & HEIGHINGTON FAMILY PRACTICE,-0.467988,53.195831
39152.2,CLIFTON HAMPDEN SURGERY,-1.211451,51.658625
235811.0900000002,SWANSCOMBE HEALTH CENTRE,0.28731,51.424657
73520.15000000002,FRITHWOOD SURGERY,-2.162379,51.729707
101089.77999999966,THE ISLAND SURGERY,0.591014,51.520226
111510.16999999981,GATEWAY PRIMARY CARE,-1.352431,53.429997
37751.87000000004,ESSINGTON MEDICAL CENTRE,-2.056915,52.63194
1426.43,MUSCULOSKELETAL INTERFACE SERVICE,-2.845905,51.437919
916.92,WF OA CMHT,-2.261161,52.386056
326.86000000000007,QVM HOSPITAL,-0.222867,51.827957
462.57,SLEAFORD EXTENDED ACCESS K2,-0.406507,52.997784
102072.16999999988,STONELEIGH SURGERY,-2.770704,54.227277
42968.049999999945,BROWNEY HOUSE SURGERY,-1.670679,54.800313
111068.32999999993,HONLEY SURGERY,-1.791936,53.602386
136647.07000000015,GOSBERTON MEDICAL CENTRE,-0.159263,52.869915
90116.64999999986,MAPESBURY MEDICAL GROUP,-0.209473,51.551496
51487.839999999924,CHOLMLEY GARDENS SURGERY,-0.195423,51.552261
221669.95999999964,HIGH GLADES MEDICAL CENTRE,0.551301,50.878354
102675.50000000004,CHERRYMEAD SURGERY,-0.700228,51.608271
164579.3300000001,HORFIELD HC,-2.576275,51.489998
61783.929999999964,WHITE HOUSE SURGERY,-1.705957,51.983554
109726.58999999998,CHURCH STRETTON MEDICAL CENTRE,-2.806169,52.537286
89789.39999999998,WARWICK ROAD SURGERY,-2.928541,54.893858
126191.38000000015,WOODVILLE SURGERY,-1.5365030000000002,52.770685
75834.08,GROOMBRIDGE AND HARTFIELD MED GRP,0.184416,51.113952
117445.69000000012,BRANKSOMEWOOD H/CARE CTR,-0.8448069999999998,51.281888
64989.06999999999,WOODSIDE MEDICAL PRACTICE,-2.466175,52.637949
163245.51999999981,BODEY MEDICAL CENTRE,-2.214798,53.440636
1849.9,NORTH LINCOLNSHIRE OOH,-0.667599,53.587582
1587.53,EPUT COMMUNITY CARDIOLOGY,0.12393,51.704295
3503.57,SOUTH YORK HEART FAILURE NURSES,-1.082907,53.951837
12.98,AQP ANTICOAG RIDGACRE MEDICAL CENTRE,-1.9901099999999998,52.460912
1233.0199999999995,EXTENDED HOURS SERVICE-ONE LIFE,-1.214164,54.682342
69378.39000000009,CRAMLINGTON MEDICAL GROUP,-1.591516,55.084481
193342.65999999992,KINGSTON MEDICAL GROUP,-0.349365,53.756137
38871.34999999993,WESTFIELD MEDICAL CENTRE,-1.531703,53.817673
62643.49999999999,STUBLEY MEDICAL CENTRE,-1.488541,53.304986
59765.0799999999,CHICHELE ROAD SURGERY,-0.216241,51.55483
47054.25000000004,SHIRLAND ROAD MEDICAL CENTRE,-0.203904,51.5292
53851.71000000002,STEWKLEY ROAD SURGERY,-0.71666,51.898041
171679.20999999976,NEW COURT SURGERY,-2.958059,51.345794
213165.99,COLERIDGE MEDICAL CENTRE,-3.2835660000000004,50.751704
105484.77000000003,YARDLEY WOOD HEALTH CENTRE,-1.859168,52.418648
87298.48000000008,SHEET STREET SURGERY,-0.605507,51.479648
182773.0200000001,HEDENA HEALTH,-1.204547,51.76203
47754.73,SELLY OAK HEALTH CENTRE,-1.939144,52.438251
256631.46000000005,PEELHOUSE MEDICAL PLAZA,-2.72256,53.372135
88320.50999999986,LANE ENDS SURGERY,-2.727014,53.770173
92313.36999999992,WHITTAKER LANE MED CENTRE,-2.268645,53.528488
86221.03999999988,NMP CASTLE POINT AND ROCHFORD CCG,0.702782,51.583955
693.6799999999998,MFT CHILDRENS COMMUNITY SERVICES,-2.25528,53.390625
4192.440000000001,WYRE FOREST ADMISSION PREVENTION TEAM,-2.261161,52.386056
227.17,SALFORD ACUTE HOME VISITING SERVICE,-2.33763,53.484827
200.05000000000004,EXTENDED ACCESS PCD TICKHILL SURGERY,-1.110773,53.43304499999999
213773.28999999966,BIRTLEY MEDICAL GROUP,-1.576441,54.891881
77558.36999999994,APOLLO COURT MEDICAL CENTRE,-1.524816,53.542364
91140.11000000004,SUDBURY & ALPERTON MEDICAL CENTRE,-0.298046,51.536916
148171.30000000008,THE CHESTERFIELD DRIVE PRACTICE,1.132012,52.07623
52579.37000000001,MONTPELIER SURGERY,-0.149079,50.827148
48224.16,SELLINDGE SURGERY,1.002785,51.103536
212031.86999999985,HARBOUR VIEW HEALTHCARE,-0.27437,50.833817
195032.79999999976,WILSON PRACTICE,-0.966958,51.153736
153020.05999999985,KINGSTEIGNTON MEDICAL PRACTICE,-3.597395,50.54898
297079.12000000005,STIRCHLEY MEDICAL PRACTICE,-2.433777,52.655188
59153.64000000002,RED LION SURGERY,-2.030614,52.693241
98838.28999999996,HAZELDENE MEDICAL CENTRE,-0.275394,51.547592
76200.71999999987,CLOISTER ROAD SURGERY,-0.265589,51.521352
100657.84000000004,MANOR PARK MEDICAL CENTRE,0.24261,50.819107
142853.52999999982,LILLIPUT SURGERY,-1.954229,50.711523
194213.13000000003,PENRYN SURGERY,-5.10336,50.167504
94741.3500000001,CROWN MEDICAL CENTRE,-3.080969,51.029111
109243.11,GREASBY GROUP PRACTICE,-3.121417,53.377628
60.68,CORPORATE DIVISION,0.475497,50.850706
10614.45,BIRMINGHAM DENTAL HOSPITAL,-1.916521,52.45037
46.04,UROLOGY-MERTON CCG,-0.210281,51.409967
73091.2999999999,ROSEWORTH SURGERY,-1.61867,55.001366
284516.2500000001,GREENGATES MEDICAL GROUP,-0.418494,53.844343
153083.99000000022,LINCOLN HOUSE SURGERY,-0.469093,51.737355
44538.21000000002,DR DEVARAJA VC PRACTICE,0.44359,51.520015
49231.31000000001,FOUNTAYNE ROAD HEALTH CENTRE,-0.065145,51.56442
27636.359999999964,ARCHWAY SURGERY,-0.532167,51.72275
139417.5199999997,RYE MEDICAL CENTRE,0.730363,50.961944
47970.73999999993,VASSALL MEDICAL CENTRE,-0.10851199999999998,51.477558
109107.20999999996,FARMHOUSE SURGERY,-1.7595,50.736437
249351.67999999988,WESTONGROVE PARTNERSHIP,-0.74378,51.76588
90210.53000000004,MILBORNE PORT SURGERY,-2.471962,50.967502
82839.98000000001,PARADISE MEDICAL CENTRE,-1.494835,52.426778
56896.66999999999,WOODBANK SURGERY,-2.308802,53.60507
34045.94999999997,HIGHFIELD HEALTH,-1.395746,50.932777
139644.78999999983,IBSTOCK HOUSE SURGERY,-1.401818,52.684869
159218.84000000014,BARNBY GATE SURGERY,-0.8049699999999999,53.074931
176537.24999999997,PRIORY FIELDS SURGERY,-0.179856,52.332272
74807.49000000003,DRS DE ROSA & WILLIAMS,-2.167857,52.569265
22.43,COMMUNITY CARDIOLOGY SERVICE,0.15356,51.455555
3958.479999999997,INTERMEDIATE CARE-GP SERVICE,-2.130253,53.548188
17431.779999999988,BASSETLAW HEALTH PARTNERSHIP,-0.950634,53.325451
28.290000000000006,MERIDIAN HOUSE - AIREWHARFE CMHT,-1.895521,53.873987
787.9100000000003,NEWMEDICA GLOUCESTERSHIRE,-2.225797,51.865969
56378.28000000001,DR RAOLU'S PRACTICE,-1.204348,53.423549
123399.3699999997,EAST BARNET HEALTH CENTRE,-0.166424,51.646339
210001.7399999996,OXTED HEALTH CENTRE,9.9e-05,51.257686
166992.45999999982,THE WRYTHE GREEN SURGERY,-0.171312,51.371749
150752.07999999987,TOPSHAM SURGERY,-3.462097,50.683825
110455.51999999992,BAMPTON SURGERY,-1.55034,51.729032
229499.08,PETROC GROUP PRACTICE,-4.943163,50.430739
179030.56000000023,EAST QUAY MEDICAL CENTRE,-3.000471,51.135669
55914.77000000002,EASTMEAD AVENUE SURGERY,-0.36274,51.531443
26932.700000000008,KINCORA DOCTORS SURGERY,-0.412216,51.511666
85868.89999999994,HETHERINGTON GROUP PRACTICE,-0.12823,51.460932
122866.35,TUTBURY HEALTH CENTRE,-1.686361,52.858454
77903.81000000003,MEREPARK MEDICAL CENTRE,-2.300747,53.093285
33765.89000000001,DR SP TALPAHEWA,-0.260303,51.616115
91057.91,BRANDON MEDICAL PRACTICE,0.6233,52.448489
28789.23,ADULT DRUG & ALCOHOL SERVICE,-2.211881,53.059461
1090.59,PUBLIC HEALTH SERVICES,0.020377,51.403879
93754.3299999999,THE SURGERY CLIFTON ROAD,-1.737497,53.013356
116531.95000000016,ORCHARD SURGERY MELBOURN,0.020092,52.080651
191126.59,HIGH STREET SURGERY,1.756043,52.482123
202891.77,KING GEORGE SURGERY,-0.206096,51.907416
52716.27000000001,ST.PETERS SURGERY,-1.372792,50.897829
90653.81000000004,LEVENSHULME MEDICAL PRACTICE,-2.188524,53.446352
218953.89999999994,DMC ST MARYS ISLAND SURGERY,0.538105,51.406776
314393.9899999997,THORNABY & BARWICK MEDICAL GROUP,-1.292128,54.538149
106606.24,ROWLANDS GILL MEDICAL CENTRE,-1.742896,54.91936
215850.3000000001,THE PARK MEDICAL PRACTICE,-1.432644,52.928801
170808.48000000007,MERRIDALE MEDICAL CENTRE (RP TEW),-1.160752,52.620146
59961.12999999994,OVER SURGERY,0.012018,52.314809
135867.25000000026,DR TUN & PARTNERS,-2.583571,53.532102
954.21,HILLINGDON UCC,-0.461175,51.526077
39182.16,SOUTHOWRAM SURGERY,-1.831696,53.712293
162639.63999999996,THE STANMORE MEDICAL CENTRE,-0.304021,51.60154
35111.65999999997,TOTTENHAM HEALTH CENTRE,-0.068474,51.604755
47660.34000000005,PARKSIDE MEDICAL CENTRE,-0.092642,51.475826
69043.34999999993,GRAND DRIVE SURGERY,-0.228811,51.402155
34552.25999999999,SOMERSET BRIDGE MEDICAL CENTRE,-2.995883,51.115105
102072.22000000004,CORNISHWAY GROUP PRACTICE,-2.265017,53.379925
163175.65999999986,BRADSHAW MEDICAL CENTRE,-2.688594,53.537889
24552.039999999975,SAVILE TOWN MEDICAL CTR.,-1.625804,53.68222900000001
84612.74999999993,THE ORCHARD SURGERY,-0.324352,50.828062
258.77,CHILDREN'S HOSPICE SOUTH WEST,-4.116888,51.069795
35043.23,THE DANBY PRACTICE,-0.907874,54.468317
105625.48,THE LAWSON PRACTICE,-0.079465,51.533775
39744.39,FRANCIS ROAD MEDICAL CENTRE,-0.003831,51.561975
36623.31,UNIVERSITY MEDICAL CENTRE,1.062127,51.296198
52069.320000000036,ST STEPHENS HOUSE SURGERY,-0.305726,51.31772
56931.87000000004,PARK VIEW HEALTH PARTNERSHIP,-0.137252,50.961825
97448.72000000007,BYFIELD MEDICAL CENTRE,-1.242893,52.174071
86779.19999999997,SOHO ROAD PRIMARY CARE CENTRE,-1.934945,52.503094
89582.49000000009,LACHE HEALTH CENTRE,-2.914326,53.173615
31092.549999999985,WALNUT ST MED CTR (LEICESTER MED GROUP),-1.138855,52.624601
5.9,GATESHEAD C.A.S.H SERVICES,-1.603663,54.962972
57728.059999999954,ETTINGSHALL MEDICAL CENTRE,-2.092879,52.570364
1755.0299999999993,DONCASTER SOUTH ADULT CMHT,-1.146558,53.497488
192706.17,DARTFORD EAST HEALTH CENTRE,0.236914,51.440747
56268.489999999954,BOLINGBROKE MEDICAL CENTRE (THMP),-0.168282,51.45617
114440.29000000008,THE BORDER PRACTICE,-0.740565,51.240995
120213.59999999995,WHITELADIES MEDICAL GROUP,-2.612382,51.465097
131378.95,RIVERSIDE SURGERY,-3.006197,53.372004
121566.62999999992,HT PRACTICE,-2.110496,53.478305
5840.559999999998,MEDICUS HEALTH PARTNERS-CURZON AVENUE,-0.036518,51.645435
381.63,CARDIAC SERVICE STOKE AND NORTH,-2.109085,52.810605
1358.7900000000004,N&S COMMUNITY DERMATOLOGY CLINIC,-1.032629,53.141866
67885.97999999995,UPWELL STREET SURGERY,-1.434724,53.406424
101696.45999999985,PLOWRIGHT MEDICAL CENTRE,0.686691,52.655577
132050.38000000006,BEECHWOOD SURGERY,0.292731,51.608567
101809.26999999992,THE NIGHTINGALE PRACTICE,-0.062434,51.558261
160581.49000000005,BELVEDERE MEDICAL CENTRE,0.144376,51.482567
201722.3400000004,ST.LAWRENCE SURGERY,-0.390026,50.823979
93784.78000000001,ESPLANADE SURGERY,-1.158697,50.731943
59924.76999999994,GLASTONBURY HEALTH CENTRE,-2.712893,51.148733
195161.21,MAYFIELD SURGERY,-2.13456,52.982709
71318.80000000002,BRIDGE MEDICAL,-1.506726,55.038077
3.27,SWALE GROUP,1.118942,51.075872
620206.4999999993,BCHC MEDICINES MANAGEMENT,-1.9537779999999998,52.398207
40.2,CHCP - HESSLE  BROUGH  COTT  ANLABY,-0.429474,53.723082
454.3,PML NEIGHBOURHOOD HUB (KIDLINGTON),-1.289236,51.821558
89936.28999999988,TASBURGH LODGE SURGERY,-0.21375,53.151242
147483.42999999993,SOTHALL & BEIGHTON HEALTH CENTRES,-1.340221,53.337895
110072.21999999994,THE MEADS SURGERY,0.091624,50.969686
33700.15999999997,RAGSTONE ROAD SURGERY,-0.601832,51.503747
123585.93000000012,WADEBRIDGE & CAMEL ESTUARY PRACTICE,-4.835729,50.514816
132005.87000000005,EVE HILL MEDICAL PRACTICE,-2.096805,52.512922
180257.66000000032,WEST DERBY MEDICAL CENTRE,-2.895944,53.431273
30500.220000000023,DR. B. K. PRASHARA,-2.114816,52.456326
127397.76000000008,ORMSKIRK HOUSE SURGERY,-2.74261,53.456686
150159.01000000007,PENNINE MEDICAL CENTRE,-2.040966,53.515337
9245.51,CGL HALTON,-2.733862,53.354554
20.18,STELLAR HEALTHCARE OPHTHALMOLOGY,0.12393,51.704295
9.87,THE PARALLEL,-2.426061,53.579828
120.57,THE WESTBOURNE CENTRE,-1.9230029999999998,52.466075
590.4599999999998,NT&H COMM MIDWIVES,-1.227837,54.702398
3.45,VIRGIN CARE SPECIALIST NURSING SHCCG,-0.7846419999999998,51.220491
822.9299999999998,TISSUE VIABILITY,-2.095555,52.599722
57.07,MOLESEY COMMUNITY HOSPITAL,-0.372542,51.397531
325.9100000000001,THE FLOWERS HUB,-1.438061,53.418053
251671.88000000032,ALNWICK MEDICAL GROUP,-1.6967470000000002,55.410086
366075.06999999954,BOROUGHBURY MEDICAL CENTRE,-0.245486,52.577858
176294.25000000023,THE ROOKERY MEDICAL CENTRE,0.405573,52.245158
1920.44,MID CLUSTER IAGPS,-1.9731169999999998,50.721987
2260.670000000001,SJUH GPS IN A+E,-1.520359,53.806869
131645.28000000006,FIELDHEAD SURGERY,-1.854229,53.641358
125595.23999999998,CROFTON AND SHARLSTON MED PRAC,-1.427042,53.656573
98172.19,ST.PAUL'S WAY MEDICAL CTR,-0.024483,51.517862
242395.8500000005,WYKE REGIS & LANEHOUSE MEDICAL PRACTICE,-2.475127,50.594634
164755.9300000004,KINGSWOOD HEALTH CENTRE,-2.499974,51.462895
142541.6100000001,THREE VILLAGES MEDICAL PRACTICE,-2.146398,52.465406
80386.85000000005,MELROSE SURGERY,-0.9598620000000002,51.451692
161640.88999999972,ACLE MEDICAL PARTNERSHIP,1.548667,52.640969
136184.92000000025,MARTONSIDE MEDICAL CENTRE,-1.220329,54.553175
70800.96999999993,ROCKLIFFE COURT SURGERY,-1.544074,54.483444
1048.23,ADHD SERVICE,-0.382232,51.595076
53531.15000000005,CHAPELFORD PRIMARY CARE CENTRE,-2.633066,53.39615799999999
69592.65999999997,THE SELE MEDICAL PRACTICE,-2.095702,54.970372
141565.28999999998,MARKET WEIGHTON GROUP PRACTICE,-0.674786,53.864903
385040.46000000037,HEALTH CARE FIRST PARTNERSHIP,-1.393615,53.736872
167676.95,BROOM LANE MEDICAL CENTRE,-1.332311,53.417383
24904.02999999999,THE KILLINGHOLME SURGERY,-0.260335,53.62990799999999
117167.91999999975,COMBERTON SURGERY,0.018614,52.189811
112159.89999999986,SHEPHALL HEALTH CENTRE,-0.167642,51.890799
46623.88000000001,WESTBOURNE GROVE MEDICAL CENTRE,-0.200361,51.514211
26525.819999999967,MILTON REGIS SURGERY,0.7321839999999998,51.349193
44473.03000000007,BURBAGE SURGERY,-1.669545,51.348496
64009.39000000002,THE CREST FAMILY PRACTICE,-2.596274,51.428746
27796.66999999999,WORTHEN MEDICAL PRACTICE,-3.000165,52.635224
45882.15999999997,KIRKDALE MEDICAL CENTRE,-2.973842,53.433523
49527.71000000002,FACCINI HOUSE SURGERY,-0.189379,51.389682
37716.09000000001,JRB HEALTHCARE BEECHDALE SURGERY,-1.198142,52.961504
183040.73000000013,WOODLANDS FAMILY MEDICAL CENTRE,-1.321204,54.561215
130243.45,THE UPPINGHAM SURGERY,-0.723557,52.594972
100218.38999999996,THE THORPE BAY SURGERY,0.757986,51.534599
131858.73000000019,HUDSON (SEYMOUR HOUSE),-0.292773,51.462401
180711.62999999995,WHADDON MEDICAL CENTRE,-0.7662759999999998,52.000308
32657.589999999986,BONEY HAY SURGERY,-1.926768,52.690328
33851.67000000001,GREENFIELD MEDICAL CENTRE,-1.855764,52.491684
56852.82999999993,THE SURGERY,-2.605295,53.024859
113264.12000000008,MARPLE MEDICAL PRACTICE,-2.064954,53.39495
323.82,WA OA CMHT,-1.948676,52.08627
27638.579999999984,CLOVER CITY PRACTICE,-1.46659,53.38187
98263.00000000013,ASPATRIA MEDICAL GROUP,-3.337992,54.762123
87447.3300000001,WELLSPRING MEDICAL PRACT.,-1.564066,55.037289
29925.599999999984,FAMILY DOCTORS,-1.440964,53.798248
80413.00999999997,NORTH FULHAM SURGERY,-0.199224,51.486415
13817.870000000004,LAI CHUNG FONG QUEENS PARK HEALTH CENTRE,-0.205826,51.530911
164196.24000000017,WHEATFIELD SURGERY,-0.495144,51.904445
65166.65999999993,LONG CATLIS ROAD SURGERY,0.595579,51.348325
97043.82999999996,MINET GREEN HEALTH PRACTICE,-0.105204,51.475715
115958.01,NEW ADDINGTON GROUP PRACTICE,-0.018557,51.344382
163132.56999999966,THE ARMADA FAMILY PRACTICE,-2.571861,51.413438
109492.64000000012,LEEK HEALTH CENTRE,-2.019347,53.105691
71677.02999999982,CHASE MEADOW HEALTH CENTRE,-1.608604,52.268838
45203.43999999997,CASTLE STREET MEDICAL CENTRE,-1.293753,53.229627
249531.92999999953,HOLT MEDICAL PRACTICE,1.116042,52.914476
67155.44999999995,UXENDON CRESCENT SURGERY,-0.292809,51.572063
36845.06000000001,STERNDALE SURGERY,-0.221441,51.498326
92433.72999999988,WESTERHAM PRACTICE,0.070437,51.266465
157030.2000000002,STEYNING HEALTH CENTRE,-0.329972,50.890666
77470.7599999999,YOXALL,-1.7931740000000003,52.767984
157.84,GPSI ENT SERVICE ROMAN GATE HUNTS,-0.173105,52.317665
383.83000000000015,LCW HOUNSLOW CCG OOH,-0.217218,51.522362
53812.25999999992,SCHOOLACRE ROAD SURGERY,-1.785797,52.497659
151876.62999999992,WITTON MEDICAL CENTRE,-2.507553,53.740232
25591.39000000001,WALMERSLEY ROAD MEDICAL PRACTICE,-2.289525,53.599849
39090.50000000005,BEVAN HEALTHCARE CIC,-1.753352,53.795581
9046.49,MERSEYCARE NHS TRUST,-2.826417,53.424035
147.00999999999996,WHANTS COMM ENT,-0.08430999999999998,51.500087
163051.92999999964,THE COUNTY PRACTICE,-1.069884,52.70073000000001
125313.53999999998,ORCHARD SURGERY,0.944176,52.678309
152370.20000000036,DR JK MARSDEN'S PRACTICE,-0.436528,51.894968
138942.26999999987,WHITLEY HOUSE SURGERY,0.455723,51.726539
39853.76000000002,JOYDENS WOOD MEDICAL CENTRE,0.166397,51.42449
237853.50000000012,TRAFALGAR MEDICAL GROUP PRACTICE,-1.092485,50.785331
127404.02999999977,EASTFIELD HOUSE SURGERY,-1.323251,51.395555
202795.81000000008,TUDOR LODGE SURGERY,-2.975378,51.332396
113065.4699999998,PRAZE-AN-BEEBLE SURGERY,-5.309264,50.173753
116488.01000000005,HALL GREEN SURGERY,-2.741349,53.540745
34365.69,LATIMER HEALTH CENTRE,-0.049503,51.54659
78798.6400000001,WHITCHURCH SURGERY,-1.340372,51.230256
60285.85000000004,DR NEWMAN,-1.975441,50.719722
2715.760000000001,PONTELAND RD WIC,-1.656804,54.991604
194.34,SUE RYDER NETTLEBED HOSPICE,-0.989042,51.573731
1627.5500000000004,BURNLEY LOCALITY NMPS,-2.238948,53.791326
1.77,ONE ASHFORD - ELECTIVE CARE NHS SERVICES,0.9117360000000002,51.142662
20089.97,SOUTHAMPTON DRUG & ALCOHOL SERVICES,-1.399976,50.907054
1654.5899999999995,DMC COMMUNITY DERMATOLOGY ERY,-0.872594,53.695801
47089.06000000002,THE WHITSWOOD PRACTICE,-2.253502,53.455769
2937.6099999999988,IPU 10-17 EARLY INTERVENTION SW,-1.590621,52.285217
8338.340000000002,ERDINGTON GP HEALTH & WELLBEING WIC,-1.840871,52.522486
12139.629999999996,GATESHEAD HEALTH COMMUNITY SERVICES,-1.580781,54.93938000000001
34348.05000000002,VC WEST LANCS COMMUNITY NURSING,-2.840112,53.602357
70689.75999999994,BEESTON VILLAGE SURGERY,-1.569152,53.772415
52866.55999999997,BLURTON MEDICAL CENTRE,-2.156565,52.972002
1507.76,HASTINGS AND ROTHER OOH,0.891514,51.129106
29470.0,SW INTEGRATED TEAM COUNTYWIDE,-2.215887,52.216438
53131.71999999997,BEWICK ROAD SURGERY,-1.601653,54.956398
143433.48,KEIGHLEY ROAD SURGERY,-1.893907,53.754239
86402.56999999998,MULBERRY STREET MEDICAL PRACTICE,-1.66397,53.794738
120137.23000000008,CHATSWORTH ROAD MEDICAL CENTRE,-1.467337,53.231374
1467.9699999999998,HAVEN COURT,-1.428468,54.971208
82411.97999999998,BENTHAM ROAD HEALTH CENTRE,-2.50627,53.73058399999999
20.48,INVICTA HEALTH CONNECT FOLKESTONE,1.171894,51.085996
227137.87,DENMARK STREET SURGERY,-1.552252,54.538825
141616.16,PALLION FAMILY PRACTICE,-1.414195,54.908604
46046.59,UEA MEDICAL CENTRE,1.241391,52.622369
35222.24999999998,THE STREATFIELD MEDICAL CENTRE,-0.30083,51.595343
46594.92000000001,THE CHELSEA PRACTICE,-0.166915,51.486814
132948.56999999992,RYDAL,0.020102,51.608432
168726.30000000028,GROSVENOR & ST JAMES MEDICAL CENTRE,0.264349,51.137424
24293.68000000001,THE THREE ZERO SIX MEDICAL CENTRE,-0.076403,51.450741
39751.97000000005,NEW OTTERSHAW SURGERY,-0.526005,51.361938
183287.11000000013,RIDGEWAY VIEW FAMILY PRACTICE,-1.7915709999999998,51.524175
125269.67000000011,THE HALL PRACTICE,-0.561016,51.606986
36533.36,HARTLAND SURGERY,-4.482549,50.992721
165791.8399999998,RED BANK GROUP PRACTICE,-2.323706,53.560143
101882.65000000002,GRAVESEND MEDICAL CENTRE,0.369986,51.443932
63373.77,DR WICKREMESINGHE SSG,-0.123521,51.469491
6084.920000000003,HAROLD WOOD WIC,0.225699,51.593184
18446.46000000001,LEARNING DISABILITIES SERVICE,-1.904396,52.412409
2863.7699999999986,SOUTH LAKES PRIMARY CARE SERVICES,-2.737133,54.312706
120212.53999999994,BEECH HOUSE SURGERY,-1.465892,54.010836
185724.73999999996,MANOR PARK SURGERY,-1.628914,53.814076
98033.70000000003,PARKSIDE SURGERY,-1.391868,53.097732
78608.72000000007,BURWELL SURGERY,0.331841,52.273327
33875.17000000002,WEST LONDON MEDICAL CENTRE,-0.454699,51.525731
128850.02999999984,ADELAIDE MEDICAL CENTRE,-1.475274,51.208539
43374.18999999994,TUDOR PRACTICE STOCKLAND GREEN,-1.857329,52.52388199999999
56334.31,WALTON SURGERY,1.335453,51.973564
49758.79999999995,PARKGATE SURGERY,-1.548606,54.523273
41226.64999999998,POLLARD ROW SURGERY,-0.064328,51.528266
1445.7699999999998,RUSHCLIFFE URGENT CARE SERVICE,-1.100495,52.924252
1763.8200000000004,PML NEIGHBOURHOOD HUB (BANBURY),-1.349027,52.057771
55867.09999999997,ULVERSTON COMMUNITY HEALTH CENTRE,-3.097833,54.198882
171921.34000000026,BISHOPS WALTHAM SURGERY,-1.212149,50.95528
100771.73999999983,LOCKWOOD GP SURGERY,-2.989833,53.850947
39021.30999999998,THE ENTERPRISE PRACTICE,-0.320613,51.601113
100921.50999999976,ODDFELLOWS HALL & ST CLEMENTS,0.327906,51.480703
1518.25,COMMUNITY ENT SERVICE,-2.146398,52.465406
30.11,DHCFT HEALTH VISITING,-1.467562,52.928477
43137.95999999998,CHAUCER SURGERY,-1.45237,52.515151
93599.60999999996,THE ENDEAVOUR PRACTICE,-1.235397,54.575047
25455.74000000003,MAYFAIR MEDICAL CENTRE,-0.150172,51.513536
126241.63999999977,FOWEY RIVER PRACTICE,-4.635394,50.337915
142919.15000000008,HOLTS HEALTH CENTRE,-2.406966,51.931555
143965.70000000007,CUMBERLAND HOUSE,-2.145844,52.901549
60219.32000000002,DR A GUPTA BENIM MEDICAL CENTRE,-2.947804,53.419395
156049.74999999994,RIVERSIDE MEDICAL CENTRE,-2.672299,53.748112
54071.73999999999,LITTLETOWN FAMILY MED PRACT,-2.134298,53.529137
41397.60000000001,CROWN WOOD MEDICAL CENTRE,-0.736934,51.395919
3877.2499999999986,CITY REACH HEALTH SERVICES,1.288137,52.633042
11341.449999999995,PELC REDBRIDGE OOH,0.066648,51.55684
74136.41000000006,GREENWOOD SURGERY,0.605168,51.653143
100.86,LEEDS INTEGRATED SEXUAL HEALTH SERVICE,-1.544048,53.80163
1563.0099999999998,RAMSAY HEALTHCARE UK,-2.076674,52.457813
11200.489999999993,MERTON CCG-CLCH (NMP),-0.199155,51.47377
4379.4000000000015,YORK ADULT COMMUNITY NURSING,-1.084285,53.968952
26.18,DHU 111 NOTTS PHARMACIST PRESCRIBERS OOH,-1.428134,52.914593
127240.30000000016,SKELMANTHORPE FAMILY DOCTORS,-1.650686,53.591604
59910.70999999997,PHOENIX PRIMARY CARE (SOUTH) LTD,-0.435422,51.918016
9839.38,SUFFOLK RECOVERY SERVICE - LOWESTOFT,1.7441240000000002,52.470331
50309.55000000001,CASSIDY ROAD MEDICAL CENTRE,-0.199015,51.479154
68456.54999999996,ROWHEDGE SURGERY,0.945058,51.85767
71646.74999999991,THE CHESSER SURGERY,-0.177303,51.374927
149934.48999999976,BUGBROOKE MEDICAL PRACTICE,-1.005426,52.211409
57576.51999999995,TEIGN ESTUARY MEDICAL GROUP,-3.496462,50.5456
60563.66999999999,LUSON,-3.229566,50.977398
30118.73,HEDNESFORD MEDICAL PRACTICE,-2.000697,52.71233
35558.19000000002,ROTTON PARK MEDICAL CENTRE,-1.947079,52.482162
104239.89999999997,NEWTOWN SURGERY,-2.735705,53.362158
226666.77999999968,WINGATE MEDICAL CENTRE,-2.874647,53.488385
40175.49000000002,EGTON SURGERY,-0.7552379999999999,54.445555
46136.059999999954,THE PRACTICE-SAYEED,-1.106589,52.63081700000001
110234.18999999992,TRAMWAYS AND MIDDLEWOOD MEDICAL CENTRES,-1.515268,53.418958
272674.69999999943,TULASI MEDICAL CENTRE,0.12448900000000002,51.561005
101454.09999999992,SUTTON VALENCE GROUP PRACTICE,0.59403,51.211195
106363.36999999998,THE STAUNTON SURGERY,-0.978019,50.851067
161331.37000000017,BLUNDELLSANDS SURGERY,-3.041273,53.484452
57324.43999999998,SLAG LANE MC,-2.575634,53.47856899999999
1661.1600000000005,PRIMARY HEALTHCARE DARLINGTON,-1.561958,54.528141
224.52000000000004,SANDWELL HEALTH PARTNERSHIP,-2.011259,52.536236
13.1,EXETER HEADACHE CLINIC,-3.54518,50.714472
83779.40999999996,GREAT WITLEY SURGERY,-2.361004,52.291152
108911.52999999981,MADELEY PRACTICE,-2.345126,52.999856
116447.07,QUEENSWAY MEDICAL CENTRE,-2.995384,53.846569
118684.40000000005,DR KK CHAN & PARTNERS,-2.489022,53.524185
51330.24999999998,CITY ROAD MEDICAL CENTRE,-0.091116,51.527895
55739.46000000001,BOTOLPH BRIDGE COMMUNITY HEALTH CENTRE,-0.261557,52.562595
1111.77,LONG EATON ON DAY SERVICE,-1.272531,52.901553
272.27000000000004,SOUTH CHESHIRE & VALE ROYAL PCAH,-2.531272,53.1909
70362.81999999988,GUTTERIDGE MEDICAL CENTRE,-2.691248,53.769881
103913.29999999992,ST MARY'S MEDICAL CENTRE,-2.108554,53.543625
737.46,ORTHOPAEDIC CLINICAL ASSESS,0.571235,51.364197
2.02,HV RICHMONDSHIRE,-1.517573,53.993807
2797.1699999999987,BEDSER HUB,-0.556304,51.315132
152.47,HARROW RAPID RESPONSE SERVICE,-0.294546,51.596988
9011.95,WRAYSDALE HOUSE SURGERY,-3.076077,54.367247
261752.78000000032,SAVILLE MEDICAL GROUP,-1.609598,54.976095
56386.08999999999,COOK BF,-0.357512,53.780969
121635.70000000006,ADELAIDE MEDICAL CENTRE,-0.161257,51.543548
41539.58000000004,HOLLINGTON SURGERY,0.872487,51.151423
42303.75000000004,HARTLAND WAY SURGERY,-0.045782,51.374372
92378.82000000007,COLVILLE HEALTH CENTRE,-0.206231,51.515837
84639.62999999987,THE KINGS FAMILY PRACTICE,0.534548,51.377821
97865.32999999993,FOUNTAIN PRACTICE,-0.252307,51.350378
145932.0199999999,NUFFIELD HEALTH CENTRE,-1.486793,51.786441
36019.18,240 WEXHAM ROAD,-0.57838,51.516902
160168.99000000034,THISTLEMOOR MEDICAL CENTRE,-0.254566,52.595274
53481.73999999993,CANTERBURY HEALTH CENTRE,1.082981,51.274249
33298.06999999995,BANBURY HEALTH CENTRE,-1.334014,52.062032
444.0799999999999,DERMATOLOGY CLINIC,-2.486748,53.750552
57188.38999999991,SOHO HEALTH CENTRE,-1.934945,52.503094
397.9800000000001,ADULT LEARNING DISABILITY SERVICE,-1.484449,52.444687
72.87999999999998,HEALTH VISITORS STOKE,-2.109085,52.810605
47.56,DONCASTER PERINATAL MENTAL HEALTH TEAM,-1.146558,53.497488
206174.53000000023,HOLLYNS HEALTH & WELLBEING - CLAYTON,-1.81454,53.779166
93237.65999999992,BRIDGE STREET MEDICAL PRACTICE,-1.20716,52.774841
83049.35999999997,PRIORS FIELD SURGERY,0.124169,52.388951
191882.50000000032,MILLWAY MEDICAL PRACTICE,-0.24359099999999997,51.614985
2157.4899999999993,MOULSHAM LODGE SURGERY,0.475137,51.716565
55691.78000000001,YORK ROAD SURGERY,0.065859,51.559165
102225.11,ST.GEORGE'S SURGERY,-2.0815,51.906706
1203.4099999999996,OLDHAM URGENT TREATMENT GTD HEALTHCARE,-2.121831,53.553248
58086.31000000004,CROPREDY SURGERY,-1.320027,52.116731
63969.66,BIRCHWOOD MEDICAL PRACTICE,-2.547938,51.446246
45867.96999999989,WEST PARK SURGERY,-2.141256,52.587783
38694.49999999999,UPTON ROCKS PRIMARY CARE,-2.754371,53.373367
751.9899999999999,FARLEIGH HOSPICE,0.467731,51.776479
44.08,CULTURE FUSION - EIP,-1.7596490000000002,53.792973
81776.5599999999,WELLSBOURNE HEALTHCARE CIC,-0.107386,50.825445
40707.09,P A PATEL SURGERY,0.582273,51.56978
66586.98999999999,CLINTON ROAD SURGERY,-5.224966,50.23093
26465.22,BLOOMSBURY HEALTH CENTRE,-1.876618,52.493743
110070.16000000012,HOUGHTON MEDICAL GROUP ,-1.469175,54.842322
46709.45999999998,LUNDWOOD MEDICAL CENTRE PMS PRACTICE,-1.438538,53.557711
125822.2799999999,BALLARDS WALK SURGERY,0.441841,51.573232
60885.33999999987,THE HALFWAY SURGERY,0.524157,51.380429
81270.11000000003,ELIZABETH HOUSE MEDICAL PRACTICE,-0.050005,51.308093
18474.390000000007,SARAJLIC (STAINES ROAD),-0.357923,51.439672
296613.93000000005,THE DOWNEND HEALTH GROUP,-2.505301,51.485109
44239.92999999999,THE SINGH MEDICAL PRACTICE,-2.213622,53.512042
4178.889999999998,STROKE PATHWAY AND REHABILITATION CENTRE,-1.461102,53.37116700000001
294.61,ABOUT HEALTH LN DERMATOLOGY,-2.455551,53.733223
57.73,NMP CCS - CYP SERVICE UNIT,-0.067127,52.322863
192.21000000000004,OLDHAM COMMUNITY HEALTH SERVICES,-2.146984,53.542056
479.17999999999995,COMMUNITY PALLIATIVE CARE MEDICAL TEAM,-2.777861,53.433387
153868.7700000001,BLACKBURN RD.MEDICAL CTR.,-1.664718,53.731348
126433.37000000011,COMMUNITY HEALTH CENTRE (ZS OSAMA),-1.113421,52.632387
117296.00000000006,TRAMWAYS MEDICAL CENTRE (O'CONNELL),-1.503023,53.402044
177668.64000000016,SHEFFORD HEALTH CENTRE,-0.321643,52.034788
85109.39999999992,THE FRYENT WAY SURGERY,-0.280565,51.582963
76537.72999999998,BELMONT MEDICAL CENTRE,-0.478036,51.548264
123328.25000000016,BEXLEY GROUP PRACTICE,0.10965599999999999,51.465832
54749.86999999992,THE MOORINGS MEDICAL PRACTICE,-0.095892,51.322229
210857.58999999985,BLACKTHORN HEALTH CENTRE,-1.327194,50.876037
95656.61,ELM HAYES SURGERY,-2.492756,51.300546
160574.96999999968,THE DOVE MEDICAL PRACTICE,-1.864605,52.535155
149494.9799999999,WARLEY MEDICAL CENTRE,-2.006757,52.468122
78256.44000000002,OLIVE MEDICAL CENTRE,-2.484193,53.752309
39976.34,SOMERS TOWN MEDICAL CENTRE,-0.130607,51.529916
320.69,COMMUNITY PALLIATIVE CARE,-2.267012,53.599742
53583.41999999996,LAUREL BANK SURGERY,-1.587333,53.816942
68148.83000000007,HEALTH CARE COMPLEX  KIRKBY,-1.244634,53.100062
81628.32,THE AZAD PRACTICE,0.044868,51.531234
1406.4000000000005,BRIGHTON STATION WALK-IN,-0.141323,50.827937
10.81,THE NORTH HAMPSHIRE ALLIANCE,-1.093694,51.26408
7202.300000000002,SW INTEGRATED TEAM MALVERN,-2.178135,52.192339
217.36,ADULT MH COMMUNITY - ACCESS TEAM,-2.210832,53.000486
193257.04000000007,COQUET MEDICAL GROUP,-1.580504,55.332599
73500.74999999999,ALLERTON MEDICAL CENTRE,-1.533879,53.826921
68996.39999999997,SOLE BAY H/C,1.6664740000000002,52.336325
45735.36000000005,WATERSIDE MEDICAL CENTRE,-0.363984,51.502165
105305.14000000019,MELBOURNE HOUSE SURGERY,0.451756,51.749214
86902.77000000006,AMPTHILL PRACTICE,-0.137293,51.5346
76295.77999999997,THE WILLOWS PRACTICE,0.104416,51.60776
205273.4199999999,HIGHPARKS MEDICAL PRACTICE,0.496762,51.434213
97600.4399999999,CRAWLEY DOWN HEALTH CENTRE,-0.07762099999999998,51.122557
145461.09999999998,COTSWOLD MEDICAL PRACTICE,-1.75678,51.886317
120338.76000000011,BEDFORD STREET SURGERY,-0.729782,51.995784
110457.4800000002,SOUTHOVER MEDICAL PRACTICE,-3.528075,50.474733
144101.09000000005,THE STOKE ROAD SURGERY ,-2.068173,51.94667
100962.64999999998,HAWKESLEY MEDICAL PRACTICE,-1.937498,52.39544
120114.1799999998,PARK MEDICAL CENTRE,-2.873099,53.202665
139227.77999999988,NORWOOD SURGERY,-2.97819,53.65000799999999
11651.829999999993,SLAIDBURN HEALTH CENTRE,-2.444001,53.967313
32055.749999999975,DR PATHAK ND,-1.9843959999999998,52.51273
48507.05999999998,DILSTON MEDICAL CENTRE,-1.640355,54.976621
68100.00000000001,NORTH CHELMSFORD NHS HCC,0.510815,51.750584
299.24,GPHP - GP IN A&E,-0.273231,51.325518
81838.25,FRIERN BARNET MEDICAL CENTRE,-0.155988,51.613267
126526.04999999992,THE GOLD STREET SURGERY,0.240471,52.021716
145823.2399999997,WELLS HEALTH CENTRE,-2.655326,51.203403
46558.47999999998,VILLAGE MEDICAL PRACTICE,-2.095994,53.574817
1761.4,CNWL-MK MEDICAL PRESCRIBER,-0.7357599999999997,52.026384
2931.98,THOMAS LINACRE SPECIALIST,-2.629091,53.55774
25209.35000000002,THE OM SURGERY,-1.2057,53.034978
253.44000000000003,WANDSWORTH COMMUNITY WARDS,-0.145908,51.472301
9812.47,WHITTINGTON HEALTH (HARINGEY),-0.139066,51.566482
1051.4799999999998,EAST CLUSTER IAGPS,-1.82052,50.747482
154769.63999999987,HOLMSIDE MEDICAL GROUP,-1.66023,54.969004
52347.03000000006,SEVERN SURGERY,-1.065583,52.598801
179.29000000000005,SOUTH WIGSTON ASYLUM SERVICE,-1.12559,52.63753
0.66,WORKING AGE ADULTS - PULLMAN PLACE,-2.238316,51.866796
87159.3200000001,SPRING TERRACE HEALTH CENTRE,-1.450673,55.010941
117673.5500000001,SOUTH WIGSTON HEALTH CTR.,-1.129183,52.580452
82217.19999999995,QUEENS WALK PRACTICE,-0.312985,51.524803
196474.33999999997,OLD ROAD SURGERY,1.148421,51.795466
119558.82999999994,THE LIMEHOUSE PRACTICE,-0.028747,51.511253
61787.00999999997,FORDBRIDGE MEDICAL CENTRE,-0.46301,51.431269
96628.10999999999,EVERSLEY MEDICAL CENTRE,-0.11191300000000001,51.388514
111740.48999999996,CRICKET GREEN MEDICAL PRACTICE,-0.174025,51.404579
175521.47000000018,WELLFIELD MEDICAL CENTRE,-2.242019,53.512545
128071.35999999988,WIGTON GROUP MEDICAL PRACTICE,-3.159002,54.820303
139113.67000000013,VILLAGE SURGERY,-1.485797,52.896347
125234.16999999988,THE MEDICAL CENTRE  DR JEFFERIES & PARTN,-0.212607,51.481206
49411.63000000001,MEANWHILE GARDEN MEDICAL CENTRE,-0.203126,51.522228
43983.53000000001,ROSERTON STREET SURGERY,-0.010049,51.498482
142996.15000000017,ALBION PLACE MEDICAL PRACTICE,0.529542,51.274206
82558.39999999989,TRIVENI PMS,0.058438,51.490321
167937.90999999995,THE HARVEY PRACTICE,-1.993525,50.761018
122004.68999999994,THE MISBOURNE SURGERY,-0.558045,51.607786
69907.81999999998,SHAY LANE MEDICAL CENTRE (KELMAN),-2.31556,53.372189
157973.16999999966,MORRAB SURGERY,-5.538987,50.116924
7732.089999999997,BHC NON MEDICAL PRESCRIBERS,0.010423,51.377216
137.51,SCS DIABETES SERVICE,-0.150861,51.357264
396.56000000000006,CCG ACUTE VISITING SERVICE,-2.178123,53.021853
1586.1500000000005,LGI GPS IN A+E,-1.551744,53.801445
130999.89000000016,BARBOURNE HEALTH CENTRE,-2.224952,52.208752
63887.42000000006,LILFORD PARK SURGERY,-2.511455,53.503236
1301.04,MARSDEN INTERMEDIATE CARE,-1.696689,53.676075
27962.68999999999,MALLING HEALTH AT STOKE ALDERMOOR,-1.479565,52.402142
4588.180000000001,THGPCG SERVICE OOH,-0.004927,51.514483
33.36,COMMUNITY CATARACT SERVICE,-1.421662,53.698109
95974.38999999993,MEIR PARK & WESTON COYNEY MEDICAL PRACT,-2.094889,52.966305
118049.58999999988,OAKWOOD SURGERY,-1.858645,52.444556
53502.28000000007,THE GROVE MEDICAL PRACTICE,-0.362401,51.55534
49605.41000000007,THE DURU PRACTICE,-2.116945,53.543824
44283.32,ADDICTIONS SERVICE,-1.607294,54.973724
20.17,EARLY INTERVENTION NORTH SERVICE,-2.055662,52.344136
195430.6500000001,ASH GROVE,-1.245572,53.704968
115566.27000000012,HOLLIES MEDICAL CENTRE,-1.494834,53.363179
59993.55000000001,GREEN PRACTICE,-0.371755,51.468263
45547.93999999998,BLACKFRIARS MEDICAL PRACTICE,-0.105775,51.505364
48322.26000000001,CRONDALL NEW SURGERY,-0.858386,51.237211
46063.99000000001,CHADDESLEY SURGERY,-2.158038,52.361961
103805.73999999986,DR JUDE'S PRACTICE - RIVERSIDE,-2.943016,53.398876
32161.08000000002,THE MANOR PARK PRACTICE,0.057339,51.55393
48683.760000000046,TRENTHAM MEWS MEDICAL CENTRE,-2.189898,52.970452
15071.250000000005,NATIONAL SOCIETY FOR EPILEPSY,-0.551146,51.62127
322.86,WESTMINSTER DIABETES CENTRE,-0.169323,51.524736
1.82,HV SCARBOROUGH,-1.517573,53.993807
233.71,CANNOCK MINOR INJURIES UNIT,-2.030614,52.693241
2829.0900000000024,WIDNES GP EXTRA SERVICE,-2.735705,53.362158
86179.3599999999,DR THORNILEY-WALKER & PARTNERS,-1.460703,54.949762
34592.370000000024,DR U AKBAR,-1.777945,53.803569
57815.299999999974,AIREBOROUGH FAMILY PRACTICE,-1.684881,53.866663
139863.37999999995,THE BURBAGE SURGERY,-1.361645,52.53009599999999
112776.28999999994,SCHOOL HILL MEDICAL PRACTICE,0.012064,50.873469
148385.73999999982,GRAYSHOTT SURGERY,-0.745626,51.110093
44280.45000000002,OLD SCHOOL HOUSE SURGERY,-1.604408,51.376032
121809.30999999994,THE ARDLEIGH SURGERY,0.985096,51.927073
199731.68,STONE CROSS SURGERY,0.289944,50.816757
30036.48999999999,MARSHALLS ROAD SURGERY,-0.539225,52.344743
258618.00000000023,DARWIN MEDICAL CENTRE,-1.831505,52.694061
383.77,UTTLESFORD HEALTH LIMITED GYNAECOLOGY,0.256305,52.0236
100261.30999999995,SOUTH HERMITAGE SURGERY,-2.752497,52.699728
2.8200000000000003,GPSI CARDIOLOGY - WESTCLIFFE,-1.781103,53.830481
529.33,EAST KENT HEADACHE SERVICE,1.414787,51.390277
285.2,TPG COMMUNITY OPHTHALMOLOGY - SALFORD,-0.574826,51.671154
25770.92,TURNING POINT LEICESTER & LEICESTERSHIRE,-1.127621,52.637554
18487.629999999994,AR-RAZI MEDICAL CENTRE,-1.101204,52.623926
83933.55,OAKENHALL MEDICAL PRACT,-1.199437,53.03661700000001
92452.29999999984,LAWNS PRACTICE,1.109092,52.378889
70568.49000000008,CHURCH END MEDICAL CENTRE,-0.253241,51.54757
86263.60000000006,THE DEVONSHIRE LODGE PRACTICE,-0.397406,51.579266
78506.44999999998,STANWELL ROAD SURGERY,-0.470567,51.438013
60374.28999999993,WIDCOMBE SURGERY,-2.354321,51.376371
142533.20999999993,HILLVIEW MEDICAL CENTRE,-1.951153,52.305568
60273.349999999984,LONGTON MEDICAL CENTRE,-2.770123,53.417492
129355.57999999965,DR AHMAD & PTNRS,-2.595925,53.522279
90321.32999999999,JS MEDICAL PRACTICE,-0.078706,51.589103
10506.350000000002,SUMMERFIELD GP SURG & URGENT CARE CENTRE,-1.937353,52.487686
1566.15,THE EDWIN LOBO UNIT,-0.450138,51.918004
64335.770000000026,THE WILLASTON SURGERY,-3.011643,53.292908
1295.9699999999998,EPUT TISSUE VIABILITY,0.12393,51.704295
7466.829999999999,WHITTINGTON HEALTH (ISLINGTON),-0.139066,51.566482
1134.1,ST MICHAELS HOSPICE,-1.518091,53.977242
146689.49000000002,TOWNHEAD SURGERY,-2.276903,54.070534
55851.53000000004,HORNE STREET SURGERY,-1.871717,53.725678
113264.79999999992,THE GARDEN CITY PRACTICE,-0.209287,51.797151
116078.21999999994,RIVERMEAD GATE MED.CTR.,0.472887,51.740849
66463.99,ROMAN WAY MEDICAL CENTRE,-0.10550599999999999,51.544561
80211.28999999995,CARNON DOWNS SURGERY,-5.091905,50.22345
118092.71999999994,DR KS UPTON'S PRACTICE,-1.986582,52.988358
128723.51999999995,KINGSWAY MEDICAL CENTRE,-1.289009,54.606459
80346.75999999998,PRUDHOE MEDICAL GROUP,-1.853822,54.96186
104878.77999999988,ARTHUR MEDICAL CENTRE,-1.422636,53.001503
115653.98000000005,PORTLAND MEDICAL PRACTICE,-0.539074,53.22371999999999
188434.56000000008,THE WALL HOUSE SURGERY,-0.208192,51.241304
38188.150000000016,THE HALING PARK PARTNERSHIP,-0.098109,51.357113
95658.71,THE PRINCE OF WALES SURGERY,-2.457579,50.713502
73489.55000000009,THE GROVE SURGERY,-0.735114,52.023651
127204.42,PROBUS SURGERY,-4.948542,50.290121
29003.069999999945,DR PAL,-2.595495,53.47988
111719.59999999973,CHAPEL ROW SURGERY,-1.17086,51.425877
6787.059999999998,NCH&C COMMUNITY NURSES (WEST),0.410147,52.749129
105.29000000000002,MUSCULOSKELETAL INTERFACE ASSESSMT SVCE,-0.168282,51.45617
11191.800000000012,HEALTHBRIDGE DIRECT,0.020102,51.608432
123266.94000000002,GRANGE STREET SURGERY,-0.335878,51.757298
63372.93,ST PETER'S SURGERY,1.41893,51.362936
23251.72000000001,SIBFORD SURGERY,-1.479244,52.037614
180845.68000000005,AXMINSTER MEDICAL PRACTICE,-2.999226,50.780899
73759.79,PRICES MILL SURGERY,-2.224938,51.693801
137993.97999999992,MARSH MEDICAL PRACTICE,0.143689,53.445069
175547.13999999993,KNEBWORTH & MARYMEAD MEDICAL PRACTICE,-0.184972,51.866323
28163.379999999986,THE HODFORD ROAD PRACTICE,-0.199318,51.569038
76286.11999999978,ABBEY ROAD MEDICAL PRACTICE,0.005881,51.534784
290129.3899999999,BETHESDA MEDICAL CENTRE,1.414787,51.390277
105316.62999999996,WOODLANDS SURGERY,0.088913,51.439755
41469.30999999998,ALVELEY MEDICAL PRACTICE,-2.353309,52.454738
48975.49,KNOWSLEY MEDICAL CENTRE,-2.300551,53.588497
995.6400000000001,ST JOSEPH'S HOSPICE  HACKNEY,-0.056255,51.537053
77982.82000000004,CHURCHSIDE MEDICAL PRACTICE,-1.203539,53.146592
50918.17000000006,SOUTHEND MEDICAL CENTRE,0.708516,51.540069
39950.41000000001,THE MITCHISON ROAD SURGERY,-0.087357,51.544992
128633.55000000016,FRAMLINGHAM SURGERY,1.334192,52.227216
35916.07000000001,CHOWDHURY,0.233898,51.592339
109020.30000000016,JENNER HOUSE SURGERY,-0.7745189999999998,51.294302
111276.0,NORFOLK STREET SURGERY,-2.182794,53.01602
146864.29000000027,TORKARD HILL MEDICAL CTRE,-1.207389,53.029901
100982.40999999992,VILLAGE SURGERY,-1.251934,53.39421
27618.240000000005,ALLENBY CLINIC,-0.376261,51.531514
283497.03999999986,DR PUZEY DR KOTHARI AND DR NANDA,0.705992,51.582107
223102.05000000022,SEVERN FIELDS MEDICAL PRACTICE,-2.721619,52.728047
177418.57999999993,CUMBERLAND HOUSE SURGERY,-2.990437,53.638743
36549.55,HOLLINS GROVE SURGERY,-2.477472,53.705346
35331.98,OLDHAM FAMILY PRACTICE,-2.116945,53.543824
43216.32999999999,SHAY LANE MEDICAL CENTRE (PATEL),-2.31556,53.372189
1379.2300000000007,AT HOME SERVICE,-0.10603,51.438104
1537.65,COMMUNITY TISSUE VIABILITY SERVICE,-2.681273,53.496386
207297.0899999999,CHURCHILL MEDICAL CENTRE,-0.018466,51.618226
89732.22000000002,PRIORY MEDICAL CENTRE,-0.50567,52.167181
14521.280000000026,ESK ROAD MEDICAL CENTRE,0.024266,51.522454
264527.9199999997,REACH HEALTHCARE,0.52408,51.337756
99584.02999999987,CAMBERLEY HEALTH CENTRE,-0.754069,51.324435
60269.830000000016,FLOOD (ESSEX HOUSE),-0.247469,51.472541
59352.749999999935,WOLLASTON AND BOZEAT SURGERIES,-0.674311,52.252471
126328.00999999994,ST.LEVAN SURGERY,-4.177328,50.383921
102157.25999999998,BARTON,-1.725223,52.761751
32550.09,HAWTHORNS MEDICAL CENTRE,-1.967268,52.501507
36478.12999999998,BROWNLOW AT MARYBONE,-2.987806,53.411269
69987.91999999994,LITTLE LEVER HEALTH CENTRE 1,-2.370624,53.55981800000001
104311.54999999996,CONWAY ROAD MEDICAL PRACTICE,-2.303561,53.417873
126250.71000000006,MAYBUSH MEDICAL CENTRE,-1.489249,53.670273
36908.48999999999,FALKLAND HOUSE SURGERY,-1.514423,53.359728
131455.04000000027,MILTON KEYNES VILLAGE SURG,-0.697865,52.043891
15515.17,COMMUNITY DRUG TEAM,-2.164111,53.409517
3762.3,GPSI PALLIATIVE CARE,-3.007792,53.502483
874.3600000000001,THE PRACTICE OPHTHALMOLOGY,-1.245572,53.704968
985.07,COMMUNITY WARFARIN SERVICE,-1.467656,52.523302
153919.6,FIELDHOUSE MEDICAL GROUP,-0.112579,53.564436
78567.64000000007,SAXON CROSS SURGERY,-1.273642,52.931099
90952.88999999978,THE NAYAR PRACTICE,-1.1933790000000002,53.480824
20652.030000000013,NEW NORTH HEALTH CENTRE,-0.091592,51.537534
112347.84000000014,HOVE MEDICAL CENTRE,-0.19539,50.845024
115250.53999999994,FORT HOUSE SURGERY,-0.412578,51.37881
102414.19000000016,THE LAWN MEDICAL CENTRE,-1.7619029999999998,51.547821
20205.969999999994,ST MARY'S HEALTH CENTRE,-6.308668,49.911605
192969.97000000023,TAVYSIDE HEALTH CENTRE,-4.145976,50.545824
105225.53999999996,HAGLEY SURGERY,-2.144103,52.420783
13928.580000000005,YARDLEY MEDICAL CENTRE,-1.828397,52.463189
320617.61000000045,ASHTON MEDICAL GROUP,-2.089184,53.489361
107965.81000000016,THE WILLESDEN MEDICAL CENTRE,-0.233873,51.547532
22543.86,SELHURST MEDICAL PRACTICE,-0.088969,51.390012
124358.30000000012,PONTESBURY MEDICAL PRAC,-2.887922,52.650521
82024.4600000001,BRAITHWAITE RD SURGERY,-2.574985,53.477412
104546.73000000008,WOODGRANGE MEDICAL PRACTICE,0.025253,51.548596
48318.91,JARVIS MEDICAL PRACTICE,-2.095095,53.537786
8725.129999999997,IC24 LTD (NORFOLK & WISBECH OOH),0.891514,51.129106
59215.56999999996,THE MANSELL ROAD PRACTICE,-0.358969,51.525654
68582.26000000008,FOUNDATIONS,-1.257899,54.563441
1163.5700000000004,CGL STOCKTON ALCOHOL SERVICE,-1.317384,54.563979
34708.22,READING WALK-IN HEALTH CENTRE,-0.9758960000000002,51.454809
36810.08999999997,BRADFORD DISTRICT CARE TRUST,-1.788605,53.839675
62.11,GP EXTENDED HOURS SERVICE,-0.62317,54.485919
3551.030000000001,NORTH TYNESIDE CARE PLUS,-1.456596,55.011193
1175.4999999999998,8 TO 8 TOP-UP HUB QMH,0.101687,51.419041
2492.900000000001,SUFFOLK GP FEDERATION OOH,1.164244,52.044508
330968.46000000014,MUNRO MEDICAL CENTRE,-0.147427,52.794037
101474.93999999992,MOSBOROUGH HEALTH CENTRE,-1.364873,53.325238
99505.07000000004,PUCKERIDGE & STANDON SURGERY,0.019374,51.888296
89511.63000000009,COMMONWEALTH HEALTH CENTRE,0.36308,51.463166
98219.99,TAMWORTH HOUSE MEDICAL CENTRE.,-0.146254,51.40122
132873.0800000002,PARKSIDE PRACTICE,-1.353169,50.970948
85874.80999999991,DARTMOUTH MEDICAL PRACTICE,-3.580811,50.351157
53670.11999999999,BLACKHEATH MED CTR,-3.104694,53.412239
20995.449999999993,GOLDINGTON ROAD SURGERY,-0.456174,52.140172
80897.67999999996,POPLAR PRIMARY CARE CENTRE,-1.890326,52.43631
125065.06999999992,THE SUTTON MANOR SURGERY,-0.315294,53.785759
215905.71999999997,JESSOP MEDICAL PRACTICE,-1.372226,53.074348
124499.35999999981,THE MAYFLOWER MEDICAL PRACTICE,-1.01945,53.431872
99694.20000000008,ST.ANTHONY'S HEALTH CENTRE,-1.55655,54.966674
8209.410000000002,WESTCALL OOH,-0.8315749999999998,51.410524
968.4099999999999,MK ENT SERVICE,-0.79788,52.035898
21.56,LYNFIELD MOUNT HOSPITAL,-1.805354,53.809728
189.95,PCAH - NEW ROMNEY,0.938719,50.987586
47231.04000000005,WHITWICK HEALTH CENTRE,-1.3606790000000002,52.742576
161923.8000000001,MARKET SURGERY,-1.345958,53.502635
86704.75999999985,DERWENT CRESCENT MEDICAL CENTRE,-0.175285,51.622908
235417.25000000012,ABBEY FIELD MEDICAL CENTRE,0.898575,51.877487
274725.78,ABBEY HOUSE MEDICAL PRACTICE,-1.160725,52.260319
143687.29999999993,NORTON BROOK MEDICAL CENTRE,-3.782122,50.288739
135208.43000000017,MARTON MEDICAL PRACTICE,-3.034524,53.812843
6331.26,COMMUNITY PAEDIATRICIANS,-2.214271,53.470746
2561.5199999999995,DR WRIGHT ED CLINIC (BELMONT),-1.52816,54.786148
3905.18,DMC COMMUNITY DERMATOLOGY RBWF,-2.059728,52.337612
141259.94999999984,THE NORTH LEEDS MEDICAL PRACTICE,-1.534037,53.843332
52919.05,FRIAR GATE SURGERY,-1.485624,52.924816
138585.03000000006,NAVENBY CLIFF VILLAGES SURGERY,-0.526297,53.103518
119333.45999999989,ASKERN MEDICAL PRACTICE,-1.148909,53.61549599999999
96863.31000000017,LEYTON HEALTHCARE 4TH FLOOR,-0.013313,51.559894
37669.35000000005,CAMBRIDGE HOUSE,-2.144827,53.024433
29688.69000000001,PARK HOUSE SURGERY,-1.942965,52.54446
189098.24,RAINBOW MEDICAL CENTRE,-2.705931,53.435389
135303.67999999993,LITTLE LONDON SURGERY,-1.979284,52.574984
83250.52999999996,STRETTON MEDICAL CENTRE,-2.577017,53.339489
21750.00999999999,THE DALE MEDICAL PRACTICE,-2.154239,53.611617
8317.890000000003,CAMBRIDGE ACCESS SURGERY,0.138701,52.20875
768.3100000000002,ANGEL LODGE,-1.50929,53.683308
6702.669999999999,HP NMP'S NN & E CCG,-1.143101,53.130244
23526.23,WARWICKSHIRE DRUG & ALCOHOL RECOVERY,-1.529997,52.283202
139996.27999999974,LEIGH FAMILY PRACTICE,-2.511927,53.493519
93605.14999999998,THE GREYSWOOD PRACTICE,-0.144853,51.419489
68554.13000000002,CHATHAM STREET SURGERY,-0.981895,51.455924
98955.92000000007,DEVON SQUARE SURGERY,-3.60508,50.529985
64938.27999999993,THE ROYAL WELL SURGERY,-2.0815,51.906706
84253.70000000003,THE LIMES SURGERY MEDICAL CENTRE,-2.114052,52.456884
116338.13999999994,LAYTON MEDICAL CENTRE,-3.027291,53.827425
4573.750000000001,GPSI DERMATOLOGY SERVICE BUCKDEN HUNTS,-0.254174,52.291764
29994.18000000001,CAMDEN COMMUNITY NURSING,-0.131658,51.53665
2000.7000000000005,COMMUNITY DERMATOLOGY SOUTHWARK GSTT,-0.08679399999999998,51.503466
120370.91000000012,WILLINGTON SURGERY,-1.566835,52.850285
141133.87999999992,MANOR FARM MEDICAL CENTRE,0.690513,52.648544
129302.59999999995,REGAL CHAMBERS SURGERY,-0.275959,51.952843
36898.52,THE GARWAY MEDICAL PRACTICE,-0.185494,51.515392
587121.689999999,ACORN HEALTH PARTNERSHIP,-1.114058,51.245047
2080.62,UNIV HOSP NORTH DURHAM OOH,-1.593834,54.788497
28148.240000000005,BOWLING GREEN STREET SURGERY,-1.133096,52.63304599999999
4913.29,GP CARE DVT SERVICE,-2.570351,51.544821
103.42999999999998,INDEPENDENT HEALTH GROUP,-2.414415,51.312224
116775.07999999993,BURTON CROFT SURGERY,-1.57692,53.820807
39439.84,HARTINGTON SURGERY,-1.810816,53.142488
35754.45000000001,FIVE ELMS MEDICAL PRACTICE,0.14235,51.553315
137141.41000000015,SOUTH VIEW PARTNERSHIP,0.026125,51.405111
52248.68,CORNERWAYS SURGERY,-0.404519,50.81566
35184.600000000035,WALLINGTON MEDICAL CENTRE,-0.129285,51.357345
80407.0499999999,COMBE DOWN SURGERY,-2.345599,51.361003
66905.76000000001,NORTH PETHERTON SURGERY,-3.013922,51.09139
54618.65999999994,QUEENS MEDICAL CENTRE,-2.235847,53.50081899999999
163559.93000000002,THE PENDLE MEDICAL PARTNERSHIP,-2.144307,53.915882
170071.8199999998,3/SPRINGFIELD HOUSE MEDICAL PRACTICE,-2.362019,53.480252
24564.699999999986,THE KINGSWAY PRACTICE,-2.135588,53.612168
161.1,THE ENFIELD PAIN CLINICS,-0.076772,51.66253
12647.41,WESTMINSTER DAWS,-0.132264,51.511274
58364.09000000004,THE PRACTICE FELTHAM,-0.411086,51.446367
53463.96,NHS FYLDE & WYRE CCG,-2.881037,53.789498
538381.830000001,BEACON MEDICAL PRACTICE,0.331219,53.157472
28276.27000000001,GREENFIELDS MEDICAL CENTRE (YVS RAO),-1.168583,52.966506
2490.440000000001,IC24-THANET CCG OOH,0.891514,51.129106
78470.36000000007,TODDINGTON MEDICAL CENTRE,-0.530482,51.945856
187608.66000000003,OAKLANDS HEALTH CENTRE,1.08253,51.069106
151080.34000000014,LONGCROFT CLINIC,-0.192332,51.325314
49613.86999999996,WHITCHURCH SURGERY,-0.8426209999999998,51.882174
25910.210000000014,RIVERSIDE SURGERY,-1.699518,52.632337
116117.77999999994,THE VILLAGE SURGERIES GROUP,-2.771265,53.124246
122287.47000000006,SHIFA SURGERY,-2.475999,53.757295
73621.98999999993,OLDHAM MEDICAL SERVICES,-2.111235,53.52535699999999
79873.97999999995,LEADGATE SURGERY,-1.805988,54.860562
103321.32000000002,GOYT VALLEY MEDICAL PRACTICE,-1.983113,53.3305
532.08,HMP & YOI CHELMSFORD,0.484655,51.736724
946.53,BARNSLEY HOSPICE,-1.514714,53.560138
5702.37,CGL RICHMOND UPON THAMES,-0.330961,51.445928
73095.77000000003,CONCORD MEDICAL PRACTICE,-1.524864,54.913411
125621.52,COUNTESTHORPE HEALTH CENTRE,-1.136767,52.554536
81373.90000000002,ANNANDALE MEDICAL CENTRE,-0.17421099999999998,51.698571
242.49,WEST KENT HEALTH FEDERATION,0.277462,51.194717
78.04999999999998,CYPS - MARSBURG HOUSE,-2.206729,51.739527
128385.07999999984,DR SINHA & PARTNERS,0.100204,53.030138
38166.399999999965,THE HEALTH CARE SURGERY,-1.487911,53.42172
82278.81999999998,THE LIMES SURGERY,-0.010842,51.759413
62668.41999999993,SEVEN DIALS MEDICAL CENTRE,-0.147743,50.829681
100583.28000000004,BARCROFT MEDICAL CENTRE,-1.780526,51.172939
190988.71000000008,PIONEER MEDICAL GROUP,-2.617628,51.510306
68738.11999999985,WITHNELL HEALTH CENTRE,-2.556663,53.692491
75357.16000000006,DR ABBAS,-0.841253,52.26834
61086.13999999997,DR GS KALKAT'S PRACTICE,0.103861,51.527941
19993.499999999996,THE LYNWOOD SURGERY,-0.29964,51.528594
250797.54999999984,FERRYHILL AND CHILTON MEDICAL PRACTICE,-1.556828,54.689838
121440.13999999988,COLLIERY COURT MEDICAL GROUP,-1.460703,54.949762
24211.52,WINDSOR MEDICAL CENTRE,-1.622157,53.693875
77784.50999999998,LOWMOOR ROAD SURGERY,-1.244634,53.100062
48577.109999999935,SUNRISE MEDICAL CENTRE,-0.382255,51.51087
94723.42999999996,SONNING COMMON HEALTH CTR,-0.982114,51.515603
202055.26,LANDER MEDICAL PRACTICE,-5.055864,50.259982
146514.69,ALUM ROCK MEDICAL CENTRE,-1.850664,52.489901
1054.2699999999998,WORKINGTON HEALTH LIMITED,-3.551342,54.642687
350053.7100000006,HARDWICKE HOUSE GROUP PRACTICE,0.725792,52.0382
81025.3399999999,WOOLSTONE MEDICAL CENTRE,-0.036776,51.438421
102062.35999999996,SOUTHGATE MEDICAL GROUP,-0.194559,51.102316
91666.58999999976,BROCKWORTH SURGERY,-2.156696,51.844575
116378.01000000015,DAWLEY MEDICAL PRACTICE,-2.466781,52.664322
121362.43,HOWARD HOUSE SURGERY,1.349626,51.96149
74263.53000000001,AMWELL GROUP PRACTICE,-0.11081700000000001,51.528043
154936.78999999995,MEOPHAM MEDICAL CENTRE,0.359744,51.368901
60422.56999999998,FORGE CLOSE SURGERY,0.016555,51.377137
87657.17000000004,JOHNSON (SHEEN LANE),-0.267239,51.465848
72115.01999999993,LITTLEDOWN SURGERY,-1.833439,50.741638
60402.47000000006,PEDMORE MEDICAL PRACTICE,-2.118211,52.457029
42852.46999999995,THE OLD DISPENSARY,-1.987226,50.803427
51804.06999999996,STROUD GREEN MEDICAL CENTRE,-0.114328,51.570059
44.76000000000001,BIRMINGHAM ST MARY'S HOSPICE,-1.926741,52.439458
120154.27000000006,WEST SOMERSET HEALTHCARE,-3.3186760000000004,51.161419
165609.84000000005,OMNIA PRACTICE,-1.839082,52.475709
124321.41,MORETON CROSS GROUP PRACTICE,-3.111975,53.403551
88658.17,WEST COMMON LANE TEACHING PRACTICE,-0.682441,53.57473100000001
72806.03999999992,RIVERSIDE MEDICAL PRACTICE,-1.315584,54.56887
3885.8,MEDICUS HEALTH PARTNERS-ENFIELD ISLAND,-0.016992,51.668586
2005.77,WORTLEY BECK CHILDRENS SERVICE,-1.601117,53.782448
11.18,HMP/YOI DRAKE HALL,-2.240835,52.878831
177.88,WARRINGTON CARE HOMES,-2.527537,53.414117
86532.51999999984,THE OAKWOOD SURGERY,-1.073937,53.506609
83905.78999999995,PAPWORTH SURGERY,-0.11749200000000001,52.252071
212008.33000000028,CAMBRIAN MEDICAL PRACTICE,-3.047774,52.86281
105353.6599999998,FIRDALE MEDICAL CENTRE,-2.537387,53.253804
56555.23000000001,KIRKSTALL LANE MEDICAL CENTRE,-1.587333,53.816942
60.15000000000001,HEALTH VISITORS SWBH NHS TRUST,-1.988866,52.528091
49.11999999999999,SOUTH EAST HUB 1,-0.10851199999999998,51.477558
141405.1400000001,BELLE VALE HEALTH CENTRE,-2.859752,53.392035
56819.44000000003,ELIZABETH STREET SURGERY,-3.043658,53.820839
61078.89999999997,RAMSBOTTOM MEDICAL PRACTICE,-2.319287,53.64878
71842.96999999993,BROOK HOUSE SURGERY,-1.445882,50.921794
3115.24,WEST CAMHS - KIRKSTALL,-1.599694,53.817164
3713.97,HMR BARDOC OOH,-2.288591,53.59553
937.08,7 DAY ACCESS ROCHDALE INFIRMARY HUB,-2.160152,53.624282
45508.36999999997,MAGHULL HEALTH CENTRE (DR SAPRE),-2.943932,53.515597
30342.8,WINDERMERE SURGERY,-2.205709,53.55956
233891.35999999975,ST VINCENT MEDICAL CENTRE,-1.124029,53.525476
14.47,CASH SERVICES,-1.152629,53.207243
17.52,ASR MENTAL HEALTH SERVICE,-4.112782,50.37838
68966.0299999999,CRESWELL AND LANGWITH MEDICAL CENTRE,-1.215835,53.262654
3094.049999999999,INHEALTH NWCATS,-2.163393,53.602382
189.04,PRIMARY CARE ACCESS SERVICE,-2.134034,53.450605
95278.06999999996,BEECHWOOD GROUP PRACTICE,-3.545472,54.642376
174135.32000000007,PARKSIDE MEDICAL CENTRE,-0.021998,52.981526
98016.31000000014,WINCOBANK MEDICAL CENTRE,-1.416316,53.419405
34417.78,VIRGINIA WATER MEDICAL PRACTICE,-0.568235,51.403367
35768.52000000001,THE ALTON PRACTICE,-0.239471,51.44914
107226.60999999987,ALEXANDER HOUSE SURGERY,-0.7520019999999998,51.293749
105196.52,GREEN MEADOWS SURGERY,-0.677163,51.426939
128025.46999999988,WARGRAVE HOUSE SURGERY,-2.712261,52.055418
115739.15000000015,STATION DRIVE SURGERY,-2.715141,52.370132
79780.17,MARPLE BRIDGE SURGERY,-2.053323,53.400594
38466.08,CPT WORTHING,-0.375414,50.817416
1090.2600000000002,COMMUNITY DIABETES CLINIC,-1.93389,52.489186
52462.95999999997,HOUNSLOW CCG - HRCH (NMP),-0.326599,51.427449
0.57,MEDWAY SECURE TRAINING CENTRE,0.49548,51.361824
4.39,INVICTA HEALTH CONNECT-DOVER,1.2924129999999998,51.132061
13437.009999999998,CONSULTANT LED DERMATOLOGY SERVICE,-1.922375,52.471325
1.41,CRITICAL SUPPLY NIGHT STORE,-2.606862,53.42951600000001
97846.56000000008,THE ROSEBERRY PRACTICE,-1.292215,54.611726
191576.96,TANFIELD VIEW MEDICAL GROUP,-1.701373,54.869939
23893.3,DR MITCHELL,-0.503581,53.72075
29350.19000000004,SPRINGFIELD MEDICAL CENTRE,-1.195502,53.003599
76025.26999999997,THE LILYVILLE SURGERY,-0.199155,51.47377
54079.94999999995,WITHAM HEALTH CENTRE,0.642876,51.800559
174.75,SOUTH DALES HEALTHCARE LTD,-1.571366,53.077623
211352.19999999995,PRIORY MEDICAL CENTRE,-1.588641,52.285051
47466.68000000002,BALDWINS LANE SURGERY,-1.846405,52.414514
47373.98999999998,MONARCH MEDICAL CENTRE,-2.316823,53.564198
50499.900000000016,LINCOLN GREEN MEDICAL CENTRE,-1.525196,53.802098
4884.249999999999,HARROGATE OOH,-1.517573,53.993807
102.79000000000002,EXTENDED HOURS SERVICE,-2.9023,53.211542
774.4099999999999,WILL ADAMS NHS TREATMENT CENTRE,0.576568,51.380889
2994.3299999999995,ADULT ADHD SERVICE,-2.215952,53.593598
385.53,COLORECTAL SURGERY,-0.210281,51.409967
112654.93000000008,CHERRY HINTON MEDICAL CENTRE,0.177635,52.187459
55908.52000000002,FIELDHEAD SURGERY,-1.639379,53.831787
60319.50999999997,YEADING MEDICAL CENTRE,-0.397019,51.533634
77992.00999999992,LYDDEN SURGERY,1.23991,51.163193
109180.19999999994,SELSDON PARK MEDICAL PRACTICE,-0.06457300000000002,51.342409
101508.22999999992,LANCE LANE MEDICAL CENTRE,-2.911916,53.396196
19688.539999999994,DR GWD BHIMA,-2.154239,53.611617
40095.17000000004,THE BARHAM & CLAYDON SURGERY,1.109866,52.110175
17667.399999999987,NIGHTINGALE HOUSE,-0.159747,51.449354
37131.77,CRI HULL DRUGS INTERVENTION PROGRAMME,-0.345271,53.747391
103.89,CPFT SPECIALIST SERVICE CAMBS CITY,-0.07769099999999998,52.223169
53476.26000000002,I J HEALTHCARE,-1.531354,54.88104
153678.0300000001,WELLINGTON HOUSE,-1.634561,53.714775
79138.68999999987,FELTWELL SURGERY,0.527056,52.48268
74814.26000000002,ALBANY PRACTICE,-0.310054,51.48676
37819.62,DR VM PATEL,0.228776,51.561113
31412.629999999986,CHILDS (THAMESIDE),-0.326599,51.427449
128354.9599999998,MOREDON MEDICAL CENTRE,-1.8070689999999998,51.582197
101637.88000000003,BUDSHEAD MEDICAL PRACTICE,-4.150289,50.417443
215573.68,HANDSWORTH WOOD MED.CTR.,-1.928196,52.51303299999999
199040.08999999962,READESMOOR MEDICAL GROUP PRACTICE,-2.216792,53.163762
47614.700000000026,ABINGDON FAMILY HEALTH CARE CENTRE,-2.943503,53.440571
102506.71000000008,BARLBOROUGH MEDICAL PRACTICE,-1.284471,53.289528
69995.37000000001,THE WRAGBY SURGERY,-0.301337,53.287948
183888.36999999973,SOUTH GRANGE MEDICAL GROUP PRACTICE,-1.166506,54.56995500000001
112521.02000000012,GLEADLESS MEDICAL CENTRE,-1.451325,53.356551
133792.2000000001,WARRIOR SQUARE SURGERY,0.562007,50.852963
82496.63000000012,THE CORINTHIAN SURGERY,-2.0815,51.906706
96960.04000000004,CASTLEFIELDS,-2.129518,52.801013
53.43,MALV OA CMHT,-2.320654,52.125913
34172.86000000001,CMFT CONTINENCE PRESCRIBING SERVICE,-2.188524,53.446352
54045.00999999993,REDGATE MEDICAL CENTRE,-2.987659,51.126385
74858.18000000005,RIVER BROOK MEDICAL CENTRE,-1.913809,52.43303
111334.23999999996,MURDISHAW,-2.662128,53.323997
110611.23000000008,POPLAR HOUSE SURGERY,-3.03076,53.754721
104575.28999999988,SWANSWELL MEDICAL CENTRE,-1.816529,52.432515
39943.37000000002,DR MALIK - KENT ELMS HC,0.664114,51.563831
4551.729999999996,LEICESTER CITY ASSIST PRACTICE,-1.136115,52.637338
2.48,EPUT PODIATRY,0.12393,51.704295
1432.44,RESPIRATORY SERVICE STOKE AND NORTH,-2.109085,52.810605
173.34,CANTERBURY ANTICOAGULATION SERVICE,1.08554,51.071506
2055.0799999999995,VC SKELMERSDALE UCC,-2.773401,53.549935
158857.0499999999,THE HAWTHORNS SURGERY,-1.825965,52.538746
77907.44000000002,HORIZON HEALTH CENTRE,-2.965121,51.331294
3535.37,SMP CLINIC,-1.119092,52.631036
118147.36000000006,OXFORD STREET SURGERY,-3.5505760000000004,54.64373
199277.1799999997,LINGWELL CROFT SURGERY,-1.535053,53.749986
2751.029999999999,THE ROYAL MEWS SURGERY,-0.145223,51.498764
17370.589999999986,NORHEADS LANE SURGERY,0.026739,51.314542
68775.4800000001,TYNEMOUTH MEDICAL PRACTICE,-0.068331,51.586253
220684.82999999952,TRINITY MEDICAL CENTRE,-0.172008,50.831228
66067.45000000001,ST ALBANS MEDICAL CENTRE,-0.302479,51.42195
176782.22999999978,BARTON SURGERY,-3.473818,50.579848
353426.3100000002,THE WESTGATE PRACTICE,-1.821176,52.683537
40499.93999999996,BURBURY MEDICAL CENTRE,-1.9103740000000002,52.502215
101898.94000000012,PLECK HEALTH CENTRE,-1.9980380000000002,52.574248
4445.69,HILLINGDON COMMUNITY DERMATOLOGY,-0.08430999999999998,51.500087
67971.22000000004,METRO INTERCHANGE SURGERY,-1.602943,54.961848
96972.5999999998,QUAKERS LANE SURGERY,-1.741713,54.406363
111399.31999999992,PARSON DROVE SURGERY,0.050459,52.660947
99278.93999999992,DAVENPORT HOUSE SURGERY,-0.354549,51.816177
36766.53000000001,WARRIOR SQUARE SURGERY,0.716503,51.539534
45918.34999999996,ALEXANDRA SURGERY,-0.205887,51.422912
284624.58,CANTERBURY MEDICAL PRACTICE,1.128982,51.245539
126813.22999999994,BALHAM PARK SURGERY,-0.155715,51.440487
81174.9199999999,OBSERVATORY MEDICAL PRACTICE,-1.265958,51.760293
121671.0799999998,WERRINGTON VILLAGE SURGERY,-2.098023,53.021659
43523.71000000005,THE MARSHSIDE SURGERY,-2.963125,53.67143299999999
48049.34,MERSEYBANK SURGERY,-2.263012,53.42276
97366.15000000004,COMMUNITY NURSING,-0.670796,53.57972
2075.23,THE PRACTICE OPTHALMOLOGY CLINIC,-0.574826,51.671154
3836.71,SWANSWELL WEST BERKS,-1.323646,51.396761
3513.4700000000007,COMMUNITY NURSING,-2.372621,51.358169
41541.43000000004,CHEVIOT MEDICAL GROUP,-2.01842,55.546525
58118.60999999991,THE UNIV OF NOTTINGHAM HEALTH SERV,-1.195942,52.942177
71174.53999999998,LISTER HOUSE SURGERY,-0.4515,51.89192
64619.91000000003,HOUNSLOW MEDICAL CENTRE,-0.37684,51.469395
20537.239999999994,SANCTA MARIA MEDICAL CENTRE,0.284011,51.507882
19164.90000000001,NEW INN SURGERY,-0.545657,51.257698
108457.58999999988,THE HEALTH CENTRE,-0.19711,51.363031
72478.33999999994,49 MARINE AVENUE SURGERY,-1.451082,55.046268
91749.40999999992,WELLSIDE SURGERY,-0.28478,52.440324
72396.38999999993,CLARE GUILDHALL SURGERY,0.580469,52.078259
102908.53999999998,LATTIMORE & VILLAGE SURGERY,-0.298547,51.726244
177032.78000000003,CENTRAL UXBRIDGE SURGERY,-0.475739,51.546229
156262.43000000002,HIGHLANDS SURGERY,0.637339,51.548005
32076.520000000004,ADDINGTON MEDICAL PRACTICE,-0.018557,51.344382
77441.26999999996,FISHERGATE HILL SURGERY,-2.714363,53.75445500000001
117038.83000000007,PARK VIEW GROUP PRACTICE,-2.160577,53.445476
219.87,NWR COMMUNITY SERVICES,-1.014748,51.449145
456.29999999999984,COMPTON HOSPICE,-2.172068,52.585801
183481.66000000024,WHITLEY BAY HEALTH CENTRE,-1.43996,55.04141
52924.770000000026,ELSDALE STREET SURGERY,-0.049094,51.543033
99617.4899999998,STOPSLEY VILLAGE PRACTICE,-0.394147,51.901132
67334.24999999999,VALE DRIVE MEDICAL PRACTICE,-0.194727,51.648828
244039.12999999954,AUDLEY MILLS SURGERY,0.607129,51.584978
62018.06999999996,STRATFORD HEALTH CENTRE,0.004714,51.544651
81364.49,UPPER NORWOOD GROUP PRACTICE,-0.08482,51.413308
88190.02000000009,THE TOLLERFORD PRACTICE,-2.571586,50.778924
45708.02999999993,JUBILEE FIELD SURGERY,-2.191875,51.484091
117596.30000000002,THORNBURY HEALTH CENTRE - BURNEY,-2.517723,51.612861
169129.78000000032,SHAWBIRCH MEDICAL CENTRE,-2.531858,52.718121
187477.43000000005,MOSS GROVE SURGERY,-2.1699,52.498674
96971.81999999986,HEATON MERSEY MED.PRACT.,-2.205118,53.412519
65002.57999999992,WOOTTON VALE HEALTHY LIVING CENTRE,-0.527951,52.093688
71529.24,ST LUKE'S HEALTH CENTRE,0.7293039999999998,51.551
128442.3000000001,GLENPARK MEDICAL CENTRE,-1.640096,54.953229
140453.15999999995,ROBIN LANE HEALTH AND WELLBEING CENTRE,-1.661311,53.79500899999999
95991.81999999979,HUGGLESCOTE SURGERY,-1.365684,52.71103
98914.01999999986,RED HOUSE SURGERY,0.129161,52.214906
15419.500000000007,BRIMPTON HOUSE,0.699534,51.835776
57.7,WALSALL CHILD DEVELOPMENT CENTRE,-1.956181,52.61429
761.3200000000002,ADULT LD COMM SERVICES NW,-1.477708,52.526988
123143.67999999998,MANOR AND PARK GROUP PRACTICE,-1.42716,53.373705
53029.62999999998,DR PS BATH'S PRACTICE,-0.394147,51.901132
78329.54000000008,THE NORTH LONDON HEALTH CENTRE,-0.11243199999999999,51.617571
53146.76999999997,BENTLEY VILLAGE SURGERY,-0.87992,51.189933
113147.96000000006,CLEOBURY MORTIMER SURGERY,-2.485608,52.377502
207895.64999999985,ALCHESTER MEDICAL GROUP,-1.138371,51.891398
173956.24000000017,DEAN CROSS SURGERY,-4.095355,50.358939
113112.57999999994,NEW VALLEY PRACTICE,-3.654492,50.792383
38699.26000000002,NETHERTON SURGERY,-2.97236,53.488626
128.59999999999997,WOKING ALEXANDRA WARD,-0.556304,51.315132
34746.48,WIDDRINGTON SURGERY,-1.62051,55.240248
77904.84999999998,DE MONTFORT SURGERY,-1.141192,52.6286
117192.03000000006,MENDLESHAM MEDICAL GROUP,1.0816,52.251866
80988.95999999993,THE EVERGLADE MEDICAL PRACTICE,-0.24421,51.601578
88519.42999999992,WEST HAMPSTEAD MEDICAL CENTRE,-0.196578,51.55004
127055.36999999994,STAUNTON GROUP PRACTICE,-0.112926,51.599388
134600.4400000002,SOUTHBROOM SURGERY,-1.989037,51.352288
50591.160000000076,BLAKENEY SURGERY,-2.476364,51.759117
137441.60000000018,RIVERSIDE MED.PRACTICE,-2.755278,52.709209
86602.73000000004,TOWNFIELD HEALTH CENTRE,-3.064248,53.378798
65666.54999999987,HOPWOOD MEDICAL CENTRE,-2.212052,53.587143
174354.07,THE KILTEARN MEDICAL CTR.,-2.518506,53.068155
271015.5699999996,SADDLEWORTH MEDICAL PRACTICE,-2.004957,53.548331
1.48,ST PETER'S HOSPICE,-2.609013,51.506125
21672.149999999983,SUMMERFIELD GROUP PRACTICE,-1.937353,52.487686
73174.74999999985,THURROCK HEALTH CENTRE,0.323317,51.477404
2130.65,CAMHS - WORCESTER,-2.183119,52.192425
440.79,SOTON COMMUNITY ENT SERVICE RSH,-1.397076,50.912389
3534.43,SKEGNESS & COAST GP EXTENDED ACCESS HUB,0.342219,53.188059
3422.349999999999,LINCOLN OOH,-0.519635,53.233575
2210.23,PARSONS GREEN WIC,-0.199155,51.47377
43335.58999999998,CAMP HILL GP LED HEALTH CENTRE,-1.507061,52.533074
432.81000000000006,SHIRLEY MEDICAL EXTENDED ACCESS LLP,-0.044859,51.375139
46272.34,ADHD SPECIALIST NURSING TEAM,-1.9374790000000002,52.436098
40841.72999999995,THE PATEL PRACTICE,-1.1885709999999998,54.661404
104225.09999999998,PADDOCK AND LONGWOOD FAMILY PRACTICE,-1.80546,53.642119
305709.4,BEACHES MEDICAL CENTRE,1.727734,52.577124
82181.43999999997,LINDEN ROAD SURGERY,-0.479248,52.14361
709.24,FAIRFIELD HOSPITAL OUT PATIENTS,-2.750074,53.484549
207.89,PRIMARY CARE ACCESS HUB (SOUTH STOKE),-2.102853,52.97847
2780.1400000000012,PROCARE HEALTH SERVICES,-0.708282,51.091746
103.03,GYNAECOLOGY,-2.095555,52.599722
9501.87,GLOUCESTER (CARE UK) OOH,-2.30608,51.879263
9.0,WIGAN AND LEIGH SEXUAL HEALTH SERVICE,-2.632808,53.547929
72432.55000000003,HAYDON BRIDGE & ALLENDALE MEDICAL PRACT,-2.250059,54.975681
36343.91000000002,BRAMCOTE SURGERY,-1.244985,52.935604
7866.989999999994,MEDICUS HEALTH PARTNERS-WILLOW HOUSE,-0.07659,51.654209
35194.00000000001,WEMBURY SURGERY,-4.072566,50.32186
118938.89999999992,SHERWOOD HOUSE MEDICAL PRACTICE,-1.959426,52.473851
134220.30999999994,ST ANDREWS SURGERY,-0.361958,53.735566
42837.77000000006,PLEASLEY SURGERY,-1.250873,53.175809
108611.7499999999,CHIGWELL MEDICAL CENTRE,0.083876,51.60551
44390.54999999995,OLD PARSONAGE SURGERY,0.460418,51.112785
86741.0099999999,THE WELLBRIDGE PRACTICE,-2.225354,50.679039
