total_cost,name,longitude,latitude
76245.03999999998,GREENFORD ROAD MED.CTR.,-0.345702,51.537697
81571.74000000005,THE OAKLAND MEDICAL CENTRE,-0.45129300000000006,51.546055
48571.070000000036,QUEENS WALK MEDICAL CENTRE,-0.393155,51.562716
64760.73000000002,THE ABINGDON HEALTH CENTRE,-0.197138,51.496085
121809.30999999988,THE ARDLEIGH SURGERY,0.985096,51.927073
168690.21999999988,ADDISON HOUSE - HAQUE PRACTICE,0.088979,51.770891
79027.54000000007,ST PETER'S STREET MEDICAL PRACTICE,-0.100772,51.535597
78545.00000000001,ABERFELDY PRACTICE,-0.004927,51.514483
199731.67999999976,STONE CROSS SURGERY,0.289944,50.816757
66462.91000000005,ELTHAM PALACE PMS,0.053714,51.449946
91823.58999999992,BROCKBANK (PARK ROAD),-0.334596,51.423912
132637.41000000012,CHAWTON PARK SURGERY,-0.989411,51.139814
81550.72999999998,STOKENCHURCH MEDICAL CTRE,-0.904033,51.660479
30036.489999999994,MARSHALLS ROAD SURGERY,-0.539225,52.344743
50650.95000000004,HOLLINSWOOD SURGERY,-2.437453,52.673936
59152.41999999993,ABBOTS BROMLEY SURGERY,-1.880966,52.819974
258617.99999999968,DARWIN MEDICAL CENTRE,-1.831505,52.694061
175102.07000000027,THE OAKS MEDICAL CENTRE,-1.895827,52.552454
63602.01999999993,VICTORIA ROAD MEDICAL CTR,-1.887197,52.501868
159494.84999999983,ST JOHN'S MEDICAL CENTRE,-1.932532,52.626307
85841.02,NEWBRIDGE SURGERY,-2.155299,52.5936
244754.63000000012,THE CORNERSTONE PRACTICE,-2.4524,53.739201
60274.60000000004,TOWNSIDE SURGERY,-2.29898,53.59031
63483.53999999999,GOODMAYES MEDICAL CENTRE,0.10990599999999999,51.567626
22822.629999999965,PARK GRANGE MEDICAL CENTRE,-1.775929,53.789415
19123.590000000007,ST.GEORGES MEDICAL CENTRE,-0.24612,51.558731
1413.91,EAST CAMHS,-1.531703,53.817673
32.9,GPSI DERMATOLOGY HEAVITREE HC,-3.505542,50.723202
383.77,UTTLESFORD HEALTH LIMITED GYNAECOLOGY,0.256305,52.0236
55494.62999999998,HETHERINGTON AT THE PAVILION,-0.116397,51.461633
78708.14000000003,OAKWOOD MEDICAL CENTRE,-0.134269,51.646534
100261.30999999984,SOUTH HERMITAGE SURGERY,-2.752497,52.699728
11252.779999999995,C.A.M.H.S.,-2.689816,53.693597
4.5,VIOLENT PATIENT ENHANCED SERVICE 1,-2.2227,53.49493
2.8200000000000003,GPSI CARDIOLOGY - WESTCLIFFE,-1.781103,53.830481
4461.890000000001,PCEC,-2.227711,53.462436
529.33,EAST KENT HEADACHE SERVICE,1.414787,51.390277
12.04,HMP YOI HOLLESLEY BAY,1.451269,52.051591
3967.6099999999974,SMGPF,-2.237795,53.434307
285.2,TPG COMMUNITY OPHTHALMOLOGY - SALFORD,-0.574826,51.671154
30715.789999999986,DCHS DERBY CITY,-1.441882,53.221288
25770.92,TURNING POINT LEICESTER & LEICESTERSHIRE,-1.127621,52.637554
73277.79000000012,REDBURN PARK MEDICAL CENTRE,-1.474775,55.00092
35259.89999999998,CASTLETOWN MEDICAL CENTRE,-1.450848,54.913341
45831.77000000001,ALDBROUGH ST JOHN SURGERY,-1.684645,54.496518
24411.18999999999,EAST PARADE MEDICAL PRACTICE,-1.061835,53.965993
50984.65000000008,BARKEREND HC - EL ELIWI,-1.7218490000000002,53.797834
205249.59999999977,SHAFTESBURY MEDICAL CTR.,-1.497858,53.800234
102187.87999999998,GROBY ROAD MEDICAL CENTRE (ID PATCHETT),-1.150468,52.644337
54777.870000000046,ROSEMEAD DRIVE SURGERY,-1.083088,52.5934
18487.63,AR-RAZI MEDICAL CENTRE,-1.101204,52.623926
86174.2699999999,BRANSTON & HEIGHINGTON FAMILY PRACTICE,-0.467988,53.195831
149469.4599999999,FOUNTAIN MEDICAL CENTRE,-0.8043829999999998,53.07286
83933.55000000006,OAKENHALL MEDICAL PRACT,-1.199437,53.03661700000001
72489.84999999986,SCAWSBY HEALTH CENTRE PRACTICE,-1.167843,53.53678299999999
127378.71000000008,ST. GEORGE'S MEDICAL CENTRE,0.298817,52.458085
92452.29999999984,LAWNS PRACTICE,1.109092,52.378889
150450.31,CENTRAL SURGERY,0.147747,51.812546
70568.49000000003,CHURCH END MEDICAL CENTRE,-0.253241,51.54757
89546.84999999989,BRENTFORD GROUP PRACTICE,-0.310054,51.48676
86263.60000000003,THE DEVONSHIRE LODGE PRACTICE,-0.397406,51.579266
36230.760000000075,THE HOXTON SURGERY,-0.086829,51.533527
51953.73000000002,LL MEDICAL CARE LTD,0.0021,51.555415
234437.42999999976,JUBILEE MEDICAL CENTRE,0.300332,51.3978
81815.36999999998,LAMBETH WALK GROUP PRACTICE,-0.11259100000000001,51.495609
78506.44999999995,STANWELL ROAD SURGERY,-0.470567,51.438013
466455.56999999954,THE ADAM PRACTICE,-2.07822,50.757881
45552.559999999954,SOUTHMEAD SURGERY,-0.616953,51.552538
39152.2,CLIFTON HAMPDEN SURGERY,-1.211451,51.658625
11.09,DORSET IUC PARTNERSHIP,-1.856578,50.81726
75834.08000000003,GROOMBRIDGE AND HARTFIELD MED GRP,0.184416,51.113952
68454.6,POND TAIL SURGERY,-0.066728,51.246436
188434.55999999997,THE WALL HOUSE SURGERY,-0.208192,51.241304
38188.14999999999,THE HALING PARK PARTNERSHIP,-0.098109,51.357113
95658.70999999995,THE PRINCE OF WALES SURGERY,-2.457579,50.713502
117445.6899999999,BRANKSOMEWOOD H/CARE CTR,-0.8448069999999998,51.281888
73489.55000000006,THE GROVE SURGERY,-0.735114,52.023651
127204.41999999998,PROBUS SURGERY,-4.948542,50.290121
223190.24000000008,ABBEY SURGERY,-4.150401,50.546904
130796.91000000008,WHITEACRES MEDICAL CENTRE,-2.300547,52.124716
64989.069999999934,WOODSIDE MEDICAL PRACTICE,-2.466175,52.637949
109062.83,LYME VALLEY MEDICAL CENTRE,-2.22375,53.006305
74981.68999999993,AUDLEM MEDICAL PRACTICE,-2.508717,52.989615
60931.68999999999,KENNETH MACRAE MED CENTRE,-2.786435,53.49903
163245.5199999999,BODEY MEDICAL CENTRE,-2.214798,53.440636
44574.60000000001,WOODLANDS MEDICAL PRACTICE,-2.31213,53.406624
29003.06999999999,DR PAL,-2.595495,53.47988
76550.6,BATH ROAD SURGERY,-0.37684,51.469395
111719.59999999992,CHAPEL ROW SURGERY,-1.17086,51.425877
45978.19,WOODLANDS MEDICAL PRACTICE,-0.170943,51.592914
1849.9000000000005,NORTH LINCOLNSHIRE OOH,-0.667599,53.587582
33.33,HALTON COMMUNITY PALLIATIVE CARE TEAM,-2.670823,53.320248
1587.5300000000002,EPUT COMMUNITY CARDIOLOGY,0.12393,51.704295
194.27000000000004,COMMUNITY SERVICES,-0.175694,51.426682
3503.57,SOUTH YORK HEART FAILURE NURSES,-1.082907,53.951837
1361.74,BROMLEY DIABETES SERVICE (BECKENHAM),-0.033209,51.405232
6787.059999999999,NCH&C COMMUNITY NURSES (WEST),0.410147,52.749129
109718.13999999996,SOUTH COUNTY CONTINENCE PRESCRIPTION SER,-1.273227,52.930792
105.29,MUSCULOSKELETAL INTERFACE ASSESSMT SVCE,-0.168282,51.45617
332.84,END OF LIFE & PALLIATIVE CARE SERVICE,-2.13932,53.597586
11191.800000000007,HEALTHBRIDGE DIRECT,0.020102,51.608432
12.98,AQP ANTICOAG RIDGACRE MEDICAL CENTRE,-1.9901099999999998,52.460912
61973.95999999996,TAMESIDE & GLOSSOP IC NHS FT,-2.071433,53.49153
1552.99,WHHFT COMMUNITY NURSE PRESCRIBERS,-2.610717,53.393973
3519.7899999999986,STOP SMOKING SERVICE (M'BORO),-1.235298,54.57700500000001
17.47,ACCT 2,-1.962695,53.898015
113.85,DMC COMMUNITY DERMATOLOGY SERVICE,1.087083,51.266589
4.84,OLDER AGE - CHARLTON LANE HOSPITAL,-2.073674,51.881059
1233.0200000000002,EXTENDED HOURS SERVICE-ONE LIFE,-1.214164,54.682342
106.79999999999998,BMI-THE SLOANE HOSPITAL,-0.00436,51.408332
69378.39000000001,CRAMLINGTON MEDICAL GROUP,-1.591516,55.084481
193342.65999999977,KINGSTON MEDICAL GROUP,-0.349365,53.756137
38871.349999999926,WESTFIELD MEDICAL CENTRE,-1.531703,53.817673
99814.60000000006,VERNON STREET MEDICAL CTR,-1.49039,52.924019
62643.5,STUBLEY MEDICAL CENTRE,-1.488541,53.304986
224323.72,BRIDGE COTTAGE SURGERY,-0.215995,51.830002
123266.93999999994,GRANGE STREET SURGERY,-0.335878,51.757298
59765.08000000004,CHICHELE ROAD SURGERY,-0.216241,51.55483
47054.25000000001,SHIRLAND ROAD MEDICAL CENTRE,-0.203904,51.5292
78450.5199999999,DR KRISHNAN & PTNR - KENT ELMS HC,0.664114,51.563831
66710.65,CRANHAM HEALTH CENTRE,0.265291,51.568865
63372.93000000002,ST PETER'S SURGERY,1.41893,51.362936
78442.3199999998,LEWISHAM MEDICAL CENTRE,0.004522,51.458513
53851.71000000005,STEWKLEY ROAD SURGERY,-0.71666,51.898041
23251.719999999965,SIBFORD SURGERY,-1.479244,52.037614
171679.20999999985,NEW COURT SURGERY,-2.958059,51.345794
180845.67999999961,AXMINSTER MEDICAL PRACTICE,-2.999226,50.780899
213165.98999999987,COLERIDGE MEDICAL CENTRE,-3.2835660000000004,50.751704
88796.38000000003,LYDNEY PRACTICE,-2.529867,51.727913
73759.79000000008,PRICES MILL SURGERY,-2.224938,51.693801
128764.75999999985,ST. JOHNS SURGERY,-2.059728,52.337612
199089.76,THE ALDERGATE MED.PRACT.,-1.695644,52.639079
105484.7699999999,YARDLEY WOOD HEALTH CENTRE,-1.859168,52.418648
89001.05999999998,MONTAGUE MEDICAL PRACTICE,-0.872899,53.707031
158764.37999999998,EASTGATE MEDICAL GROUP,-1.462815,54.006795
95641.19999999992,HORTON BANK PRACTICE,-1.806018,53.774478
137993.98000000016,MARSH MEDICAL PRACTICE,0.143689,53.445069
202894.98999999985,HUDDERSFIELD ROAD SURGERY,-1.485631,53.558165
179741.7299999998,SWALLOWNEST HEALTH CENTRE,-1.317097,53.362997
128971.87999999983,SHERINGHAM MEDICAL PRACTICE,1.214777,52.939688
175547.14,KNEBWORTH & MARYMEAD MEDICAL PRACTICE,-0.184972,51.866323
28163.38,THE HODFORD ROAD PRACTICE,-0.199318,51.569038
98838.29000000005,HAZELDENE MEDICAL CENTRE,-0.275394,51.547592
76200.71999999993,CLOISTER ROAD SURGERY,-0.265589,51.521352
76286.1199999999,ABBEY ROAD MEDICAL PRACTICE,0.005881,51.534784
45837.12999999994,BOUNDARY HOUSE SURGERY,-0.054245,51.632475
100657.83999999994,MANOR PARK MEDICAL CENTRE,0.24261,50.819107
109795.31999999998,CHURCH LANE HEALTH CENTRE,0.941162,50.984187
290129.39000000013,BETHESDA MEDICAL CENTRE,1.414787,51.390277
105316.63000000003,WOODLANDS SURGERY,0.088913,51.439755
142853.5300000001,LILLIPUT SURGERY,-1.954229,50.711523
297266.8099999995,WESTBURY GROUP PRACTICE,-2.203558,51.252792
194213.13000000003,PENRYN SURGERY,-5.10336,50.167504
94741.34999999985,CROWN MEDICAL CENTRE,-3.080969,51.029111
132515.34000000005,BARN CLOSE SURGERY,-1.859248,52.03627
53178.09999999999,HIGHLEY MEDICAL CENTRE,-2.392978,52.456165
41469.31000000001,ALVELEY MEDICAL PRACTICE,-2.353309,52.454738
62964.59,WOLSTON SURGERY,-1.392727,52.376806
74528.5199999999,BALLIOL ROAD SURGERY,-1.471449,52.415924
65722.13999999993,NEWTON MEDICAL CENTRE,-2.638386,53.457172
109243.10999999994,GREASBY GROUP PRACTICE,-3.121417,53.377628
53926.56000000001,LOSTOCK HALL MEDICAL CTR.,-2.688037,53.727502
48975.49000000003,KNOWSLEY MEDICAL CENTRE,-2.300551,53.588497
54311.15,TIMPERLEY HEALTH CENTRE (WESTWOOD),-2.323566,53.397228
40.5,CHILDREN & YP DIR.,-0.017051,51.454329
60.68,CORPORATE DIVISION,0.475497,50.850706
10614.449999999997,BIRMINGHAM DENTAL HOSPITAL,-1.916521,52.45037
17247.88,SUFFOLK RECOVERY SERVICE - IPSWICH,1.150763,52.057299
46.04,UROLOGY-MERTON CCG,-0.210281,51.409967
26502.73,COMM PAEDIATRIC & LAC HEALTH SERVICE,-2.756261,53.446091
1157.06,WELLINGBOROUGH EXTENDED ACCESS,-0.695567,52.303398
995.6400000000003,ST JOSEPH'S HOSPICE  HACKNEY,-0.056255,51.537053
6299.959999999999,SUMMERFIELD URGENT CARE CENTRE WIC,-1.937353,52.487686
51948.03000000004,PENINSULA MEDICAL PRACTICE,-2.915665,54.18795600000001
73091.29999999997,ROSEWORTH SURGERY,-1.61867,55.001366
284516.2500000009,GREENGATES MEDICAL GROUP,-0.418494,53.844343
236461.68999999986,HEBDEN BRIDGE GROUP PRACTICE,-2.010942,53.744036
103864.21000000006,LIMES MEDICAL CENTRE,-1.387885,53.098493
77982.82000000012,CHURCHSIDE MEDICAL PRACTICE,-1.203539,53.146592
68064.14999999994,SELSTON SURGERY,-1.299871,53.070196
93702.46000000015,CRYSTAL PEAKS MEDICAL CENTRE,-1.354473,53.342881
153083.99000000017,LINCOLN HOUSE SURGERY,-0.469093,51.737355
138187.70000000027,STOCKWELL LODGE MED.CTR.,-0.055287,51.713792
50918.17000000002,SOUTHEND MEDICAL CENTRE,0.708516,51.540069
44538.20999999998,DR DEVARAJA VC PRACTICE,0.44359,51.520015
61457.19000000004,DR PM PATEL,0.219281,51.55632
39950.41000000001,THE MITCHISON ROAD SURGERY,-0.087357,51.544992
49231.30999999999,FOUNTAYNE ROAD HEALTH CENTRE,-0.065145,51.56442
128633.54999999992,FRAMLINGHAM SURGERY,1.334192,52.227216
27636.360000000004,ARCHWAY SURGERY,-0.532167,51.72275
69748.38999999998,CHURCH LANE SURGERY,-0.262165,51.574931
21759.51,CHISWICK FAMILY DRS PRACTICE,-0.259879,51.493563
52428.27,ACRE SURGERY,-0.411552,51.604465
35916.07000000002,CHOWDHURY,0.233898,51.592339
46844.76000000006,CUMBERLAND MEDICAL CENTRE,0.026047,51.519716
119905.22999999992,ILFORD MEDICAL CENTRE,0.07431899999999998,51.556823
139417.52000000005,RYE MEDICAL CENTRE,0.730363,50.961944
42503.52000000005,MAIDSTONE RD CHATHAM SURGERY,0.516708,51.361226
47970.74000000001,VASSALL MEDICAL CENTRE,-0.10851199999999998,51.477558
123236.03999999998,WITLEY SURGERY,-0.650163,51.156457
109107.20999999989,FARMHOUSE SURGERY,-1.7595,50.736437
109020.3,JENNER HOUSE SURGERY,-0.7745189999999998,51.294302
79776.24999999996,LONG BARN LANE SURGERY,-0.967033,51.436181
249351.67999999996,WESTONGROVE PARTNERSHIP,-0.74378,51.76588
90210.52999999987,MILBORNE PORT SURGERY,-2.471962,50.967502
62787.06999999999,OMBERSLEY MEDICAL CENTRE,-2.229023,52.276554
186168.2500000002,FURLONG MEDICAL CENTRE,-2.208139,53.063325
111275.99999999993,NORFOLK STREET SURGERY,-2.182794,53.01602
82839.97999999992,PARADISE MEDICAL CENTRE,-1.494835,52.426778
116763.12000000005,MAYFIELD MEDICAL CENTRE,-2.093284,52.583046
90653.80999999984,LEVENSHULME MEDICAL PRACTICE,-2.188524,53.446352
87517.24999999993,HEALD GREEN HEALTH CENTRE 2,-2.229276,53.369878
55560.129999999925,SMITH (RICHMOND LOCK),-0.322897,51.464517
58578.42000000004,CHILLINGTON HEALTH CENTRE,-3.693645,50.272623
85427.56000000014,JUBILEE GARDENS MEDICAL CENTRE,-0.368739,51.521097
53670.11999999998,BLACKHEATH MED CTR,-3.104694,53.412239
21151.55,AMBAR MEDICAL CENTRE,-1.991354,52.575093
20995.45,GOLDINGTON ROAD SURGERY,-0.456174,52.140172
218953.89999999953,DMC ST MARYS ISLAND SURGERY,0.538105,51.406776
5676.030000000002,STREET LANE DERMATOLOGY CLINIC,-1.513393,53.843234
80897.67999999996,POPLAR PRIMARY CARE CENTRE,-1.890326,52.43631
711.1400000000001,NORTHAMPTONSHIRE OUT OF HOURS SERVICE,-0.683359,52.29767
945.7800000000002,NEUROLOGY LONG TERM CONDITIONS,-2.384279,53.582354
314393.9900000005,THORNABY & BARWICK MEDICAL GROUP,-1.292128,54.538149
245816.22000000012,BRAMPTON MEDICAL PRACTICE,-2.734846,54.94237
92203.7899999998,RISEDALE SURGERY,-3.224778,54.109942
106606.23999999983,ROWLANDS GILL MEDICAL CENTRE,-1.742896,54.91936
125065.06999999988,THE SUTTON MANOR SURGERY,-0.315294,53.785759
125858.17000000006,PLANE TREES GROUP PRACTICE,-1.894437,53.730448
143406.58999999994,THORNTON MEDICAL CENTRE,-1.576209,53.791908
215905.72000000023,JESSOP MEDICAL PRACTICE,-1.372226,53.074348
215850.3,THE PARK MEDICAL PRACTICE,-1.432644,52.928801
85191.28000000003,BRAILSFORD & HULLAND MEDICAL PRACTICE,-1.624927,52.96943
170808.48000000007,MERRIDALE MEDICAL CENTRE (RP TEW),-1.160752,52.620146
124499.36000000002,THE MAYFLOWER MEDICAL PRACTICE,-1.01945,53.431872
153232.99000000028,BASLOW RD  SHOREHAM ST & YORK RD SRGIES,-1.531066,53.316325
59961.13000000005,OVER SURGERY,0.012018,52.314809
135867.25000000026,DR TUN & PARTNERS,-2.583571,53.532102
99694.20000000017,ST.ANTHONY'S HEALTH CENTRE,-1.55655,54.966674
124020.47000000002,MANOR DRIVE MEDICAL CENTRE,-0.24836599999999998,51.380785
5661.0300000000025,SMS COMMUNITY DERMATOLOGY CLINIC,-1.398499,50.913503
2200.0,C1 ESTERASE,1.507338,52.34806
8209.409999999998,WESTCALL OOH,-0.8315749999999998,51.410524
23953.02,NORTH LANCASHIRE INSPIRE,-2.798181,54.04844
2795.67,NELFT SOUTH WEST ESSEX CS,0.496195,51.591456
954.2099999999997,HILLINGDON UCC,-0.461175,51.526077
105.5,AQP ANTICOAG LEY HILL SURGERY,-1.827841,52.583302
551.9300000000001,LEARNING ASSESSMENT & NEUROCARE BURY,-2.29898,53.59031
968.4099999999999,MK ENT SERVICE,-0.79788,52.035898
5876.89,EAST STAFFS IMPROVING LIVES,-1.6480290000000002,52.798809
41.55,COMMUNITY MIDWIVES,-2.784954,53.420469
21.559999999999995,LYNFIELD MOUNT HOSPITAL,-1.805354,53.809728
189.95,PCAH - NEW ROMNEY,0.938719,50.987586
10259.89,CGL BROMLEY,0.010068,51.409191
146777.48000000019,BISHOPS CLOSE MEDICAL PRACTICE,-1.599142,54.699817
217240.74000000005,CLEE MEDICAL CENTRE,-0.041433,53.566223
177299.18999999992,WIBSEY & QUEENSBURY MED P,-1.779715,53.767225
39182.160000000025,SOUTHOWRAM SURGERY,-1.831696,53.712293
47231.04,WHITWICK HEALTH CENTRE,-1.3606790000000002,52.742576
161923.80000000002,MARKET SURGERY,-1.345958,53.502635
39615.71,BALDWINS LANE SURGERY,-0.448705,51.654076
86704.75999999997,DERWENT CRESCENT MEDICAL CENTRE,-0.175285,51.622908
162639.63999999987,THE STANMORE MEDICAL CENTRE,-0.304021,51.60154
94826.24,NEASDEN MEDICAL CENTRE,-0.247382,51.559667
25664.23999999999,BROOK GREEN SURGERY,-0.218145,51.495291
235417.24999999962,ABBEY FIELD MEDICAL CENTRE,0.898575,51.877487
27439.659999999985,JOHN SMITH MEDICAL CENTRE,0.112125,51.538899
35111.66,TOTTENHAM HEALTH CENTRE,-0.068474,51.604755
49168.31000000003,DR MOHAMMED GREEN MAN MEDICAL CENTRE,0.015000999999999999,51.571506
109592.51000000004,FAIRFIELD PMS,0.038949,51.483908
47660.34000000001,PARKSIDE MEDICAL CENTRE,-0.092642,51.475826
90793.53999999986,NORK CLINIC,-0.215842,51.326429
70046.46000000002,QUEENHILL MEDICAL PRACTICE,-0.066791,51.34499
69043.34999999998,GRAND DRIVE SURGERY,-0.228811,51.402155
252510.7899999997,THE BOSMERE MEDICAL PRACTICE,-0.990581,50.850232
168774.82000000007,BURNHAM HEALTH CENTRE,-0.662137,51.5349
75722.27,THE LONG BUCKBY PRACTICE,-1.08255,52.30049
382647.8099999998,ASPEN MEDICAL PRACTICE,-2.225797,51.865969
107255.86000000007,GLOUCESTER CITY HEALTH CENTRE,-2.245328,51.860355
274725.78,ABBEY HOUSE MEDICAL PRACTICE,-1.160725,52.260319
143687.29999999987,NORTON BROOK MEDICAL CENTRE,-3.782122,50.288739
34552.25999999997,SOMERSET BRIDGE MEDICAL CENTRE,-2.995883,51.115105
124777.49999999993,TRENT VALE MEDICAL PRACTICE,-2.201785,52.987386
47059.27000000007,BROOKSIDE SURGERY,-1.399088,52.35048
81601.4300000001,NORTHWAY MEDICAL CENTRE,-2.130997,52.54810500000001
135208.43000000002,MARTON MEDICAL PRACTICE,-3.034524,53.812843
102072.22000000004,CORNISHWAY GROUP PRACTICE,-2.265017,53.379925
156806.58000000007,BRAMHALL HEALTH CENTRE,-2.162929,53.36001
120405.08000000006,MAYNARD COURT SURGERY,0.020165,51.685605
41118.78000000001,AYLESBURY SURGERY,-1.876053,52.542854
26386.07000000001,NEVILLE ROAD SURGERY,-0.443036,51.906419
2080.62,UNIV HOSP NORTH DURHAM OOH,-1.593834,54.788497
550.9499999999999,THE HOSPICE CARE FOR BURNLEY & PENDLE,-2.237434,53.819025
28148.23999999998,BOWLING GREEN STREET SURGERY,-1.133096,52.63304599999999
99.36000000000001,INTEGRATED COMMUNITY RESPONSE SERVICE,-0.371755,51.468263
4913.29,GP CARE DVT SERVICE,-2.570351,51.544821
3.27,SWALE GROUP,1.118942,51.075872
620206.499999999,BCHC MEDICINES MANAGEMENT,-1.9537779999999998,52.398207
40.2,CHCP - HESSLE  BROUGH  COTT  ANLABY,-0.429474,53.723082
103.43,INDEPENDENT HEALTH GROUP,-2.414415,51.312224
454.3,PML NEIGHBOURHOOD HUB (KIDLINGTON),-1.289236,51.821558
188413.07000000004,YARM MEDICAL PRACTICE,-1.355519,54.50530500000001
58199.37000000001,BENSHAM FAMILY PRACTICE,-1.617038,54.952781
116775.07999999984,BURTON CROFT SURGERY,-1.57692,53.820807
24068.880000000016,EASTMOOR HEALTH CENTRE,-1.476864,53.690004
39439.84,HARTINGTON SURGERY,-1.810816,53.142488
63963.76999999995,THE PRACTICE BEAUMONT LEYS,-1.15392,52.662296
89936.29000000002,TASBURGH LODGE SURGERY,-0.21375,53.151242
147483.43000000017,SOTHALL & BEIGHTON HEALTH CENTRES,-1.340221,53.337895
40988.19000000002,KINGSWAY SURGERY,-0.437208,51.517478
35754.45000000003,FIVE ELMS MEDICAL PRACTICE,0.14235,51.553315
18032.38999999998,SPUR ROAD SURGERY,-0.086621,51.586597
110072.21999999987,THE MEADS SURGERY,0.091624,50.969686
55549.28999999995,ALBION STREET SURGERY,-0.133965,50.827627
121383.53000000006,BELLEGROVE SURGERY,0.09579,51.464561
137141.41000000006,SOUTH VIEW PARTNERSHIP,0.026125,51.405111
52248.67999999998,CORNERWAYS SURGERY,-0.404519,50.81566
177748.54000000007,CHEAM GP CENTRE,-0.225239,51.368621
35184.59999999998,WALLINGTON MEDICAL CENTRE,-0.129285,51.357345
133581.90999999992,THE BANKS & BEARWOOD MEDICAL CENTRE,-1.9292169999999997,50.768326
60730.19000000002,MERE SURGERY,-2.265342,51.089873
33700.15999999997,RAGSTONE ROAD SURGERY,-0.601832,51.503747
80407.05000000006,COMBE DOWN SURGERY,-2.345599,51.361003
123585.93000000025,WADEBRIDGE & CAMEL ESTUARY PRACTICE,-4.835729,50.514816
66905.76,NORTH PETHERTON SURGERY,-3.013922,51.09139
55155.88,HANDSWORTH MEDICAL PRACT.,-1.941212,52.505377
132005.86999999994,EVE HILL MEDICAL PRACTICE,-2.096805,52.512922
46750.69000000003,BEARWOOD MEDICAL CENTRE,-1.97344,52.476903
126886.18000000007,THE GROUP PRACTICE ALFRED SQUIRE ROAD,-2.080754,52.599417
180257.66000000015,WEST DERBY MEDICAL CENTRE,-2.895944,53.431273
28840.510000000024,BEEHIVE SURGERY,-2.419172,53.564161
54618.66,QUEENS MEDICAL CENTRE,-2.235847,53.50081899999999
143565.7600000001,LANGWORTHY MEDICAL PRACTICE,-2.294771,53.489371
20502.100000000006,LEY HILL SURGERY,-1.983266,52.421346
93816.1100000001,THE CHEYLESMORE SURGERY,-1.503924,52.391324
30500.22000000003,DR. B. K. PRASHARA,-2.114816,52.456326
164779.47999999995,ST PETER'S SURGERY,-1.984855,52.594537
127397.75999999994,ORMSKIRK HOUSE SURGERY,-2.74261,53.456686
98965.81000000003,MANOR HEALTH CTR,-3.044493,53.421061
163559.92999999956,THE PENDLE MEDICAL PARTNERSHIP,-2.144307,53.915882
170071.82000000015,3/SPRINGFIELD HOUSE MEDICAL PRACTICE,-2.362019,53.480252
150159.00999999983,PENNINE MEDICAL CENTRE,-2.040966,53.515337
32855.51999999998,THE CROSSROADS SURGERY,-2.770123,53.417492
29221.130000000016,CRESCENT SURGERY,0.106446,51.389854
53366.37999999997,GREEN CEDARS MEDICAL CENTRE,-0.073642,51.616071
9245.509999999998,CGL HALTON,-2.733862,53.354554
20.18,STELLAR HEALTHCARE OPHTHALMOLOGY,0.12393,51.704295
24564.699999999993,THE KINGSWAY PRACTICE,-2.135588,53.612168
69874.89999999997,WHITE HORSE SURGERY,0.343258,51.435153
45.34,LANCS HOUSE UROLOGY,-2.218662,53.592207
161.10000000000005,THE ENFIELD PAIN CLINICS,-0.076772,51.66253
137.89,WORC OA CMHT,-2.186957,52.2101
138.97,WORKING AGE ADULTS - WOTTON LAWN HPL,-2.227893,51.866962
15.3,PALLIATIVE CARE NORTH,-2.109085,52.810605
12647.410000000002,WESTMINSTER DAWS,-0.132264,51.511274
2654.790000000001,LAS S.E. LONDON IUC CAS,-0.10903099999999999,51.500174
1237.01,NY HORIZONS SKIPTON,-2.01705,53.963253
60.97,HMP BRISTOL,-2.591585,51.480902
532.0799999999999,HMP & YOI CHELMSFORD,0.484655,51.736724
946.5299999999999,BARNSLEY HOSPICE,-1.514714,53.560138
1260.3600000000004,WEST KENT GROUP,1.118942,51.075872
1048.23,ADHD SERVICE,-0.382232,51.595076
5702.37,CGL RICHMOND UPON THAMES,-0.330961,51.445928
53531.14999999999,CHAPELFORD PRIMARY CARE CENTRE,-2.633066,53.39615799999999
2581.4699999999993,BRAMHOPE DERMATOLOGY COMMUNITY CLINIC,-1.61581,53.881903
49247.22999999998,BHF LUNDWOOD SURGERY,-1.438538,53.557711
392.75,SOTON COMMUNITY ENT SERVICE WESTON LANE,-1.370694,50.888213
171.29000000000005,WORKING AGE ADULTS - AVON HOUSE,-2.13216,51.999104
185.43,DONCASTER SOUTH OLDER PEOPLE CMHT,-1.146558,53.497488
87885.16999999987,DALTON SURGERY,-3.179816,54.155917
69592.66000000005,THE SELE MEDICAL PRACTICE,-2.095702,54.970372
88986.3500000001,WOODLANDS PARK HEALTH CTR,-1.628825,55.04614
73095.77,CONCORD MEDICAL PRACTICE,-1.524864,54.913411
141565.29,MARKET WEIGHTON GROUP PRACTICE,-0.674786,53.864903
73033.07999999997,RAJ MEDICAL CENTRE,-0.113968,53.550655
153580.59000000008,MAYFORD HOUSE SURGERY,-1.446534,54.328376
186782.3799999998,OAKWOOD LANE MEDICAL PRACTICE,-1.493931,53.819982
385040.46,HEALTH CARE FIRST PARTNERSHIP,-1.393615,53.736872
134720.58999999994,HAVEN MEDICAL CENTRE,-1.416874,52.891498
125621.52000000008,COUNTESTHORPE HEALTH CENTRE,-1.136767,52.554536
180258.75999999992,CASTLE HEALTHCARE PRACTICE,-1.144908,52.930476
167676.9500000001,BROOM LANE MEDICAL CENTRE,-1.332311,53.417383
63064.65,CADDINGTON SURGERY,-0.458179,51.864502
81373.9000000001,ANNANDALE MEDICAL CENTRE,-0.17421099999999998,51.698571
6386.760000000001,GREENWICH CCG GP ACCESS HUB,0.050556,51.457843
242.49,WEST KENT HEALTH FEDERATION,0.277462,51.194717
78.04999999999998,CYPS - MARSBURG HOUSE,-2.206729,51.739527
9003.259999999995,DMC COMMUNITY DERMATOLOGY BHR,0.223136,51.563496
71516.74999999993,WEST ROAD MEDICAL CENTRE,-1.656263,54.976209
55411.31000000001,IMEARY STREET PRACTICE,-1.424863,54.98753000000001
24904.03000000001,THE KILLINGHOLME SURGERY,-0.260335,53.62990799999999
128385.08000000012,DR SINHA & PARTNERS,0.100204,53.030138
38166.39999999995,THE HEALTH CARE SURGERY,-1.487911,53.42172
117167.91999999994,COMBERTON SURGERY,0.018614,52.189811
140542.90999999995,TRINITY & BOWTHORPE MEDICAL PRACTICE,1.280248,52.624411
82278.81999999998,THE LIMES SURGERY,-0.010842,51.759413
112159.89999999976,SHEPHALL HEALTH CENTRE,-0.167642,51.890799
32053.76000000001,WAKEMANS HILL SURGERY,-0.254209,51.587088
46623.87999999998,WESTBOURNE GROVE MEDICAL CENTRE,-0.200361,51.514211
128263.58999999992,FOREST PRACTICE,0.07523499999999998,51.654789
35418.370000000024,PRASAD,0.210579,51.600308
133352.45999999958,HARROW ROAD GP CENTRE,0.012856,51.559538
62668.42,SEVEN DIALS MEDICAL CENTRE,-0.147743,50.829681
148702.9000000002,NORTHDOWN SURGERY,1.368001,51.379866
26525.82000000001,MILTON REGIS SURGERY,0.7321839999999998,51.349193
100583.27999999996,BARCROFT MEDICAL CENTRE,-1.780526,51.172939
44473.03000000002,BURBAGE SURGERY,-1.669545,51.348496
320545.1600000002,THE SWAN PRACTICE,-0.985664,52.001593
190988.7100000004,PIONEER MEDICAL GROUP,-2.617628,51.510306
64009.39000000005,THE CREST FAMILY PRACTICE,-2.596274,51.428746
27796.669999999995,WORTHEN MEDICAL PRACTICE,-3.000165,52.635224
117331.83000000007,NESTON MEDICAL CENTRE,-3.064349,53.291818
45882.15999999999,KIRKDALE MEDICAL CENTRE,-2.973842,53.433523
68738.12,WITHNELL HEALTH CENTRE,-2.556663,53.692491
224622.02000000008,DARWEN HEALTHLINK,-2.471427,53.695744
128297.10000000012,ST.MARY'S HEALTH CENTRE,-2.729589,53.747433
90741.53999999996,DAVID MEDICAL CENTRE,-2.268652,53.43186
75357.15999999996,DR ABBAS,-0.841253,52.26834
49527.70999999999,FACCINI HOUSE SURGERY,-0.189379,51.389682
103060.19999999994,EDLESBOROUGH SURGERY,-0.588625,51.868423
61086.14000000005,DR GS KALKAT'S PRACTICE,0.103861,51.527941
37716.08999999998,JRB HEALTHCARE BEECHDALE SURGERY,-1.198142,52.961504
19993.50000000001,THE LYNWOOD SURGERY,-0.29964,51.528594
39186.74999999999,CHURCH VIEW MEDICAL CENTRE,-2.960328,50.935622
183040.7299999999,WOODLANDS FAMILY MEDICAL CENTRE,-1.321204,54.561215
24543.98,ASKAM SURGERY,-3.210918,54.183705
250797.54999999976,FERRYHILL AND CHILTON MEDICAL PRACTICE,-1.556828,54.689838
121440.14,COLLIERY COURT MEDICAL GROUP,-1.460703,54.949762
78328.09999999998,GRANGE PARK SURGERY,-1.7481080000000002,53.912695
163051.92999999988,THE COUNTY PRACTICE,-1.069884,52.70073000000001
214332.94999999972,BEECHFIELD MEDICAL CENTRE,-0.145012,52.787253
109500.96000000004,GRIMETHORPE SURGERY,-1.378978,53.573614
86532.51999999999,THE OAKWOOD SURGERY,-1.073937,53.506609
83905.78999999985,PAPWORTH SURGERY,-0.11749200000000001,52.252071
125313.5400000002,ORCHARD SURGERY,0.944176,52.678309
152370.2000000002,DR JK MARSDEN'S PRACTICE,-0.436528,51.894968
190539.66000000012,MALTINGS SURGERY,-0.337918,51.751851
48829.729999999974,HANWELL HEALTH CENTRE (NAISH),-0.334375,51.510263
138942.26999999973,WHITLEY HOUSE SURGERY,0.455723,51.726539
137480.35000000012,WEST ROAD SURGERY,0.70187,51.544989
39853.76000000003,JOYDENS WOOD MEDICAL CENTRE,0.166397,51.42449
237853.50000000015,TRAFALGAR MEDICAL GROUP PRACTICE,-1.092485,50.785331
127404.02999999965,EASTFIELD HOUSE SURGERY,-1.323251,51.395555
108264.18000000008,RECTORY MEADOW SURGERY,-0.6175,51.669079
202795.8099999995,TUDOR LODGE SURGERY,-2.975378,51.332396
113065.47,PRAZE-AN-BEEBLE SURGERY,-5.309264,50.173753
212008.33000000007,CAMBRIAN MEDICAL PRACTICE,-3.047774,52.86281
97799.95,PENN SURGERY,-2.145001,52.568567
105353.66000000003,FIRDALE MEDICAL CENTRE,-2.537387,53.253804
116488.00999999985,HALL GREEN SURGERY,-2.741349,53.540745
33439.00000000005,SARAF MEDICAL PRACTICE,-2.076954,53.561455
34365.69,LATIMER HEALTH CENTRE,-0.049503,51.54659
51879.99000000003,DELL MEDICAL CENTRE,0.328114,51.480258
56555.23000000001,KIRKSTALL LANE MEDICAL CENTRE,-1.587333,53.816942
78798.6399999999,WHITCHURCH SURGERY,-1.340372,51.230256
60285.849999999984,DR NEWMAN,-1.975441,50.719722
2003.05,GATDOC OOH,-1.580781,54.93938000000001
41230.33000000004,THE TRINITY MEDICAL CENTRE,0.085815,51.478803
1690.72,CARE UK OOH,1.210633,52.034014
2715.7599999999993,PONTELAND RD WIC,-1.656804,54.991604
261.6,CONIFER HOUSE SEXUAL HEALTH CLINIC,-0.342095,53.746221
194.34000000000003,SUE RYDER NETTLEBED HOSPICE,-0.989042,51.573731
1962.25,IC24 LTD (HWLH OOH),0.891514,51.129106
21.83,MCH PHYSIO SWALE,0.571235,51.364197
60.15000000000001,HEALTH VISITORS SWBH NHS TRUST,-1.988866,52.528091
1627.5499999999995,BURNLEY LOCALITY NMPS,-2.238948,53.791326
49.12,SOUTH EAST HUB 1,-0.10851199999999998,51.477558
1.77,ONE ASHFORD - ELECTIVE CARE NHS SERVICES,0.9117360000000002,51.142662
75313.0399999998,KIRKBY COMMUNITY PRIMARY CARE CENTRE (3),-1.248741,53.10176
20089.97,SOUTHAMPTON DRUG & ALCOHOL SERVICES,-1.399976,50.907054
1654.59,DMC COMMUNITY DERMATOLOGY ERY,-0.872594,53.695801
129583.95,BERKLEY PRACTICE,-2.024533,52.58916
141405.14,BELLE VALE HEALTH CENTRE,-2.859752,53.392035
56819.44000000003,ELIZABETH STREET SURGERY,-3.043658,53.820839
61078.90000000004,RAMSBOTTOM MEDICAL PRACTICE,-2.319287,53.64878
47089.05999999996,THE WHITSWOOD PRACTICE,-2.253502,53.455769
161546.76000000013,WOODLANDS MEDICAL PRACTICE,-2.142182,53.545559
81027.52000000006,BROOKS BAR MEDICAL CENTRE,-2.261969,53.461412
71842.97000000004,BROOK HOUSE SURGERY,-1.445882,50.921794
65303.049999999945,ASHVILLE SURGERY,-0.201145,51.476255
64091.82999999999,THE VILLAGE MEDICAL CTR,-0.512653,52.128152
5156.44,DR HANTSDOC N OOH,-1.109918,51.280633
3115.24,WEST CAMHS - KIRKSTALL,-1.599694,53.817164
8869.989999999998,GP COLLABORATIVE OOH,-1.455965,53.409821
2937.61,IPU 10-17 EARLY INTERVENTION SW,-1.590621,52.285217
81.59,BEDFORDSHIRE MSK SERVICE,-0.45979,52.141913
48839.49000000001,ST NEOTS HEALTH CENTRE,-0.267116,52.228966
8338.340000000002,ERDINGTON GP HEALTH & WELLBEING WIC,-1.840871,52.522486
1367.4399999999996,QUAY HEALTH EAC,-0.069645,51.49696
3713.970000000001,HMR BARDOC OOH,-2.288591,53.59553
2364.18,HOLYWELL AT LANGLEY HOUSE HCT,-0.391206,51.683651
937.0800000000003,7 DAY ACCESS ROCHDALE INFIRMARY HUB,-2.160152,53.624282
12139.63000000001,GATESHEAD HEALTH COMMUNITY SERVICES,-1.580781,54.93938000000001
228.7,NEAS HAST CCG,-1.712365,54.969713
34348.05,VC WEST LANCS COMMUNITY NURSING,-2.840112,53.602357
174.74999999999997,SOUTH DALES HEALTHCARE LTD,-1.571366,53.077623
211352.19999999995,PRIORY MEDICAL CENTRE,-1.588641,52.285051
11329.129999999996,MODALITY ANN JONES FAMILY HEALTH CENTRE,-1.871333,52.462659
47466.67999999994,BALDWINS LANE SURGERY,-1.846405,52.414514
43374.189999999966,TUDOR PRACTICE STOCKLAND GREEN,-1.857329,52.52388199999999
110306.40999999996,CENTRAL SURGERY,-2.74261,53.456686
274233.63999999984,ASH TREES SURGERY,-2.769484,54.129481
41234.72000000001,FAMILY PRACTICE,-2.486748,53.750552
47373.99000000002,MONARCH MEDICAL CENTRE,-2.316823,53.564198
145054.41000000015,LEESBROOK SURGERY,-2.07266,53.53879
56334.31000000004,WALTON SURGERY,1.335453,51.973564
50499.90000000008,LINCOLN GREEN MEDICAL CENTRE,-1.525196,53.802098
49758.79999999999,PARKGATE SURGERY,-1.548606,54.523273
42658.54000000005,DALTON TM,-2.643772,53.529393
41226.64999999996,POLLARD ROW SURGERY,-0.064328,51.528266
4884.249999999998,HARROGATE OOH,-1.517573,53.993807
5915.329999999997,MIRIAM MINOR EMERGENCY,-3.04649,53.39824599999999
111.28,ASHFORD HUB,-0.472813,51.444022
102.79,EXTENDED HOURS SERVICE,-2.9023,53.211542
16354.46,LIVEWELL S/W,-4.116613,50.378837
115.1,NORTH CMHT,-4.126897,50.430114
774.41,WILL ADAMS NHS TREATMENT CENTRE,0.576568,51.380889
6446.250000000001,WIRRAL HEART SUPPORT,-3.026531,53.380029
365.56,NT&H COMM DIAB N DDES,-1.227837,54.702398
2994.3299999999995,ADULT ADHD SERVICE,-2.215952,53.593598
1445.7700000000007,RUSHCLIFFE URGENT CARE SERVICE,-1.100495,52.924252
431.04,RUNCORN URGENT CARE CENTRE WIC,-2.694681,53.323266
385.53,COLORECTAL SURGERY,-0.210281,51.409967
1763.8200000000006,PML NEIGHBOURHOOD HUB (BANBURY),-1.349027,52.057771
64432.73999999997,BALDERTON SURGERY,-0.7864679999999998,53.052881
188.74,ADULT ADHD KNOWSLEY NMP,-2.606862,53.42951600000001
55867.09999999993,ULVERSTON COMMUNITY HEALTH CENTRE,-3.097833,54.198882
139801.6000000002,NORTH ROAD SUITE RAVENSTHORPE HEALTH CTR,-1.661589,53.677829
113084.66000000015,CASTLE MEAD MEDICAL CENTRE,-1.367743,52.541052
111536.26999999996,RADCLIFFE-ON-TRENT. HEALTH CENTRE,-1.03822,52.946139
99991.88,RISE PARK SURGERY,-1.174951,53.011477
54418.61,MANCHESTER ROAD SURGERY,-1.521086,53.380573
112654.92999999985,CHERRY HINTON MEDICAL CENTRE,0.177635,52.187459
142280.1,THE MEDICI MEDICAL PRACTICE,-0.418382,51.874494
103390.5000000004,PENSHURST GARDENS SURGERY,-0.272812,51.616129
102809.43999999986,ELLIS PRACTICE,-0.276552,51.563894
39187.79999999997,ORCHARD END,0.539532,51.091415
85007.92,NEW ELTHAM AND BLACKFEN MEDICAL CENTRE,0.074199,51.434495
194013.04999999987,THE GROVE MEDICAL CENTRE,-2.513702,50.953273
171921.3400000002,BISHOPS WALTHAM SURGERY,-1.212149,50.95528
92378.8199999999,COLVILLE HEALTH CENTRE,-0.206231,51.515837
83606.75999999997,BRICKFIELDS SURGERY,0.605168,51.653143
68775.48000000007,TYNEMOUTH MEDICAL PRACTICE,-0.068331,51.586253
220684.8299999996,TRINITY MEDICAL CENTRE,-0.172008,50.831228
187388.73,THE CEDARS SURGERY,1.403174,51.217619
84639.63,THE KINGS FAMILY PRACTICE,0.534548,51.377821
97865.33000000005,FOUNTAIN PRACTICE,-0.252307,51.350378
66067.44999999997,ST ALBANS MEDICAL CENTRE,-0.302479,51.42195
168352.56999999983,ORCHID HOUSE SURGERY,-1.894499,50.801788
260366.6799999997,THE HADLEIGH PRACTICE,-1.993525,50.761018
307745.5199999998,THREE CHEQUERS MEDICAL PRACTICE,-1.794625,51.071924
236937.85999999987,WEAVERS MEDICAL,-0.733538,52.401531
145932.02000000022,NUFFIELD HEALTH CENTRE,-1.486793,51.786441
176782.23000000019,BARTON SURGERY,-3.473818,50.579848
184407.1800000001,BIDEFORD MEDICAL CENTRE,-4.211785,51.017201
183404.72999999995,CORBETT MEDICAL PRACTICE,-2.148792,52.263269
353426.30999999976,THE WESTGATE PRACTICE,-1.821176,52.683537
64892.12000000007,COBRIDGE SURGERY,-2.187008,53.035377
40499.93999999999,BURBURY MEDICAL CENTRE,-1.9103740000000002,52.502215
101898.94000000002,PLECK HEALTH CENTRE,-1.9980380000000002,52.574248
50708.08999999999,CORNERSTONE SURGERY,-2.724149,53.454211
31413.58999999999,HIGHER HEYS SURGERY,-2.394094,53.740865
160238.73000000007,ALBION MEDICAL PRACTICE,-2.088476,53.48960400000001
161093.66000000006,DELAMERE MEDICAL PRACTICE,-2.307365,53.450887
36019.18000000004,240 WEXHAM ROAD,-0.57838,51.516902
67323.81999999996,LONGFIELD MEDICAL PRACTICE,-2.28357,53.533828
160168.98999999976,THISTLEMOOR MEDICAL CENTRE,-0.254566,52.595274
22428.849999999995,PALACCI (CASTELNAU),-0.238274,51.476873
53481.74000000001,CANTERBURY HEALTH CENTRE,1.082981,51.274249
87.48,GP EXTENDED HOURS,-2.597522,53.389256
33298.06999999996,BANBURY HEALTH CENTRE,-1.334014,52.062032
63822.96999999993,BRERETON SURGERY,-1.924317,52.747482
9798.699999999992,THE LAWNS SURGERY,-0.502907,50.807746
84058.95999999992,OAK TREE HEALTH CENTRE,-1.2409629999999998,51.614986
76736.27999999996,THE TRINITY MEDICAL PRACTICE,0.760305,51.684982
444.08,DERMATOLOGY CLINIC,-2.486748,53.750552
57188.38999999998,SOHO HEALTH CENTRE,-1.934945,52.503094
10536.71,DAWN CLINIC,-1.7272,51.538528
78.66999999999999,ST RAPHAEL'S HOSP (SUTTON),-0.220816,51.37886
397.98,ADULT LEARNING DISABILITY SERVICE,-1.484449,52.444687
788.2200000000001,BARNET COPD SERVICE,-0.271242,51.606493
262.38000000000005,WHHFT COMM'Y DIABETES SERVICE  ST HELENS,-2.610717,53.393973
1062.36,BECKENHAM BEACON URGENT CARE CENTRE,-0.033209,51.405232
4445.690000000001,HILLINGDON COMMUNITY DERMATOLOGY,-0.08430999999999998,51.500087
72.87999999999998,HEALTH VISITORS STOKE,-2.109085,52.810605
49802.44,BRIERLEY MEDICAL CENTRE,-1.382484,53.594188
11361.77,CGL RESOLUTIONS SERVICE,-0.416036,51.876369
1865.78,NORWICH IMPROVED ACCESS HUB,1.319958,52.632405
47.56,DONCASTER PERINATAL MENTAL HEALTH TEAM,-1.146558,53.497488
79.2,BRAMLEY COMMUNITY CARE BEDS,-1.623032,53.80781999999999
67971.21999999999,METRO INTERCHANGE SURGERY,-1.602943,54.961848
156612.06000000014,BRIDGE VIEW MEDICAL GROUP,-1.401824,54.919455
96972.6,QUAKERS LANE SURGERY,-1.741713,54.406363
206174.5299999999,HOLLYNS HEALTH & WELLBEING - CLAYTON,-1.81454,53.779166
93237.65999999992,BRIDGE STREET MEDICAL PRACTICE,-1.20716,52.774841
138964.8900000002,CAYTHORPE & ANCASTER MEDICAL PRACTICE,-0.536327,52.981851
111399.31999999996,PARSON DROVE SURGERY,0.050459,52.660947
83049.35999999993,PRIORS FIELD SURGERY,0.124169,52.388951
99278.94000000022,DAVENPORT HOUSE SURGERY,-0.354549,51.816177
191882.50000000023,MILLWAY MEDICAL PRACTICE,-0.24359099999999997,51.614985
81457.92000000007,TEMPLE FORTUNE MEDICAL GROUP,-0.197845,51.581101
2157.4899999999993,MOULSHAM LODGE SURGERY,0.475137,51.716565
36766.53000000004,WARRIOR SQUARE SURGERY,0.716503,51.539534
22327.559999999976,BRAYFORD SQUARE SURGERY,-0.050404,51.514375
55691.77999999994,YORK ROAD SURGERY,0.065859,51.559165
217445.41999999963,WEST MALLING GROUP PRACTICE,0.407707,51.293351
118358.24,ELMDENE SURGERY,0.263153,51.446098
138960.65000000005,MOAT HOUSE SURGERY,-0.146361,51.259819
45918.34999999997,ALEXANDRA SURGERY,-0.205887,51.422912
119242.06,DENHAM MEDICAL CENTRE,-0.502236,51.584564
117587.1900000001,CHEW MEDICAL PRACTICE,-2.629195,51.35619
102225.10999999988,ST.GEORGE'S SURGERY,-2.0815,51.906706
1203.41,OLDHAM URGENT TREATMENT GTD HEALTHCARE,-2.121831,53.553248
166061.19000000035,CHARING SURGERY,0.791374,51.20971
78481.56000000006,THAMES AVE SURGERY,0.603057,51.36344
284624.5799999998,CANTERBURY MEDICAL PRACTICE,1.128982,51.245539
24952.25000000004,TRAFALGAR SURGERY,-0.074414,51.485672
81997.61999999998,THE ORCHARD PRACTICE,-0.303542,51.369116
126813.2300000002,BALHAM PARK SURGERY,-0.155715,51.440487
43956.92999999999,UNIVERSITY HEALTH SERVICE,-1.395714,50.934099
90461.32000000002,LINDEN MEDICAL CENTRE,-0.737415,51.530813
81174.92000000004,OBSERVATORY MEDICAL PRACTICE,-1.265958,51.760293
58086.30999999999,CROPREDY SURGERY,-1.320027,52.116731
301047.92999999964,HEART OF BATH,-2.373947,51.376364
63969.66000000005,BIRCHWOOD MEDICAL PRACTICE,-2.547938,51.446246
70978.07000000002,LOSTWITHIEL SURGERY,-4.668763,50.407892
64267.13999999999,ST SAVIOURS SURGERY,-2.308488,52.130324
121671.08,WERRINGTON VILLAGE SURGERY,-2.098023,53.021659
96077.27000000008,WEST HEATH SURGERY,-1.96202,52.401797
45867.96999999998,WEST PARK SURGERY,-2.141256,52.587783
43523.70999999999,THE MARSHSIDE SURGERY,-2.963125,53.67143299999999
48049.34000000002,MERSEYBANK SURGERY,-2.263012,53.42276
92374.58999999992,THE GROVE ROAD PRACTICE,-0.202341,51.358201
35166.15000000007,MOOR PARK MEDICAL PRACTICE,-1.7218490000000002,53.797834
38694.500000000015,UPTON ROCKS PRIMARY CARE,-2.754371,53.373367
751.9900000000001,FARLEIGH HOSPICE,0.467731,51.776479
75292.19,HANLEY PRIMARY CARE CENTRE,-0.12083699999999999,51.567951
17.31,COMMUNITY OPTHALMOLOGY SERVICE,-1.508913,52.401243
72107.81999999998,LEYLAND SURGERY,-2.709316,53.689645
97366.14999999997,COMMUNITY NURSING,-0.670796,53.57972
1516.6699999999996,HP NMP'S RUSH CCG,-1.143101,53.130244
2075.23,THE PRACTICE OPTHALMOLOGY CLINIC,-0.574826,51.671154
3836.7100000000014,SWANSWELL WEST BERKS,-1.323646,51.396761
3513.470000000001,COMMUNITY NURSING,-2.372621,51.358169
395.77,YORKSHIRE SMOKEFREE,-1.018306,53.503028
44.08000000000001,CULTURE FUSION - EIP,-1.7596490000000002,53.792973
81776.5599999999,WELLSBOURNE HEALTHCARE CIC,-0.107386,50.825445
436.76,LINCOLNSHIRE ADHD SERVICE,-0.639665,52.910889
41541.43000000002,CHEVIOT MEDICAL GROUP,-2.01842,55.546525
286579.0999999996,THE CENTRAL SURGERY BARTON,-0.439445,53.684236
47019.92000000002,DEARNE VALLEY HEALTH CENTRE,-1.626482,53.588349
132945.33999999994,MICKLEOVER MEDICAL CENTRE,-1.54633,52.907111
58118.60999999989,THE UNIV OF NOTTINGHAM HEALTH SERV,-1.195942,52.942177
71174.54000000002,LISTER HOUSE SURGERY,-0.4515,51.89192
42703.11999999995,THE ELMS SURGERY,-0.404224,51.661642
64619.91000000002,HOUNSLOW MEDICAL CENTRE,-0.37684,51.469395
40707.09000000003,P A PATEL SURGERY,0.582273,51.56978
20537.239999999976,SANCTA MARIA MEDICAL CENTRE,0.284011,51.507882
307630.99000000034,SEAFORD MEDICAL PRACTICE,0.099275,50.772678
240730.86999999997,BUXTED MEDICAL CENTRE,0.132095,50.989406
19164.90000000001,NEW INN SURGERY,-0.545657,51.257698
59629.31999999994,THE WHITEHORSE PRACTICE,-0.097391,51.385869
108457.5900000001,THE HEALTH CENTRE,-0.19711,51.363031
167372.23999999985,WEST END ROAD SURGERY,-1.359281,50.916702
82119.84000000008,TOWER HOUSE SURGERY,-0.770004,51.636372
135607.26000000007,CHURCH STREET PRACTICE,-1.425847,51.598763
66586.98999999992,CLINTON ROAD SURGERY,-5.224966,50.23093
138548.55000000008,PINHOE SURGERY,-3.469622,50.737528
223443.01,ROSEBANK HEALTH,-2.242194,51.852611
78734.0899999999,MAPLE VIEW MEDICAL PRACTICE,-1.905693,52.31659
94686.47999999992,PRESCOTT SURGERY,-2.852689,52.784345
26465.219999999965,BLOOMSBURY HEALTH CENTRE,-1.876618,52.493743
98762.83,HEATON ROAD SURGERY,-1.579814,54.978269
72478.34000000008,49 MARINE AVENUE SURGERY,-1.451082,55.046268
110070.15999999996,HOUGHTON MEDICAL GROUP ,-1.469175,54.842322
111576.88000000024,HOWDEN MEDICAL PRACTICE,-0.8694039999999998,53.744175
34397.459999999985,HANCOCKS ME,-0.41296400000000005,53.782123
139254.20999999988,THE WILSDEN MEDICAL PRACTICE,-1.86138,53.818377
30202.790000000048,COLSTERWORTH SURGERY,-0.619356,52.806388
46709.45999999997,LUNDWOOD MEDICAL CENTRE PMS PRACTICE,-1.438538,53.557711
32532.84000000004,GREASBROUGH MEDICAL CENTRE,-1.372776,53.452893
91749.40999999986,WELLSIDE SURGERY,-0.28478,52.440324
72396.39000000007,CLARE GUILDHALL SURGERY,0.580469,52.078259
102908.54000000014,LATTIMORE & VILLAGE SURGERY,-0.298547,51.726244
16093.869999999994,SOMERSET MEDICAL CENTRE,-0.371127,51.522244
177032.7799999998,CENTRAL UXBRIDGE SURGERY,-0.475739,51.546229
127284.39999999994,WEST MERSEA SURGERY,0.9193420000000002,51.778349
156262.42999999985,HIGHLANDS SURGERY,0.637339,51.548005
125822.27999999988,BALLARDS WALK SURGERY,0.441841,51.573232
186434.18000000005,DOWNLANDS MEDICAL CENTRE,0.244085,50.822919
122783.60000000008,OTFORD MEDICAL PRACTICE,0.191446,51.31358
60885.34,THE HALFWAY SURGERY,0.524157,51.380429
98554.52999999994,BURNEY STREET PMS,-0.009168,51.479034
81270.11000000013,ELIZABETH HOUSE MEDICAL PRACTICE,-0.050005,51.308093
32076.520000000004,ADDINGTON MEDICAL PRACTICE,-0.018557,51.344382
18474.39,SARAJLIC (STAINES ROAD),-0.357923,51.439672
352131.5599999998,ROYAL CRESCENT SURGERY,-2.452679,50.616587
121542.7500000001,TWYFORD SURGERY,-1.314229,51.019421
16866.000000000004,ABBEY MEDICAL CENTRE,-0.982406,51.453949
88597.88000000003,ST.BARTHOLOMEWS MEDICAL CENTRE,-1.232108,51.747668
296613.93000000017,THE DOWNEND HEALTH GROUP,-2.505301,51.485109
107737.27000000002,IDE LANE SURGERY,-3.534972,50.699471
69515.65000000017,THE ARROW SURGERY,-1.861382,52.218546
182571.37999999995,DR SN CLAY AND PARTNERS,-1.832005,52.528641
52612.049999999945,WILLENHAL OAK MEDICAL CENTRE,-1.463131,52.388988
136927.96999999988,WORDSLEY GREEN HEALTH CENTRE,-2.164692,52.480602
205309.59999999971,THE OVER-WYRE MED.CTR.,-2.976492,53.928203
77441.27000000006,FISHERGATE HILL SURGERY,-2.714363,53.75445500000001
44239.92999999997,THE SINGH MEDICAL PRACTICE,-2.213622,53.512042
117038.82999999994,PARK VIEW GROUP PRACTICE,-2.160577,53.445476
27775.059999999965,FAMILY SURGERY,-2.346055,53.396194
4178.89,STROKE PATHWAY AND REHABILITATION CENTRE,-1.461102,53.37116700000001
1243.3,COMMUNITY PAEDIATRICS (SILCS),-1.612399,53.799904
219.87000000000003,NWR COMMUNITY SERVICES,-1.014748,51.449145
294.61,ABOUT HEALTH LN DERMATOLOGY,-2.455551,53.733223
9345.229999999998,URGENT CARE,0.475497,50.850706
57.73,NMP CCS - CYP SERVICE UNIT,-0.067127,52.322863
456.3,COMPTON HOSPICE,-2.172068,52.585801
23912.539999999975,CRANBROOK MEDICAL PRACTICE,-3.416198,50.746596
891.8700000000003,GOSPORT PRIMARY CARE ACCESS CENTRE,-1.148081,50.793062
192.21,OLDHAM COMMUNITY HEALTH SERVICES,-2.146984,53.542056
479.18,COMMUNITY PALLIATIVE CARE MEDICAL TEAM,-2.777861,53.433387
183481.6600000001,WHITLEY BAY HEALTH CENTRE,-1.43996,55.04141
153868.77000000005,BLACKBURN RD.MEDICAL CTR.,-1.664718,53.731348
363018.6900000002,MARKET HARBOROUGH MED.CTR,-0.924843,52.477084
126433.36999999988,COMMUNITY HEALTH CENTRE (ZS OSAMA),-1.113421,52.632387
117296.00000000006,TRAMWAYS MEDICAL CENTRE (O'CONNELL),-1.503023,53.402044
204418.15999999986,SAFFRON HEALTH PARTNERSHIP,-0.264459,52.084232
95891.03999999986,GLADSTONE MEDICAL CENTRE,-0.24612,51.558731
60657.26999999998,ST MARTINS MEDICAL CENTRE,-0.424566,51.577646
44233.26999999999,ABRIDGE SURGERY,0.12458,51.653631
52924.77,ELSDALE STREET SURGERY,-0.049094,51.543033
99617.48999999995,STOPSLEY VILLAGE PRACTICE,-0.394147,51.901132
177668.63999999993,SHEFFORD HEALTH CENTRE,-0.321643,52.034788
67334.24999999999,VALE DRIVE MEDICAL PRACTICE,-0.194727,51.648828
85109.40000000002,THE FRYENT WAY SURGERY,-0.280565,51.582963
76537.73000000008,BELMONT MEDICAL CENTRE,-0.478036,51.548264
72445.79000000002,PORTLAND ROAD PRACTICE,-0.208019,51.507366
244039.1299999998,AUDLEY MILLS SURGERY,0.607129,51.584978
62018.069999999934,STRATFORD HEALTH CENTRE,0.004714,51.544651
34407.41,THE STROUDLEY WLK HTH CTR,-0.017533,51.527214
83956.70999999992,ST JOHN'S MEDICAL PRACTICE,0.195249,51.285009
123328.25000000019,BEXLEY GROUP PRACTICE,0.10965599999999999,51.465832
70793.5400000001,DERRY DOWNS SURGERY,0.116651,51.385174
81364.49000000003,UPPER NORWOOD GROUP PRACTICE,-0.08482,51.413308
54749.86999999989,THE MOORINGS MEDICAL PRACTICE,-0.095892,51.322229
88190.01999999997,THE TOLLERFORD PRACTICE,-2.571586,50.778924
210857.58999999988,BLACKTHORN HEALTH CENTRE,-1.327194,50.876037
45708.03000000001,JUBILEE FIELD SURGERY,-2.191875,51.484091
84193.31999999998,DANES CAMP MEDICAL CENTRE,-0.904374,52.205152
117596.30000000006,THORNBURY HEALTH CENTRE - BURNEY,-2.517723,51.612861
95656.61000000004,ELM HAYES SURGERY,-2.492756,51.300546
77911.01999999997,CULVERHAY SURGERY,-2.348649,51.638921
169129.7799999999,SHAWBIRCH MEDICAL CENTRE,-2.531858,52.718121
160574.97000000006,THE DOVE MEDICAL PRACTICE,-1.864605,52.535155
187477.43,MOSS GROVE SURGERY,-2.1699,52.498674
149494.9799999998,WARLEY MEDICAL CENTRE,-2.006757,52.468122
90092.41000000003,SPRINGFIELDS MEDICAL CENTRE,-2.597522,53.389256
139362.90000000034,WEAVER VALE PRACTICE,-2.696866,53.325561
132433.14000000013,GLOVERS LANE SURGERY,-2.971961,53.488314
78256.44000000002,OLIVE MEDICAL CENTRE,-2.484193,53.752309
60550.629999999954,HALLIWELL SURGERY 1,-2.431738,53.588322
96971.81999999985,HEATON MERSEY MED.PRACT.,-2.205118,53.412519
34935.229999999974,VILLAGE SURGERY,-0.255874,51.399503
39976.33999999998,SOMERS TOWN MEDICAL CENTRE,-0.130607,51.529916
25797.61999999995,FITZMAURICE (KEW),-0.283117,51.475875
65002.580000000075,WOOTTON VALE HEALTHY LIVING CENTRE,-0.527951,52.093688
320.69,COMMUNITY PALLIATIVE CARE,-2.267012,53.599742
71529.23999999998,ST LUKE'S HEALTH CENTRE,0.7293039999999998,51.551
371467.40999999945,THE MEDICAL GROUP,-1.628911,54.748296
128442.30000000002,GLENPARK MEDICAL CENTRE,-1.640096,54.953229
39220.49000000001,DR KHALIQ,-1.799612,53.663276
140453.16000000027,ROBIN LANE HEALTH AND WELLBEING CENTRE,-1.661311,53.79500899999999
53583.42000000001,LAUREL BANK SURGERY,-1.587333,53.816942
95991.81999999996,HUGGLESCOTE SURGERY,-1.365684,52.71103
68148.82999999997,HEALTH CARE COMPLEX  KIRKBY,-1.244634,53.100062
98914.02000000008,RED HOUSE SURGERY,0.129161,52.214906
48204.53000000002,KINGS HEAD MEDICAL PRACTICE,-0.011448,51.635688
14457.38,WARRINGTON SUBSTANCE MISUSE SERVICE,-2.595849,53.38675799999999
15419.499999999978,BRIMPTON HOUSE,0.699534,51.835776
81628.32000000012,THE AZAD PRACTICE,0.044868,51.531234
57811.36999999992,NEWHOLME SURGERY,-2.74261,53.456686
1716.67,NEW HOPE,-0.752472,51.414889
57.7,WALSALL CHILD DEVELOPMENT CENTRE,-1.956181,52.61429
1406.4000000000005,BRIGHTON STATION WALK-IN,-0.141323,50.827937
10.81,THE NORTH HAMPSHIRE ALLIANCE,-1.093694,51.26408
7202.300000000002,SW INTEGRATED TEAM MALVERN,-2.178135,52.192339
38.81,CCCT 2,-2.019013,53.955694
124.72,COMMUNITY NURSES,-2.500977,51.462504
761.3199999999998,ADULT LD COMM SERVICES NW,-1.477708,52.526988
158.27,SUE RYDER MANORLANDS HOSPICE,-1.951227,53.813255
168.21,CHILDRENS SERVICES,-0.08679399999999998,51.503466
36.27,FELIXSTOWE HOSPITAL,1.35594,51.963766
217.36,ADULT MH COMMUNITY - ACCESS TEAM,-2.210832,53.000486
44.0,ST HELENS 0-19 CHILDRENS SERVICE,-2.606862,53.42951600000001
88160.19000000006,LUNESDALE SURGERY,-2.602213,54.200573
193257.04000000047,COQUET MEDICAL GROUP,-1.580504,55.332599
32461.18000000001,THE GLENDALE SURGERY,-2.01842,55.546525
73500.7500000001,ALLERTON MEDICAL CENTRE,-1.533879,53.826921
120671.05999999998,SPILSBY SURGERY,0.098963,53.173049
48892.98000000004,BRIDGEWAY PRACTICE,-1.147343,52.943574
160414.5099999999,THORNE MOOR MEDICAL PRACTICE,-0.966348,53.613648
123143.68,MANOR AND PARK GROUP PRACTICE,-1.42716,53.373705
68996.4000000001,SOLE BAY H/C,1.6664740000000002,52.336325
53029.63000000007,DR PS BATH'S PRACTICE,-0.394147,51.901132
45735.35999999999,WATERSIDE MEDICAL CENTRE,-0.363984,51.502165
105305.14,MELBOURNE HOUSE SURGERY,0.451756,51.749214
254099.3,LITTLE WALTHAM & GT NOTLEY SURGERY,0.477622,51.787396
86902.76999999996,AMPTHILL PRACTICE,-0.137293,51.5346
78329.54000000008,THE NORTH LONDON HEALTH CENTRE,-0.11243199999999999,51.617571
76295.78,THE WILLOWS PRACTICE,0.104416,51.60776
185494.96,ST.PETER'S MEDICAL CENTRE,-0.135237,50.831002
205273.41999999934,HIGHPARKS MEDICAL PRACTICE,0.496762,51.434213
102014.42000000004,YALDING,0.429804,51.221188
97600.43999999984,CRAWLEY DOWN HEALTH CENTRE,-0.07762099999999998,51.122557
53856.94999999998,BIRDHURST MEDICAL PRACTICE,-0.092613,51.365279
190184.2399999997,FORESTSIDE MEDICAL PRACTICE,-1.416173,50.851823
53146.76999999998,BENTLEY VILLAGE SURGERY,-0.87992,51.189933
73770.78000000003,DR KUMAR & PARTNER STUDFALL MEDICAL CTR,-0.704816,52.495882
170527.95000000024,CASTLE PLACE PRACTICE,-3.492865,50.908884
145461.10000000018,COTSWOLD MEDICAL PRACTICE,-1.75678,51.886317
154370.3100000001,GLASTONBURY SURGERY,-2.721853,51.148462
149269.35000000015,NUNWELL SURGERY,-2.507177,52.187931
113147.96000000008,CLEOBURY MORTIMER SURGERY,-2.485608,52.377502
135653.1300000001,MEDINA HEALTHCARE,-1.298686,50.697239
120338.76000000008,BEDFORD STREET SURGERY,-0.729782,51.995784
207895.64999999962,ALCHESTER MEDICAL GROUP,-1.138371,51.891398
74078.77999999998,GREENWAY COMMUNITY PRACTICE,-2.611274,51.499595
213973.70999999988,THREE SPIRES MEDICAL PRACTICE,-5.055864,50.259982
173956.24000000008,DEAN CROSS SURGERY,-4.095355,50.358939
110457.47999999998,SOUTHOVER MEDICAL PRACTICE,-3.528075,50.474733
113112.57999999993,NEW VALLEY PRACTICE,-3.654492,50.792383
144101.08999999994,THE STOKE ROAD SURGERY ,-2.068173,51.94667
147657.11000000028,HIGHBRIDGE MEDICAL CENTRE,-2.979117,51.227372
162198.90999999995,CANTILUPE SURGERY,-2.712261,52.055418
129638.83000000023,MYTTON OAK MEDICAL PRACT.,-2.797762,52.707667
85315.64999999994,DRS SHAH & TALPUR,-2.194635,52.974032
76666.61999999998,DR VSR CHADALAVADA,-2.139143,53.0416
100962.64999999986,HAWKESLEY MEDICAL PRACTICE,-1.937498,52.39544
15282.439999999995,KEYNELL COVERT,-1.911857,52.408441
120114.17999999975,PARK MEDICAL CENTRE,-2.873099,53.202665
139227.77999999994,NORWOOD SURGERY,-2.97819,53.65000799999999
116250.08999999994,WHALLEY MEDICAL CENTRE,-2.406348,53.819793
11651.829999999987,SLAIDBURN HEALTH CENTRE,-2.444001,53.967313
95397.52,PIKES LANE 1,-2.446348,53.572728
32055.749999999985,DR PATHAK ND,-1.9843959999999998,52.51273
2912.430000000001,STRELLEY HEALTH CENTRE (COCKRILL),-1.227726,52.973231
67845.7799999999,PHOENIX MEDICAL PRACTICE,0.48126899999999995,51.328805
38699.260000000046,NETHERTON SURGERY,-2.97236,53.488626
48507.06000000003,DILSTON MEDICAL CENTRE,-1.640355,54.976621
15167.459999999995,INTERGRATED COMMUNITY PAEDIATRIC SERVICE,-2.384279,53.582354
68099.99999999999,NORTH CHELMSFORD NHS HCC,0.510815,51.750584
28509.470000000016,KIRKHOLT MEDICAL PRACTICE,-2.162243,53.59832
128.6,WOKING ALEXANDRA WARD,-0.556304,51.315132
299.2399999999999,GPHP - GP IN A&E,-0.273231,51.325518
62057.99999999998,DR AZIM & PARTNERS,-0.225729,51.579655
61.04999999999999,BARTON MOSS SECURE CHILDREN'S HOME,-2.39687,53.468834
50564.49,BHF HIGHGATE SURGERY,-1.378978,53.573614
70897.69000000008,SEASCALE HEALTH CENTRE,-3.479998,54.396756
34746.48000000002,WIDDRINGTON SURGERY,-1.62051,55.240248
63563.58999999997,RIPLEY MEDICAL CENTRE,-1.405723,53.04704
77904.85000000003,DE MONTFORT SURGERY,-1.141192,52.6286
63193.35999999998,DENABY MEDICAL PRACTICE,-1.245792,53.490666
117192.02999999998,MENDLESHAM MEDICAL GROUP,1.0816,52.251866
77429.89000000017,UPTON ROAD SURGERY,-0.401058,51.656689
178020.86999999997,DOLPHIN HOUSE SURGERY,-0.029818,51.810791
80988.96000000005,THE EVERGLADE MEDICAL PRACTICE,-0.24421,51.601578
81838.2500000001,FRIERN BARNET MEDICAL CENTRE,-0.155988,51.613267
36825.66999999998,THE CIVIC MEDICAL CENTRE,-0.337497,51.587155
126526.04999999994,THE GOLD STREET SURGERY,0.240471,52.021716
163965.27000000008,THE HOLLIES,0.610574,51.555461
29459.719999999987,THE LEIGH SURGERY,0.656153,51.555504
88519.42999999996,WEST HAMPSTEAD MEDICAL CENTRE,-0.196578,51.55004
127055.37000000016,STAUNTON GROUP PRACTICE,-0.112926,51.599388
134600.43999999994,SOUTHBROOM SURGERY,-1.989037,51.352288
113994.97000000025,THE DOWNLAND PRACTICE,-1.312402,51.463442
50591.15999999998,BLAKENEY SURGERY,-2.476364,51.759117
145823.24000000008,WELLS HEALTH CENTRE,-2.655326,51.203403
137441.59999999995,RIVERSIDE MED.PRACTICE,-2.755278,52.709209
66950.62000000002,CHANCERY LANE SURGERY,-1.521755,52.536173
64924.69,NECHELLS PRACTICE,-1.876618,52.493743
110934.92999999992,THE LIMES MEDICAL CENTRE,-1.974677,52.58065500000001
86602.72999999995,TOWNFIELD HEALTH CENTRE,-3.064248,53.378798
28767.959999999977,PRINGLE STREET SURGERY,-2.467594,53.742039
65666.55,HOPWOOD MEDICAL CENTRE,-2.212052,53.587143
174354.07,THE KILTEARN MEDICAL CTR.,-2.518506,53.068155
173106.2800000001,BROADWAY MEDICAL CENTRE,-3.033843,53.912667
72605.02,EGERTON/DUNSCAR HEALTH CENTRE,-2.426383,53.617589
271015.5700000001,SADDLEWORTH MEDICAL PRACTICE,-2.004957,53.548331
46558.480000000076,VILLAGE MEDICAL PRACTICE,-2.095994,53.574817
37339.3,EASTGATE SURGERY,-0.519836,51.886145
1.48,ST PETER'S HOSPICE,-2.609013,51.506125
21672.149999999994,SUMMERFIELD GROUP PRACTICE,-1.937353,52.487686
2640.4900000000007,CATS - VERULAM GYNAECOLOGY,-0.302218,51.724886
93533.44000000013,PHOENIX PRIMARY CARE (SOUTH) LTD,-0.441597,51.88973
73174.75000000001,THURROCK HEALTH CENTRE,0.323317,51.477404
985.08,PATIENT FIRST SOCIAL ENTERPRISE,0.006461,51.542096
168.17,SOLENT WEST NMPS,-1.446031,50.92524
3677.15,CWP (WEST) PHYSICAL HEALTH,-2.897884,53.2088
1761.3999999999994,CNWL-MK MEDICAL PRESCRIBER,-0.7357599999999997,52.026384
11.439999999999998,REDDITCH CMHT,-1.940229,52.303594
2130.6500000000005,CAMHS - WORCESTER,-2.183119,52.192425
3.66,HMP LIVERPOOL,-2.969166,53.457543
440.7900000000001,SOTON COMMUNITY ENT SERVICE RSH,-1.397076,50.912389
2931.98,THOMAS LINACRE SPECIALIST,-2.629091,53.55774
4917.029999999998,CARE UK COVENTRY OOH,-1.5080049999999998,52.413401
1073.22,NSC BOSWORTH HUB,-1.7536330000000002,52.480569
3534.430000000001,SKEGNESS & COAST GP EXTENDED ACCESS HUB,0.342219,53.188059
265.99000000000007,COASTAL HEALTH SOUTH,1.715177,52.478072
25209.350000000028,THE OM SURGERY,-1.2057,53.034978
3422.349999999999,LINCOLN OOH,-0.519635,53.233575
108217.19999999997,THE NEW SPRINGWELLS PRACTICE,-0.340804,52.893623
18.130000000000006,HMP/YOI ASKHAM GRANGE,-1.184091,53.925917
253.44,WANDSWORTH COMMUNITY WARDS,-0.145908,51.472301
3529.330000000001,SAME DAY HEALTH CNTRE COASTAL HEALTHCARE,-2.859565,54.072841
9812.469999999992,WHITTINGTON HEALTH (HARINGEY),-0.139066,51.566482
2210.23,PARSONS GREEN WIC,-0.199155,51.47377
43335.590000000026,CAMP HILL GP LED HEALTH CENTRE,-1.507061,52.533074
10938.239999999983,DONCASTER URGENT CARE & OUT OF HOURS,-1.109062,53.530806
441.83,THE CONFEDERATION HILLINGDON CIC,-0.47790600000000005,51.547653
432.80999999999983,SHIRLEY MEDICAL EXTENDED ACCESS LLP,-0.044859,51.375139
1051.4799999999993,EAST CLUSTER IAGPS,-1.82052,50.747482
48.73,HMR CCG HART,-2.152215,53.620446
46272.34,ADHD SPECIALIST NURSING TEAM,-1.9374790000000002,52.436098
40841.72999999999,THE PATEL PRACTICE,-1.1885709999999998,54.661404
154769.64000000007,HOLMSIDE MEDICAL GROUP,-1.66023,54.969004
101240.5400000001,FARROW MEDICAL CENTRE,-1.74312,53.802511
104225.0999999999,PADDOCK AND LONGWOOD FAMILY PRACTICE,-1.80546,53.642119
155282.79999999976,BRAMLEY VILLAGE HEALTH & WELLBEING CTR,-1.623032,53.80781999999999
52347.02999999996,SEVERN SURGERY,-1.065583,52.598801
305709.3999999998,BEACHES MEDICAL CENTRE,1.727734,52.577124
82181.44,LINDEN ROAD SURGERY,-0.479248,52.14361
146532.95999999993,CUFFLEY AND GOFFS OAK MEDICAL PRACTICE,-0.113106,51.708171
709.24,FAIRFIELD HOSPITAL OUT PATIENTS,-2.750074,53.484549
179.29,SOUTH WIGSTON ASYLUM SERVICE,-1.12559,52.63753
642.8100000000002,ARC,-3.002931,53.801771
207.89,PRIMARY CARE ACCESS HUB (SOUTH STOKE),-2.102853,52.97847
0.66,WORKING AGE ADULTS - PULLMAN PLACE,-2.238316,51.866796
1058.91,NEAS SOUTH TYNESIDE CCG,-1.712365,54.969713
2016.9700000000007,GP SERVICES-CRAWLEY HUB,-0.175734,51.240416
2780.14,PROCARE HEALTH SERVICES,-0.708282,51.091746
103.03,GYNAECOLOGY,-2.095555,52.599722
4.010000000000001,HMP WYMOTT,-2.749412,53.678372
9501.87,GLOUCESTER (CARE UK) OOH,-2.30608,51.879263
2714.37,MERTON REHAB BEDS,-0.224115,51.437407
266.51,EXTENDED ACCESS PCD CONISBROUGH GROUP,-1.237653,53.482282
9.0,WIGAN AND LEIGH SEXUAL HEALTH SERVICE,-2.632808,53.547929
167935.9499999999,THE GARTH,-1.055444,54.532597
93734.46999999994,THE GABLES MEDICAL GROUP,-1.564429,55.140811
72432.5499999999,HAYDON BRIDGE & ALLENDALE MEDICAL PRACT,-2.250059,54.975681
87159.32000000012,SPRING TERRACE HEALTH CENTRE,-1.450673,55.010941
111442.30000000012,PRACTICE ONE,-0.201064,54.084715
186149.4400000001,CHURCH STREET SURGERY,-1.583343,53.681523
117673.54999999974,SOUTH WIGSTON HEALTH CTR.,-1.129183,52.580452
36343.91000000004,BRAMCOTE SURGERY,-1.244985,52.935604
126427.9199999999,CAMPINGLAND SURGERY,0.690978,52.645997
199299.9999999999,LEIGHTON ROAD SURGERY,-0.66795,51.915779
145100.11999999988,WILLOW TREE FAMILY DOCTORS,-0.265224,51.589337
82217.20000000013,QUEENS WALK PRACTICE,-0.312985,51.524803
55731.61999999997,HIGH STREET SURGERY  EPPING,0.113402,51.700812
196474.33999999962,OLD ROAD SURGERY,1.148421,51.795466
41997.769999999975,HIGH STREET SURGERY,0.223589,51.561554
119558.83000000006,THE LIMEHOUSE PRACTICE,-0.028747,51.511253
7866.9900000000025,MEDICUS HEALTH PARTNERS-WILLOW HOUSE,-0.07659,51.654209
66136.38999999997,MAIDSTONE RD RAINHAM SURGERY,0.600379,51.36233
41527.900000000016,BANK HOUSE SURGERY,0.069949,51.359218
61787.0100000001,FORDBRIDGE MEDICAL CENTRE,-0.46301,51.431269
96628.10999999987,EVERSLEY MEDICAL CENTRE,-0.11191300000000001,51.388514
84108.43000000025,YORK MEDICAL PRACTICE,-0.325697,51.449369
57403.07999999996,BERRYLANDS SURGERY,-0.299929,51.390825
111740.49,CRICKET GREEN MEDICAL PRACTICE,-0.174025,51.404579
85103.2900000001,CARRINGTON HOUSE SURGERY,-0.749217,51.632299
30991.90999999997,PROSPECT HOUSE SURGERY,-0.705258,51.701136
35193.999999999985,WEMBURY SURGERY,-4.072566,50.32186
72528.88000000003,HOLLYOAKS MEDICAL CENTRE,-1.869052,52.377979
107223.7299999998,WOODSETTON MEDICAL CENTRE,-2.10089,52.537994
118938.90000000002,SHERWOOD HOUSE MEDICAL PRACTICE,-1.959426,52.473851
25551.93999999999,GARSTON FAMILY HEALTH CENTRE,-2.89683,53.353909
89645.68000000008,COMMONFIELD RD SURGERY,-3.086369,53.370187
85460.4099999999,THE BORCHARDT MEDICAL CENTRE,-2.237795,53.434307
40239.84000000003,WERNETH MEDICAL PRACTICE,-2.126938,53.53497
18353.66,CHAPEL MEDICAL CENTRE,-2.418293,53.449094
60903.28,DR VICTORIA MUIR'S PRACTICE,-0.151358,51.490651
175521.47000000006,WELLFIELD MEDICAL CENTRE,-2.242019,53.512545
155419.41999999995,NEWLANDS MEDICAL CENTRE,-1.226035,54.571931
128071.35999999994,WIGTON GROUP MEDICAL PRACTICE,-3.159002,54.820303
47080.75000000001,THE FAMILY PRACTICE,-3.229282,54.116755
226023.33999999988,SKERNE MEDICAL GROUP,-1.4488,54.654032
134220.30999999988,ST ANDREWS SURGERY,-0.361958,53.735566
64597.18000000002,COWGILL SURGERY,-1.814543,53.781952
139113.67000000013,VILLAGE SURGERY,-1.485797,52.896347
49737.29,THE GLENSIDE COUNTRY PRACTICE,-0.537958,52.75451
42837.769999999975,PLEASLEY SURGERY,-1.250873,53.175809
97514.5,BACON LANE SURGERY,-0.275903,51.605078
125234.16999999982,THE MEDICAL CENTRE  DR JEFFERIES & PARTN,-0.212607,51.481206
49411.63,MEANWHILE GARDEN MEDICAL CENTRE,-0.203126,51.522228
208013.86000000025,THE LIMES MEDICAL CENTRE,0.123958,51.706179
108611.74999999993,CHIGWELL MEDICAL CENTRE,0.083876,51.60551
32431.300000000036,NORTH AVENUE SURGERY,0.735187,51.546618
43983.52999999998,ROSERTON STREET SURGERY,-0.010049,51.498482
2069.23,MEDICUS HEALTH PARTNERS- BUSH HILL PARK,-0.066545,51.63953
142996.14999999994,ALBION PLACE MEDICAL PRACTICE,0.529542,51.274206
44390.55000000001,OLD PARSONAGE SURGERY,0.460418,51.112785
82558.39999999994,TRIVENI PMS,0.058438,51.490321
106889.61000000004,HAWTHORNS SURGERY,-0.175174,51.241163
114909.12999999989,TRINITY MEDICAL CENTRE,-0.158437,51.437554
32024.730000000003,MITCHAM FAMILY PRACTICE,-0.167118,51.410109
86741.00999999992,THE WELLBRIDGE PRACTICE,-2.225354,50.679039
167937.90999999986,THE HARVEY PRACTICE,-1.993525,50.761018
223607.92999999976,HOMEWELL.CURLEW PRACTICE,-0.978019,50.851067
165185.61999999982,SPA MEDICAL CENTRE,-2.126012,51.366868
79968.69000000002,COOKHAM MEDICAL CENTRE,-0.725805,51.558356
122004.69,THE MISBOURNE SURGERY,-0.558045,51.607786
160802.25000000026,ORCHARD MEDICAL CENTRE,-2.510659,51.462087
68652.01000000005,LYNGFORD PARK,-3.090916,51.036442
172059.6900000001,STAFFORD HEALTH AND WELLBEING,-2.123291,52.817722
59346.38000000004,BOURNBROOK VARSITY MEDICAL CENTRE,-1.929903,52.445713
33929.74999999996,CAUSEWAY GREEN ROAD SURGERY,-2.014697,52.484564
132412.7400000001,PATTERDALE LODGE MED CTRE,-2.64461,53.452446
128175.39999999994,SUNLIGHT GROUP PRACTICE,-3.00005,53.363076
69907.81999999999,SHAY LANE MEDICAL CENTRE (KELMAN),-2.31556,53.372189
87355.59999999992,BLYTH ROAD MEDICAL CENTRE,-1.20365,53.422231
27765.56,INSPIRING RECOVERY SERVICE,-1.497086,53.68441
86200.50000000013,CENTRAL MEDICAL CENTRE,-0.245977,52.587
83788.00999999994,HARBOUR MEDICAL PRACTICE,0.324489,50.797353
123.17999999999996,URGENT CARE CTR (FCMS) OOH,-3.015863,53.820616
157973.17000000007,MORRAB SURGERY,-5.538987,50.116924
173974.19,WILLOW BANK SURGERY,-2.102853,52.97847
151908.7700000001,EVERGREEN PRIMARY CARE CENTRE,-0.059836,51.623784
88.67999999999998,MEANWOOD GROUP PRACTICE ENT SERVICE,-1.565811,53.827167
7732.090000000003,BHC NON MEDICAL PRESCRIBERS,0.010423,51.377216
137.51,SCS DIABETES SERVICE,-0.150861,51.357264
311.18,M & A LTC PALLIATIVE CARE NURSE,-1.238124,52.98146
10789.420000000002,BARDOC GP OOH,-2.427769,53.590447
2765.3100000000013,BANES ENHANCED MEDICAL SERVICE (BEMS+),-2.372621,51.358169
479.65,ADULT ADHD SERVICE NMP 1,-0.955523,51.450745
9615.65,SHAKESPEARE WIC,-1.525196,53.802098
511.80999999999995,BROOMFIELD DOCTOR IN ED,0.465993,51.774654
396.56000000000006,CCG ACUTE VISITING SERVICE,-2.178123,53.021853
532.2900000000001,NEWMEDICA COMMUNITY OPHTHALMOLOGY,-0.108523,53.567689
1586.1500000000005,LGI GPS IN A+E,-1.551744,53.801445
1534.5700000000006,M&A AHVS (PICS),-1.238124,52.98146
130999.8899999999,BARBOURNE HEALTH CENTRE,-2.224952,52.208752
61299.42000000005,CRAVEN ARMS SURGERY,-2.835416,52.442323
248861.02999999953,THE HAYMARKET HEALTH CTR,-2.211781,53.060343
74627.45999999998,GOLDENHILL MEDICAL CENTRE,-2.221385,53.076901
102249.11,JIGGINS LANE MEDICAL CENTRE,-1.995411,52.436801
2052.76,DARTMOUTH MEDICAL CENTRE,-2.005409,52.520435
69076.43000000002,ARRAN MEDICAL CENTRE,-1.748679,52.50386700000001
126024.29000000015,CHAPEL LANE SURGERY,-3.061428,53.557075
71467.73000000004,HEATHERLANDS MED CTR,-3.089543,53.381475
70362.81999999999,GUTTERIDGE MEDICAL CENTRE,-2.691248,53.769881
41318.28000000001,TOWN HALL SURGERY,-2.092973,53.478374
63887.42000000008,LILFORD PARK SURGERY,-2.511455,53.503236
13418.759999999993,PEEL PRECINCT SURGERY,-0.198814,51.534421
85144.81000000008,CATHEDRAL MEDICAL CENTRE,0.275488,52.413145
3765.2699999999986,NDUC NEWCASTLE GATESHEAD OOH,-1.58819,55.01931999999999
287.05,ANTICOAG SERV YARDLEY WOOD,-1.859168,52.418648
75.75000000000001,IPU10-17 EIT NW & RUGBY,-1.477708,52.526988
1301.04,MARSDEN INTERMEDIATE CARE,-1.696689,53.676075
1748.9300000000005,EXTENDED ACCESS PRIMARY CARE HUB,-0.079465,51.533775
59.22000000000001,PCH WARD,-2.077775,52.114052
205.7,GREENWICH COMMUNITY HOSPICE,0.118096,51.482685
713.6099999999999,LCW WLCCG OOH,-0.217218,51.522362
27962.690000000013,MALLING HEALTH AT STOKE ALDERMOOR,-1.479565,52.402142
1897.56,WARWICK MYTON HOSPICE,-1.55866,52.28263
4588.180000000002,THGPCG SERVICE OOH,-0.004927,51.514483
1210.98,EPILEPSY NURSE CANNOCK,-2.030614,52.693241
62741.34000000001,DENMARK ROAD SURGERY,-0.06725100000000002,51.393136
33.36,COMMUNITY CATARACT SERVICE,-1.421662,53.698109
3653.18,VC WEST LANCS HC-UCC,-2.871252,53.564616
1561.2300000000002,HOME VISITING SERVICE,-2.165957,53.412542
95974.38999999987,MEIR PARK & WESTON COYNEY MEDICAL PRACT,-2.094889,52.966305
68878.41000000008,HAMSTEAD ROAD SURGERY,-1.919012,52.504474
118049.59000000005,OAKWOOD SURGERY,-1.858645,52.444556
28061.020000000015,SURGERY AUBERY ROAD,-1.846411,52.46633
47362.81000000001,MOXLEY MEDICAL CENTRE,-2.051113,52.560033
98674.79000000015,NORTH PARK HEALTH CENTRE,-2.995994,53.458392
27905.450000000008,MEDICARE UNIT SURGERY,-2.69241,53.725239
89332.54999999986,LOSTOCK MEDICAL CENTRE,-2.328128,53.45458000000001
53502.280000000086,THE GROVE MEDICAL PRACTICE,-0.362401,51.55534
52121.93000000002,THE GAMSTON MEDICAL CTR.,-1.100495,52.924252
80977.29000000002,LANGLEY MEDICAL PRACTICE,-0.299929,51.390825
194.03,TELFORD OOH,-2.732712,52.740396
49605.410000000076,THE DURU PRACTICE,-2.116945,53.543824
44283.31999999999,ADDICTIONS SERVICE,-1.607294,54.973724
21466.32,NHS BWD SUBSTANCE MISUSE SERVICE,-2.481065,53.75065
364.95000000000016,PRACTICE OPHTHALMOLOGY SERVICE HARINGEY,-0.574826,51.671154
212.25,CRISIS RESPONSE TEAM,-2.186902,53.52264
227.02,EVESHAM CMHT,-1.950714,52.086053
20.17,EARLY INTERVENTION NORTH SERVICE,-2.055662,52.344136
584.9599999999998,RAMSAY HEALTHCARE - NORTH DOWNS HOSPITAL,-0.079153,51.273556
474.41,WILLEN HOSPICE,-0.719831,52.062768
2569.840000000001,CENTRAL DURHAM GP EXT'D ACCESS SERVICE,-1.56716,54.7787
3563.46,QMUL TOBACCO CESSATION SERVICE,-0.047357,51.522265
42237.629999999954,SHAP MEDICAL PRACTICE,-2.677931,54.52889
243400.0699999998,AUCKLAND MEDICAL GROUP,-1.678996,54.648085
134452.22000000006,THE GLEN MEDICAL GROUP,-1.52187,54.97385
231928.11,ASHBY TURN PRIMARY CARE PARTNERS,-0.6542,53.566147
526102.0199999998,HAXBY GROUP PRACTICE,-1.081866,54.019329
34018.59999999999,BRADFORD MOOR PRACTICE,-1.7218490000000002,53.797834
195430.65000000029,ASH GROVE,-1.245572,53.704968
149403.49000000002,MILLVIEW MEDICAL CENTRE,-0.30904,52.981326
115566.27000000006,HOLLIES MEDICAL CENTRE,-1.494834,53.363179
22501.369999999995,VERITAS HEALTH CENTRE,-1.481026,53.354257
1249.65,BRETTON MEDICAL PRACTICE,-0.281891,52.590431
150928.0200000002,LONG STRATTON MEDICAL PARTNERSHIP,1.229088,52.491027
163334.87999999966,THE NEVELLS ROAD SURGERY,-0.22942,51.980882
127958.89999999985,THE HEALTH CENTRE PRACTICE,-0.020738999999999997,52.048757
65980.46000000005,HIGHFIELD SURGERY,-0.459233,51.766434
65995.04000000002,BELGRAVIA SURGERY,-0.14856,51.495004
22550.43999999997,COLLINGWOOD ROAD SURGERY,0.638271,51.802938
101628.77000000015,CHAPEL STREET SURGERY,0.051144,50.79327
119780.45999999992,STOCK HILL SURGERY,0.031768,51.312089
60463.69000000007,CLAREMONT MEDICAL CENTRE,-0.306132,51.390808
116386.00000000016,WATERFRONT AND SOLENT SURGERY,-1.403379,50.870013
59993.54999999993,GREEN PRACTICE,-0.371755,51.468263
67951.82,THE ABBOTSBURY PRACTICE,-0.397406,51.579266
156417.95999999973,NUFFIELD HOUSE HEALTH CENTRE,0.112828,51.774439
121865.55999999994,MARTINS OAK SURGERY,0.483675,50.91716
69842.79999999999,THE GLEBE FAMILY PRACTICE,0.544473,51.383164
100531.02,MALLING HEALTH BLUE SUITE,0.609995,51.363412
137824.87999999974,KNOLL MEDICAL PRACTICE,0.101068,51.375411
52094.97,CLIFTON RISE FAMILY PRACTICE,-0.03143300000000001,51.476334
45547.93999999999,BLACKFRIARS MEDICAL PRACTICE,-0.105775,51.505364
201947.45999999996,HASLEMERE HEALTH CENTRE,-0.707586,51.092107
153706.19000000006,FARNHAM DENE MEDICAL PRACTICE,-0.777405,51.200549
101022.37999999992,THE DORCHESTER RD SURGERY,-2.457512,50.625193
48322.26,CRONDALL NEW SURGERY,-0.858386,51.237211
79672.60000000008,ST.JAMES SURGERY,-1.989956,51.352926
44348.74999999998,CORDWALLIS ROAD SURGERY,-0.7240259999999998,51.528097
143832.06999999992,BOTLEY MEDICAL CENTRE,-1.299442,51.753753
70797.59999999999,ST. MARY'S SURGERY,-2.479869,51.326082
122471.55000000006,QUEEN'S MEDICAL CENTRE,-4.057196,51.080161
231618.71999999977,BRUNEL MEDICAL PRACTICE,-3.516948,50.479349
62213.08000000003,EXMOOR MEDICAL CENTRE,-3.544825,51.038507
46063.99000000002,CHADDESLEY SURGERY,-2.158038,52.361961
221146.60999999972,THE MANOR PRACTICE,-1.8236169999999998,52.55816
55007.05000000001,CHARLES ROAD SURGERY,-1.850621,52.4722
120801.67999999985,DUNCAN STREET PRIMARY CARE PARTNERSHIP,-2.126602,52.57346999999999
103805.73999999986,DR JUDE'S PRACTICE - RIVERSIDE,-2.943016,53.398876
82875.84000000008,WESTOVER SURGERY,-5.07501,50.148927
22830.049999999992,LANGTHORNE SHARMA FAMILY PRACTICE,0.0021,51.555415
32161.07999999999,THE MANOR PARK PRACTICE,0.057339,51.55393
132204.54000000007,WEST MEADS SURGERY,-0.701481,50.788299
48683.76,TRENTHAM MEWS MEDICAL CENTRE,-2.189898,52.970452
52677.09000000006,WILLESDEN GREEN SURGERY,-0.216091,51.553773
15071.249999999995,NATIONAL SOCIETY FOR EPILEPSY,-0.551146,51.62127
22924.40999999997,THE SUMMITT PRACTICE,0.04536,51.539588
3783.6700000000014,SELDOC HEALTHCARE,-0.283378,51.412517
322.86,WESTMINSTER DIABETES CENTRE,-0.169323,51.524736
186.68,MOSAIC,-2.160927,53.406906
596.2499999999998,PARKFIELD (H) MINOR EMERGENCY,-3.00005,53.363076
1.82,HV SCARBOROUGH,-1.517573,53.993807
917.5700000000003,PRUH URGENT CARE CENTRE,0.059146,51.366243
233.71,CANNOCK MINOR INJURIES UNIT,-2.030614,52.693241
2807.360000000001,PBORO WEEKEND HOURS GP PILOT,-0.279386,52.583921
2829.089999999999,WIDNES GP EXTRA SERVICE,-2.735705,53.362158
6007.32,ADDACTION HARTLEPOOL,-1.206132,54.684625
7413.060000000002,ADDACTION REDCAR & CLEVELAND - REDCAR,-1.059041,54.617383
202.18,MALLING CLUSTER,0.277462,51.194717
86179.3600000001,DR THORNILEY-WALKER & PARTNERS,-1.460703,54.949762
34592.36999999998,DR U AKBAR,-1.777945,53.803569
147136.36000000002,BROOKROYD HOUSE,-1.67818,53.707224
57815.29999999998,AIREBOROUGH FAMILY PRACTICE,-1.684881,53.866663
141819.93000000025,BUSHLOE SURGERY,-1.116921,52.583283
139863.38000000006,THE BURBAGE SURGERY,-1.361645,52.53009599999999
30735.63999999999,PASLEY ROAD HEALTH CENTRE (TK KHONG),-1.146741,52.591287
219066.58999999973,NETTLEHAM MEDICAL PRACTICE,-0.476253,53.262865
32712.509999999966,HAROLD STREET MEDICAL CENTRE,-1.492871,53.393121
37692.05000000002,UNIVERSITY HEALTH SERVICE HEALTH CENTRE,-1.482709,53.380323
90126.98999999979,LEISTON SURGERY,1.575953,52.207708
81815.39000000014,HEATHFIELDE MEDICAL CENTRE,-0.179797,51.585238
89739.8999999999,BRENTFIELD MEDICAL CENTRE,-0.260251,51.550588
75711.16000000003,DR NAVIN KUMAR,0.70187,51.544989
30002.57,RUSTON STREET CLINIC,-0.027306,51.536264
112776.28999999994,SCHOOL HILL MEDICAL PRACTICE,0.012064,50.873469
144134.74000000017,MOTE,0.545625,51.246876
161062.5300000001,SHEPPERTON MEDICAL PRACTICE,-0.453153,51.396402
148385.74000000025,GRAYSHOTT SURGERY,-0.745626,51.110093
151410.88000000006,THE MANOR PRACTICE,-0.234983,50.835138
78779.51999999993,HAMPTON HILL MEDICAL CENTRE,-0.354892,51.427508
27915.74999999999,CLAPHAM JUNCTION MEDICAL PRACTICE,-0.173908,51.465969
44280.45000000002,OLD SCHOOL HOUSE SURGERY,-1.604408,51.376032
138206.07999999993,WINSCOMBE SURGERY,-2.830537,51.315196
396826.75999999966,PEMBROKE MEDICAL GROUP,-3.560246,50.445527
806.3099999999997,ST PETER'S URGENT TREATMENT CENTRE,-0.52706,51.377832
40529.97,PRIORY ROAD SURGERY,0.589253,50.860828
235811.08999999988,SWANSCOMBE HEALTH CENTRE,0.28731,51.424657
66279.74999999993,ELTHAM PARK SURGERY,0.061023,51.4547
103619.61999999986,JAMES O'RIORDAN MEDICAL CENTRE,-0.212686,51.385157
282991.7799999997,WISTARIA & MILFORD SURGERIES,-1.547285,50.760041
55207.770000000026,27 BEAUMONT STREET,-1.26216,51.755081
60374.28999999995,WIDCOMBE SURGERY,-2.354321,51.376371
17252.909999999993,ST LUKES MEDICAL CENTRE,-3.517636,50.394313
73520.15000000007,FRITHWOOD SURGERY,-2.162379,51.729707
142533.2100000001,HILLVIEW MEDICAL CENTRE,-1.951153,52.305568
116657.39000000016,GORDON STREET SURGERY,-1.644613,52.810998
60273.349999999984,LONGTON MEDICAL CENTRE,-2.770123,53.417492
90765.05999999969,PRIMROSE SURGERY,-2.357311,53.456159
129355.57999999994,DR AHMAD & PTNRS,-2.595925,53.522279
54321.52,THE OLD DAIRY HEALTH CENTRE,-0.091201,51.436586
101089.77999999988,THE ISLAND SURGERY,0.591014,51.520226
90321.32999999993,JS MEDICAL PRACTICE,-0.078706,51.589103
111510.16999999993,GATEWAY PRIMARY CARE,-1.352431,53.429997
4434.999999999999,BRADFORD DERMATOLOGY SERVICE,-1.781103,53.830481
37751.870000000046,ESSINGTON MEDICAL CENTRE,-2.056915,52.63194
10506.349999999991,SUMMERFIELD GP SURG & URGENT CARE CENTRE,-1.937353,52.487686
49590.59,HAVERING CCG,0.179796,51.579247
1566.1500000000005,THE EDWIN LOBO UNIT,-0.450138,51.918004
1426.4300000000005,MUSCULOSKELETAL INTERFACE SERVICE,-2.845905,51.437919
916.92,WF OA CMHT,-2.261161,52.386056
64335.770000000106,THE WILLASTON SURGERY,-3.011643,53.292908
1338.78,SOUTH KENT GROUP,1.118942,51.075872
1295.9699999999998,EPUT TISSUE VIABILITY,0.12393,51.704295
5586.230000000002,SUTTON COMMUNITY SERVICES,-0.183642,51.380313
7466.83,WHITTINGTON HEALTH (ISLINGTON),-0.139066,51.566482
46035.21000000001,WYRE FOREST COUNTYWIDE NURSES,-2.244954,52.387785
1134.1,ST MICHAELS HOSPICE,-1.518091,53.977242
7672.489999999992,URGENT CARE CENTRE NORTHWICK PARK HOSP,-0.322037,51.575407
326.86,QVM HOSPITAL,-0.222867,51.827957
462.56999999999994,SLEAFORD EXTENDED ACCESS K2,-0.406507,52.997784
102072.16999999988,STONELEIGH SURGERY,-2.770704,54.227277
42968.04999999999,BROWNEY HOUSE SURGERY,-1.670679,54.800313
146689.48999999993,TOWNHEAD SURGERY,-2.276903,54.070534
55851.53000000006,HORNE STREET SURGERY,-1.871717,53.725678
111068.32999999994,HONLEY SURGERY,-1.791936,53.602386
136647.06999999998,GOSBERTON MEDICAL CENTRE,-0.159263,52.869915
137123.74000000017,THE MANOR SURGERY,-1.216371,52.925036
71243.59999999993,PROSPECT MEDICAL PRACTICE,1.285656,52.643921
113264.79999999989,THE GARDEN CITY PRACTICE,-0.209287,51.797151
90116.64999999998,MAPESBURY MEDICAL GROUP,-0.209473,51.551496
116078.22000000006,RIVERMEAD GATE MED.CTR.,0.472887,51.740849
66463.99,ROMAN WAY MEDICAL CENTRE,-0.10550599999999999,51.544561
51487.839999999924,CHOLMLEY GARDENS SURGERY,-0.195423,51.552261
118547.74000000006,ESSEX LODGE,0.026685000000000004,51.527915
99897.13000000014,GROVELANDS MEDICAL CENTRE,-0.112028,51.620685
221669.95999999996,HIGH GLADES MEDICAL CENTRE,0.551301,50.878354
109258.79999999992,ST JAMES' SURGERY,1.315702,51.128516
41346.68999999999,OXSHOTT MEDICAL PRACTICE,-0.360843,51.333099
135413.54999999987,BRIDGE MEDICAL CENTRE,-0.166439,51.117364
89133.87999999998,LAVENDER HILL GROUP PRACTICE,-0.15683,51.466044
155018.10000000015,THE CRANBORNE PRACTICE,-1.9192779999999998,50.919773
144652.70999999976,ST.MARY'S SURGERY,-1.397475,50.905746
108390.35,NEW FOREST MEDICAL GROUP,-1.576665,50.81471
136420.25000000006,SWALLOWFIELD MEDICAL PRACTICE,-0.958531,51.378289
102675.49999999996,CHERRYMEAD SURGERY,-0.700228,51.608271
164579.32999999987,HORFIELD HC,-2.576275,51.489998
80211.29000000005,CARNON DOWNS SURGERY,-5.091905,50.22345
61783.929999999935,WHITE HOUSE SURGERY,-1.705957,51.983554
65560.41000000003,SPRINGMEAD SURGERY  CHARD,-2.967972,50.869562
109726.5900000001,CHURCH STRETTON MEDICAL CENTRE,-2.806169,52.537286
118092.72,DR KS UPTON'S PRACTICE,-1.986582,52.988358
128723.52000000008,KINGSWAY MEDICAL CENTRE,-1.289009,54.606459
89789.39999999997,WARWICK ROAD SURGERY,-2.928541,54.893858
80346.76000000002,PRUDHOE MEDICAL GROUP,-1.853822,54.96186
137786.7599999999,TALBOT MEDICAL CENTRE,-1.440661,54.973054
54134.20000000005,NOVA SCOTIA MEDICAL CNTR,-1.373051,53.747561
104878.77999999994,ARTHUR MEDICAL CENTRE,-1.422636,53.001503
126191.37999999989,WOODVILLE SURGERY,-1.5365030000000002,52.770685
154092.41,NEWBOLD VERDON MED.PRACT.,-1.34334,52.634612
115653.97999999994,PORTLAND MEDICAL PRACTICE,-0.539074,53.22371999999999
146864.29000000018,TORKARD HILL MEDICAL CTRE,-1.207389,53.029901
51900.12999999998,BAKERSFIELD MEDICAL CENTRE,-1.104957,52.960219
98454.75999999998,HIGH STREET PRACTICE,-1.458313,53.597926
100982.4099999999,VILLAGE SURGERY,-1.251934,53.39421
27618.239999999976,ALLENBY CLINIC,-0.376261,51.531514
283497.0399999995,DR PUZEY DR KOTHARI AND DR NANDA,0.705992,51.582107
82809.77000000003,DR BAKER & PARTNERS,0.548167,51.570733
40348.52,INGREBOURNE MEDICAL CENTRE,0.210579,51.600308
75627.69999999987,THE ORDNANCE UNITY CENTRE FOR HEALTH,-0.039073,51.672653
61523.92999999999,CROUCH HALL ROAD SURGERY,-0.127301,51.579178
169708.41999999993,CENTRAL SURGERY,-0.299929,51.390825
128899.43999999974,ST PAUL'S SURGERY,-1.32139,51.065963
87298.48000000008,SHEET STREET SURGERY,-0.605507,51.479648
182773.01999999996,HEDENA HEALTH,-1.204547,51.76203
80814.05999999998,BLOXHAM SURGERY,-1.372977,52.018108
117906.19000000006,KINGTON MEDICAL PRACTICE,-3.022556,52.199361
223102.04999999964,SEVERN FIELDS MEDICAL PRACTICE,-2.721619,52.728047
47754.729999999974,SELLY OAK HEALTH CENTRE,-1.939144,52.438251
256631.45999999996,PEELHOUSE MEDICAL PLAZA,-2.72256,53.372135
177418.58000000028,CUMBERLAND HOUSE SURGERY,-2.990437,53.638743
88320.50999999992,LANE ENDS SURGERY,-2.727014,53.770173
36549.55,HOLLINS GROVE SURGERY,-2.477472,53.705346
92313.37000000014,WHITTAKER LANE MED CENTRE,-2.268645,53.528488
99514.25000000007,WEST GORTON MEDICAL PRACTICE,-2.203859,53.46720500000001
35331.97999999998,OLDHAM FAMILY PRACTICE,-2.116945,53.543824
43216.32999999999,SHAY LANE MEDICAL CENTRE (PATEL),-2.31556,53.372189
1379.2300000000002,AT HOME SERVICE,-0.10603,51.438104
86221.04000000005,NMP CASTLE POINT AND ROCHFORD CCG,0.702782,51.583955
693.6800000000002,MFT CHILDRENS COMMUNITY SERVICES,-2.25528,53.390625
6730.969999999998,NON MEDICAL PRESCRIBERS,-0.8019889999999998,51.797983
4192.440000000001,WYRE FOREST ADMISSION PREVENTION TEAM,-2.261161,52.386056
7572.139999999998,GP HUBS - GP HEALTH PARTNERS LTD,-0.266331,51.334184
93.99,HEALTH HARMONIE GYNAECOLOGY,-1.922375,52.471325
227.17,SALFORD ACUTE HOME VISITING SERVICE,-2.33763,53.484827
443.9599999999997,NORTH COTSWOLDS IMPROVED ACCESS,-2.239997,51.862659
1537.65,COMMUNITY TISSUE VIABILITY SERVICE,-2.681273,53.496386
200.05,EXTENDED ACCESS PCD TICKHILL SURGERY,-1.110773,53.43304499999999
213773.2900000003,BIRTLEY MEDICAL GROUP,-1.576441,54.891881
191493.67000000004,THE LEEDS ROAD PRACTICE,-1.535156,53.980466
77558.37000000005,APOLLO COURT MEDICAL CENTRE,-1.524816,53.542364
137072.82999999993,THE LAKESIDE PRACTICE,-1.148909,53.61549599999999
99743.49999999983,FOXHILL MEDICAL CENTRE,-1.501327,53.429911
69489.42,WESTWOOD CLINIC,-0.269054,52.591395
96690.98999999986,THEOBALD MEDICAL CENTRE,-0.285584,51.661381
91140.11000000004,SUDBURY & ALPERTON MEDICAL CENTRE,-0.298046,51.536916
11288.189999999993,THE SURGERY,-0.184519,51.497627
207297.08999999985,CHURCHILL MEDICAL CENTRE,-0.018466,51.618226
148171.2999999998,THE CHESTERFIELD DRIVE PRACTICE,1.132012,52.07623
137290.4200000002,COMBS FORD SURGERY,0.995999,52.180181
75294.64999999992,CAULDWELL MEDICAL CENTRE,-0.472495,52.128265
89732.21999999996,PRIORY MEDICAL CENTRE,-0.50567,52.167181
98011.60000000003,HILLVIEW SURGERY,-0.318331,51.540536
45480.94000000004,DR HAFFIZ,-0.119262,51.539321
36004.52000000001,SANDRINGHAM PRACTICE,-0.067207,51.547773
14521.280000000004,ESK ROAD MEDICAL CENTRE,0.024266,51.522454
52579.37000000002,MONTPELIER SURGERY,-0.149079,50.827148
101335.18999999992,THE AVENUE SURGERY,-0.113425,50.844357
264527.9200000001,REACH HEALTHCARE,0.52408,51.337756
48224.15999999997,SELLINDGE SURGERY,1.002785,51.103536
133498.59,LAKESIDE MEDICAL,0.122454,51.496518
99584.03000000016,CAMBERLEY HEALTH CENTRE,-0.754069,51.324435
212031.86999999968,HARBOUR VIEW HEALTHCARE,-0.27437,50.833817
125719.02000000018,NEW POND ROW SURGERY,-0.322292,50.824911
60269.830000000075,FLOOD (ESSEX HOUSE),-0.247469,51.472541
195032.7999999997,WILSON PRACTICE,-0.966958,51.153736
59352.74999999999,WOLLASTON AND BOZEAT SURGERIES,-0.674311,52.252471
141413.72,LEAP VALLEY MEDICAL CENTRE,-2.487852,51.496541
153020.06000000014,KINGSTEIGNTON MEDICAL PRACTICE,-3.597395,50.54898
126328.00999999985,ST.LEVAN SURGERY,-4.177328,50.383921
297079.1200000001,STIRCHLEY MEDICAL PRACTICE,-2.433777,52.655188
95896.59000000004,LUDLOW - PORTCULLIS,-2.715958,52.368905
102157.25999999997,BARTON,-1.725223,52.761751
59153.640000000065,RED LION SURGERY,-2.030614,52.693241
11858.89,DADHANIA SURGERY,-1.491047,52.405815
38102.37,ST JAMES MEDICAL PRACTICE1,-2.097323,52.514234
32550.09,HAWTHORNS MEDICAL CENTRE,-1.967268,52.501507
36478.13000000001,BROWNLOW AT MARYBONE,-2.987806,53.411269
84917.12000000013,MORETON MEDICAL CENTRE,-3.110005,53.39886
69987.92000000001,LITTLE LEVER HEALTH CENTRE 1,-2.370624,53.55981800000001
56896.67000000003,WOODBANK SURGERY,-2.308802,53.60507
84600.53000000007,DRS HANIF &  BANNURU,-2.184157,53.484308
21882.17000000002,4/LOWER BROUGHTON MEDICAL PRACTICE,-2.258808,53.49359
196644.30000000016,BRINNINGTON SURGERY,-2.132367,53.427651
104311.55000000034,CONWAY ROAD MEDICAL PRACTICE,-2.303561,53.417873
55997.07999999996,DESFORD MEDICAL CENTRE,-1.296116,52.627473
20838.189999999995,DR VIJE'S SURGERY,-1.650877,52.617569
34045.950000000004,HIGHFIELD HEALTH,-1.395746,50.932777
960.5199999999999,ALICE HOUSE HOSPICE,-1.224421,54.704049
9081.32,DR R SHARMA'S PRACTICE,-0.096482,51.499125
29037.859999999986,HALF PENNY STEPS HEALTH CENTRE,-0.206044,51.526213
261939.20000000024,NORTON MEDICAL CENTRE,-1.308737,54.588737
534883.7100000001,CARLISLE HEALTHCARE,-2.930647,54.893714
33975.76999999997,PEEL PARK SURGERY,-1.731903,53.806791
126250.71,MAYBUSH MEDICAL CENTRE,-1.489249,53.670273
127494.12,THE GOLDEN BROOK PRACTICE,-1.272531,52.901553
139644.78999999983,IBSTOCK HOUSE SURGERY,-1.401818,52.684869
144503.60000000006,RUSKINGTON SURGERY,-0.400977,53.048226
159218.8400000001,BARNBY GATE SURGERY,-0.8049699999999999,53.074931
70768.56000000008,DUKE MEDICAL CENTRE,-1.455657,53.378576
36908.48999999996,FALKLAND HOUSE SURGERY,-1.514423,53.359728
176537.25000000015,PRIORY FIELDS SURGERY,-0.179856,52.332272
64865.68,BOURN SURGERY,-0.063404,52.193155
107184.6100000001,COACHMANS MEDICAL PRACTICE,-0.203875,51.096335
131455.0399999998,MILTON KEYNES VILLAGE SURG,-0.697865,52.043891
74807.49000000006,DRS DE ROSA & WILLIAMS,-2.167857,52.569265
15515.17,COMMUNITY DRUG TEAM,-2.164111,53.409517
2308.360000000001,CHILD AND FAMILY SERVICES,-1.5080049999999998,52.413401
3762.3,GPSI PALLIATIVE CARE,-3.007792,53.502483
358.05,COMMUNITY PAEDIATRICIANS-SOUTHWARK,-0.081097,51.474092
22.43,COMMUNITY CARDIOLOGY SERVICE,0.15356,51.455555
3958.4799999999987,INTERMEDIATE CARE-GP SERVICE,-2.130253,53.548188
874.36,THE PRACTICE OPHTHALMOLOGY,-1.245572,53.704968
17431.78,BASSETLAW HEALTH PARTNERSHIP,-0.950634,53.325451
6841.849999999998,DMC COMMUNITY DERMATOLOGY SFSS,-2.98492,53.449136
126.48,DEPARTMENT OF PODIATRIC SURGERY,-1.143101,53.130244
28.290000000000006,MERIDIAN HOUSE - AIREWHARFE CMHT,-1.895521,53.873987
985.07,COMMUNITY WARFARIN SERVICE,-1.467656,52.523302
787.9099999999999,NEWMEDICA GLOUCESTERSHIRE,-2.225797,51.865969
153919.60000000006,FIELDHOUSE MEDICAL GROUP,-0.112579,53.564436
183176.82999999973,HEREWARD MEDICAL CENTRE,-0.380913,52.768626
78567.64000000007,SAXON CROSS SURGERY,-1.273642,52.931099
232952.9799999997,PENISTONE GROUP PMS PRACTICE,-1.630732,53.523565
90952.88999999987,THE NAYAR PRACTICE,-1.1933790000000002,53.480824
56378.27999999997,DR RAOLU'S PRACTICE,-1.204348,53.423549
153513.50999999975,THE PARK SURGERY,1.7292759999999998,52.606218
123399.36999999992,EAST BARNET HEALTH CENTRE,-0.166424,51.646339
70945.06999999998,LANFRANC MEDICAL CENTRE,-0.332746,51.561586
40508.83999999995,THE TUDOR HOUSE MEDICAL CENTRE,-0.266689,51.564495
108232.00999999997,LABURNUM HEALTH CENTRE,0.151208,51.560662
20652.029999999995,NEW NORTH HEALTH CENTRE,-0.091592,51.537534
112347.83999999992,HOVE MEDICAL CENTRE,-0.19539,50.845024
72045.77999999997,PRIMECARE PMS (SOUTH STREET),-0.012448,51.476194
56398.28000000004,THE GARDENS SURGERY,-0.066803,51.46061
115250.54,FORT HOUSE SURGERY,-0.412578,51.37881
210001.74000000005,OXTED HEALTH CENTRE,9.9e-05,51.257686
166992.45999999993,THE WRYTHE GREEN SURGERY,-0.171312,51.371749
102414.18999999996,THE LAWN MEDICAL CENTRE,-1.7619029999999998,51.547821
100264.30000000002,NORDEN HOUSE SURGERY,-0.882727,51.944924
20205.970000000023,ST MARY'S HEALTH CENTRE,-6.308668,49.911605
150752.0799999998,TOPSHAM SURGERY,-3.462097,50.683825
110455.52000000003,BAMPTON SURGERY,-1.55034,51.729032
125251.57999999994,WOODLANDS MEDICAL CENTRE,-1.258898,51.603637
229499.08,PETROC GROUP PRACTICE,-4.943163,50.430739
192969.96999999988,TAVYSIDE HEALTH CENTRE,-4.145976,50.545824
179030.56000000008,EAST QUAY MEDICAL CENTRE,-3.000471,51.135669
57859.62000000001,BREDON HILL SURGERY,-2.104857,52.030166
105225.53999999992,HAGLEY SURGERY,-2.144103,52.420783
49587.97999999998,KNOCKIN MEDICAL CENTRE,-2.993042,52.79343
13928.579999999994,YARDLEY MEDICAL CENTRE,-1.828397,52.463189
87008.20999999977,PHOENIX FAMILY CARE,-1.51543,52.390005
320617.61,ASHTON MEDICAL GROUP,-2.089184,53.489361
163175.66000000012,BRADSHAW MEDICAL CENTRE,-2.688594,53.537889
24552.03999999997,SAVILE TOWN MEDICAL CTR.,-1.625804,53.68222900000001
39071.609999999964,LIMEFIELD ROAD MEDICAL PRACTICE,-2.26047,53.506995
84612.7500000001,THE ORCHARD SURGERY,-0.324352,50.828062
10469.249999999996,THE MATTHEWMAN PRACTICE,-0.149281,51.545823
6331.26,COMMUNITY PAEDIATRICIANS,-2.214271,53.470746
788.5899999999998,RICHARDSON COMMUNITY HOSPITAL,-1.9161529999999998,54.545708
258.77,CHILDREN'S HOSPICE SOUTH WEST,-4.116888,51.069795
2561.52,DR WRIGHT ED CLINIC (BELMONT),-1.52816,54.786148
28428.699999999986,LAKESIDE SURGERY,-1.310932,53.52812
6350.46,BSUH DERMATOLOGY SERVICE,-0.115477,50.83046
3905.18,DMC COMMUNITY DERMATOLOGY RBWF,-2.059728,52.337612
35043.22999999998,THE DANBY PRACTICE,-0.907874,54.468317
87321.98999999987,VALLEY VIEW SURGERY,-1.731903,53.806791
141259.94999999995,THE NORTH LEEDS MEDICAL PRACTICE,-1.534037,53.843332
137635.51000000007,IVY GROVE SURGERY,-1.402822,53.042198
52919.049999999974,FRIAR GATE SURGERY,-1.485624,52.924816
138585.02999999988,NAVENBY CLIFF VILLAGES SURGERY,-0.526297,53.103518
85906.99999999997,THE LINDEN MEDICAL GROUP,-1.273642,52.931099
119333.46,ASKERN MEDICAL PRACTICE,-1.148909,53.61549599999999
88162.40000000014,BUTE HOUSE MEDICAL CENTRE,-0.423966,51.880162
53657.62000000007,LICHFIELD GROVE SURGERY,-0.19329,51.599604
114386.18999999994,GURU NANAK MEDICAL CENTRE,-0.387151,51.511774
146.18,WESTMINSTER SCHOOL,-0.128107,51.498762
35356.88999999998,SOUTH GREEN SURGERY,0.430504,51.613411
39971.22999999999,RICHMOND ROAD MEDICAL CENTRE,-0.065532,51.543051
105625.47999999997,THE LAWSON PRACTICE,-0.079465,51.533775
96863.31000000008,LEYTON HEALTHCARE 4TH FLOOR,-0.013313,51.559894
39744.390000000014,FRANCIS ROAD MEDICAL CENTRE,-0.003831,51.561975
173403.70999999985,OLD SCHOOL SURGERY,0.100722,50.772062
36623.30999999998,UNIVERSITY MEDICAL CENTRE,1.062127,51.296198
52069.31999999997,ST STEPHENS HOUSE SURGERY,-0.305726,51.31772
56931.86999999997,PARK VIEW HEALTH PARTNERSHIP,-0.137252,50.961825
154255.29000000015,LAMBTON ROAD MEDICAL PRACTICE,-0.231169,51.411219
171493.5299999998,LORDSHILL HEALTH CENTRE,-1.448733,50.940999
97448.72000000013,BYFIELD MEDICAL CENTRE,-1.242893,52.174071
37669.34999999998,CAMBRIDGE HOUSE,-2.144827,53.024433
135012.94000000006,ARBURY MEDICAL CENTRE,-1.497961,52.51662
45619.31000000002,CHURCH LANE - KHAN,-1.793962,52.487056
86779.19999999995,SOHO ROAD PRIMARY CARE CENTRE,-1.934945,52.503094
29688.68999999997,PARK HOUSE SURGERY,-1.942965,52.54446
38974.31999999996,BEECHDALE CENTRE,-2.007339,52.600867
128589.91000000019,HOLES LANE MEDICAL CENTRE,-2.545107,53.399828
89582.49000000003,LACHE HEALTH CENTRE,-2.914326,53.173615
79421.6900000001,DINGLE PARK PRACTICE,-2.972885,53.38633
189098.24,RAINBOW MEDICAL CENTRE,-2.705931,53.435389
33246.39000000002,BEECHWOOD SURGERY,-3.009057,53.871568
115863.37999999995,HEYWOOD HEALTH,-2.239335,53.58736999999999
84891.59999999998,THE GILL MEDICAL PRACTICE,-2.398384,53.524288
77087.4899999999,GLOUCESTER HOUSE MEDICAL CENTRE,-2.352599,53.447337
40853.16,PAK HEALTH CENTRE,-1.856091,52.490749
29455.320000000003,WALFORD STREET  TIVIDALE,-2.059752,52.513192
135303.67999999993,LITTLE LONDON SURGERY,-1.979284,52.574984
83250.53000000007,STRETTON MEDICAL CENTRE,-2.577017,53.339489
21750.009999999987,THE DALE MEDICAL PRACTICE,-2.154239,53.611617
31092.55,WALNUT ST MED CTR (LEICESTER MED GROUP),-1.138855,52.624601
33914.58,FIR TREE,-2.878691,53.44930600000001
8317.890000000009,CAMBRIDGE ACCESS SURGERY,0.138701,52.20875
5.9,GATESHEAD C.A.S.H SERVICES,-1.603663,54.962972
4326.69,NELPCT OUT OF HOURS SERVICE,-0.096229,53.544858
768.31,ANGEL LODGE,-1.50929,53.683308
57728.06000000001,ETTINGSHALL MEDICAL CENTRE,-2.092879,52.570364
3928.4200000000014,WALK IN CENTRE (WIC),-1.784934,51.563016
614.7899999999998,PRIMARY CARE PRESCRIBING - SCH EMPLOYED,-1.490629,53.380599
44049.61999999998,NT&H COMM NURSES DN,-1.227837,54.702398
6702.670000000003,HP NMP'S NN & E CCG,-1.143101,53.130244
193.2,PRIMARY CARE OPTOMETRY,1.14971,51.79169
111.97,SOUTH WARK COMM RECOVERY TEAM IPU 10-17,-1.530545,52.285479
23526.23,WARWICKSHIRE DRUG & ALCOHOL RECOVERY,-1.529997,52.283202
1045.52,ADULT ADHD WIGAN/LEIGH NMP,-2.606862,53.42951600000001
1755.0300000000002,DONCASTER SOUTH ADULT CMHT,-1.146558,53.497488
40.5,COMMUNITY PHYSIOTHERAPY SERVICES,-1.214805,54.55175500000001
69334.38999999997,RUSHEY MEAD HEALTH CENTRE,-1.103823,52.663187
9.87,THE PARALLEL,-2.426061,53.579828
124162.39999999982,ST ANN'S ROAD SURGERY,-0.08783399999999998,51.581428
139996.2799999999,LEIGH FAMILY PRACTICE,-2.511927,53.493519
58364.08999999995,THE PRACTICE FELTHAM,-0.411086,51.446367
120.57,THE WESTBOURNE CENTRE,-1.9230029999999998,52.466075
80034.44000000013,HENDON WAY SURGERY,-0.241873,51.579182
53463.96000000002,NHS FYLDE & WYRE CCG,-2.881037,53.789498
590.4599999999998,NT&H COMM MIDWIVES,-1.227837,54.702398
3469.5800000000013,SPECIALIST NURSE,-1.517573,53.993807
3.45,VIRGIN CARE SPECIALIST NURSING SHCCG,-0.7846419999999998,51.220491
6698.839999999997,TAURUS HEALTHCARE LTD,-2.71099,52.05708
822.93,TISSUE VIABILITY,-2.095555,52.599722
57.07,MOLESEY COMMUNITY HOSPITAL,-0.372542,51.397531
14338.919999999987,NC GPA PLUS,-1.152649,52.954624
325.9099999999999,THE FLOWERS HUB,-1.438061,53.418053
45049.96999999999,CARTMEL SURGERY,-2.946985,54.199165
251671.88000000012,ALNWICK MEDICAL GROUP,-1.6967470000000002,55.410086
77723.44999999992,NETHERFIELD HOUSE,-1.548435,55.063632
199728.52,PRACTICE 3  MEDICAL CENTRE  BRIDLINGTON,-0.201064,54.084715
102259.37000000002,THE ALMONDBURY SURGERY,-1.751311,53.631868
28695.950000000004,NEWLAND SURGERY,-1.424247,53.695146
538381.8300000018,BEACON MEDICAL PRACTICE,0.331219,53.157472
28276.270000000033,GREENFIELDS MEDICAL CENTRE (YVS RAO),-1.168583,52.966506
95191.46000000015,TREETON MEDICAL CENTRE,-1.354708,53.384994
158432.63,MEADOWGREEN HEALTH CENTRE,-1.480804,53.326831
366075.0699999992,BOROUGHBURY MEDICAL CENTRE,-0.245486,52.577858
176294.25000000015,THE ROOKERY MEDICAL CENTRE,0.405573,52.245158
290.79,COMMUNITY MATRONS,-2.095555,52.599722
115.83,TISSUE VIABILITY EAST,-2.109085,52.810605
4.11,VIRGIN CARE (NORTH LINCS),-0.6524,53.592365
23145.16,COVENTRY SMS,-1.513076,52.41159
2490.4400000000005,IC24-THANET CCG OOH,0.891514,51.129106
1920.4399999999994,MID CLUSTER IAGPS,-1.9731169999999998,50.721987
141.13,AMBER VALLEY HEALTH,-1.3726,53.082351
16.37,CORNWALL IMPROVED ACCESS SCHEME,-5.097984,50.265937
473.0,DMC COMMUNITY DERM BRENT,-0.306785,51.549713
48.42,BDCT 0-19 CHILDRENS PH SERVICE,-1.788605,53.839675
2260.670000000001,SJUH GPS IN A+E,-1.520359,53.806869
158548.71000000005,CRUDDAS PARK SURGERY,-1.630965,54.968173
52431.87000000004,THE CHESTNUTS & HALLGATE SURGERY,-0.403621,53.778985
130434.40000000011,HAWORTH MEDICAL PRACTICE,-1.954883,53.831322
131645.27999999994,FIELDHEAD SURGERY,-1.854229,53.641358
125595.24,CROFTON AND SHARLSTON MED PRAC,-1.427042,53.656573
224010.42999999996,SHIRES HEALTHCARE,-1.215692,53.202513
79571.03000000001,ORCHARD SURGERY,-1.278154,52.836522
110560.11000000004,ST GEORGES MED PRACTICE,-1.132346,52.930754
37167.96999999999,WELBECK SURGERY,-1.147823,52.979645
138434.32000000007,WICKHAM MARKET MEDICAL CENTRE,1.363674,52.151842
78470.3600000001,TODDINGTON MEDICAL CENTRE,-0.530482,51.945856
59752.68000000005,THE RANDOLPH SURGERY,-0.186852,51.529819
56138.78999999992,DR YADAVA N PRACTICE,0.334586,51.476703
98172.19000000005,ST.PAUL'S WAY MEDICAL CTR,-0.024483,51.517862
220127.48000000013,THORNHILLS MEDICAL PRACTICE,0.440958,51.300117
187608.65999999997,OAKLANDS HEALTH CENTRE,1.08253,51.069106
53223.19999999997,HEXTABLE SURGERY,0.182972,51.409182
151080.3399999998,LONGCROFT CLINIC,-0.192332,51.325314
83561.26000000008,THE ROEHAMPTON SURGERY,-0.242431,51.451154
242395.84999999995,WYKE REGIS & LANEHOUSE MEDICAL PRACTICE,-2.475127,50.594634
49613.87,WHITCHURCH SURGERY,-0.8426209999999998,51.882174
72246.12999999987,CRICK MEDICAL PRACTICE,-1.135861,52.343212
164755.93000000075,KINGSWOOD HEALTH CENTRE,-2.499974,51.462895
79703.89999999982,THE VILLAGE SURGERY,-2.219972,53.033945
161511.42999999973,BIDDULPH VALLEY SURGERY,-2.178498,53.116111
25910.20999999998,RIVERSIDE SURGERY,-1.699518,52.632337
142541.61000000002,THREE VILLAGES MEDICAL PRACTICE,-2.146398,52.465406
71204.33999999994,STONE CROSS MEDICAL CENTRE,-1.982689,52.545444
182929.84000000003,STOCKTON HEATH MED.CENTRE,-2.582161,53.37195
116117.78000000016,THE VILLAGE SURGERIES GROUP,-2.771265,53.124246
117068.05000000006,ILEX VIEW MEDICAL PRACTICE,-2.280663,53.70081
122287.47000000007,SHIFA SURGERY,-2.475999,53.757295
139769.23,CHORLTON FAMILY PRACTICE,-2.279717,53.443773
73621.98999999987,OLDHAM MEDICAL SERVICES,-2.111235,53.52535699999999
80386.84999999993,MELROSE SURGERY,-0.9598620000000002,51.451692
26036.700000000026,DR R KAPUR & PARTNERS,-1.119092,52.631036
79873.97999999994,LEADGATE SURGERY,-1.805988,54.860562
161640.88999999987,ACLE MEDICAL PARTNERSHIP,1.548667,52.640969
45315.17,PEEL CROFT,-1.6339549999999998,52.799271
136184.92000000013,MARTONSIDE MEDICAL CENTRE,-1.220329,54.553175
70800.97,ROCKLIFFE COURT SURGERY,-1.544074,54.483444
153038.05,BEDLINGTONSHIRE MED.GROUP,-1.598682,55.1322
50599.25000000004,WESTBOURNE SURGERY,-1.8061,53.650937
109582.07,MIDDLESTOWN,-1.600562,53.650545
47511.65999999997,DR WEBB AND PARTNERS,-1.308041,52.968251
103321.31999999986,GOYT VALLEY MEDICAL PRACTICE,-1.983113,53.3305
45203.44000000004,CASTLE STREET MEDICAL CENTRE,-1.293753,53.229627
59959.75999999997,SILVERDALE MEDICAL CENTRE,-1.090548,52.672318
249531.92999999961,HOLT MEDICAL PRACTICE,1.116042,52.914476
121362.43,HOWARD HOUSE SURGERY,1.349626,51.96149
197824.53999999972,PARKBURY HOUSE SURGERY,-0.334063,51.756766
67155.44999999997,UXENDON CRESCENT SURGERY,-0.292809,51.572063
36845.06000000003,STERNDALE SURGERY,-0.221441,51.498326
57684.23,AEGIS MEDICAL CENTRE,0.467525,51.57556
74263.53000000001,AMWELL GROUP PRACTICE,-0.11081700000000001,51.528043
154936.78999999978,MEOPHAM MEDICAL CENTRE,0.359744,51.368901
92433.73000000008,WESTERHAM PRACTICE,0.070437,51.266465
60422.570000000036,FORGE CLOSE SURGERY,0.016555,51.377137
157030.20000000016,STEYNING HEALTH CENTRE,-0.329972,50.890666
152749.68999999994,LAVANT ROAD SURGERY,-0.781051,50.853385
67758.20000000006,THORNTON & VALLEY PARK SURGERY,-0.120709,51.388871
87657.17000000004,JOHNSON (SHEEN LANE),-0.267239,51.465848
32744.07000000004,BEGG PRACTICE,-0.179391,51.459968
98316.42,MOORDOWN MEDICAL CENTRE,-1.874485,50.756212
72115.01999999993,LITTLEDOWN SURGERY,-1.833439,50.741638
105308.68,EMMER GREEN SURGERY,-0.972861,51.483584
138588.36000000013,WOLVERTON HEALTH CENTRE,-0.814934,52.054197
277103.9700000003,ST THOMAS MEDICAL GROUP,-3.54518,50.714472
77470.75999999992,YOXALL,-1.7931740000000003,52.767984
52791.48999999999,GREET MEDICAL PRACTICE,-1.857778,52.453195
60402.47000000005,PEDMORE MEDICAL PRACTICE,-2.118211,52.457029
139401.06999999992,BOSWORTH MEDICAL CENTRE,-1.7536330000000002,52.480569
198701.6999999997,THE PARK MEDICAL PRACTICE,-2.739045,53.77018
32311.029999999995,CROSSWAYS PRACTICE,-3.023992,53.484655
42852.469999999965,THE OLD DISPENSARY,-1.987226,50.803427
51804.070000000065,STROUD GREEN MEDICAL CENTRE,-0.114328,51.570059
157.83999999999997,GPSI ENT SERVICE ROMAN GATE HUNTS,-0.173105,52.317665
4097.830000000001,CBS OOH,-1.233579,53.134573
124.86,BRADFORD GPWSI EPILEPSY SERV,-1.779859,53.78091
1207.61,EASTBOURNE  HAILSHAM & SEAFORD OOH,0.891514,51.129106
1786.8099999999995,INTERMEDIATE CARE (THE PEELE),-2.259671,53.385779
383.83,LCW HOUNSLOW CCG OOH,-0.217218,51.522362
624.1400000000001,HERTFORDSHIRE COMMUNITY SEXUAL HEALTH,-0.201186,51.899822
3072.11,DERMATOLOGY-MERTON CCG,-0.210281,51.409967
246.43000000000004,HEALTH VISITORS,-1.155769,52.951832
44.75999999999999,BIRMINGHAM ST MARY'S HOSPICE,-1.926741,52.439458
759.52,OLDER PERSONS MENTAL HEALTH FRAILTY TEAM,-1.146558,53.497488
120154.27000000002,WEST SOMERSET HEALTHCARE,-3.3186760000000004,51.161419
174907.83999999973,WEM AND PREES MEDICAL PRACTICE,-2.722566,52.859338
80288.12999999998,ALL SAINTS SURGERY,-1.644121,52.794285
221610.01,CENTRAL SURGERY,-1.265473,52.371743
165609.84000000014,OMNIA PRACTICE,-1.839082,52.475709
53812.25999999997,SCHOOLACRE ROAD SURGERY,-1.785797,52.497659
140458.15,DORRIDGE SURGERY,-1.752074,52.372757
124321.40999999995,MORETON CROSS GROUP PRACTICE,-3.111975,53.403551
151876.6299999997,WITTON MEDICAL CENTRE,-2.507553,53.740232
25591.39000000001,WALMERSLEY ROAD MEDICAL PRACTICE,-2.289525,53.599849
88658.16999999993,WEST COMMON LANE TEACHING PRACTICE,-0.682441,53.57473100000001
28253.16000000001,QUEENS ROAD SURGERY,-1.474524,52.522119
39090.49999999999,BEVAN HEALTHCARE CIC,-1.753352,53.795581
72806.03999999994,RIVERSIDE MEDICAL PRACTICE,-1.315584,54.56887
3885.8000000000025,MEDICUS HEALTH PARTNERS-ENFIELD ISLAND,-0.016992,51.668586
2079.08,RESOURCE CENTRE,-0.356441,51.50598
2005.77,WORTLEY BECK CHILDRENS SERVICE,-1.601117,53.782448
11.18,HMP/YOI DRAKE HALL,-2.240835,52.878831
9046.49,MERSEYCARE NHS TRUST,-2.826417,53.424035
2.0,JOSEPH COWEN HEALTH CARE CENTRE,-1.585714,54.975773
177.88,WARRINGTON CARE HOMES,-2.527537,53.414117
147.01000000000005,WHANTS COMM ENT,-0.08430999999999998,51.500087
136604.81999999983,RISING BROOK,-2.118782,52.787133
18179.609999999968,BLOOMSBURY SURGERY,-1.871892,52.49324300000001
74549.36000000002,ST JAMES MEDICAL PRACTICE2,-2.097323,52.514234
27328.09,KHAN MEDICAL PRACTICE,-2.000799,52.613174
36272.61999999999,LINGHOLME HEALTH CENTRE,-2.744752,53.457769
253349.4499999997,PEEL HOUSE MEDICAL PRACTICE,-2.365995,53.75089200000001
53844.11,ASHURST PRIMARY CARE,-2.772723,53.563208
165791.8400000001,RED BANK GROUP PRACTICE,-2.323706,53.560143
79780.17000000004,MARPLE BRIDGE SURGERY,-2.053323,53.400594
147112.54000000007,GRASMERE SURGERY,-2.511455,53.503236
101882.65000000004,GRAVESEND MEDICAL CENTRE,0.369986,51.443932
140649.03999999966,PEASE WAY MEDICAL CENTRE,-1.576495,54.618581
49910.30000000002,ELSDON AVENUE SURGERY,-1.525885,55.07062
63373.77000000001,DR WICKREMESINGHE SSG,-0.123521,51.469491
38466.08000000001,CPT WORTHING,-0.375414,50.817416
567327.1500000008,TELDOC,-2.435206,52.672614
182.97000000000003,MIRAH DAY HOSPITAL,-1.477708,52.526988
1090.2600000000002,COMMUNITY DIABETES CLINIC,-1.93389,52.489186
6084.919999999999,HAROLD WOOD WIC,0.225699,51.593184
43301.63,CGL SERVICES,-0.8806699999999998,52.238217
52462.960000000036,HOUNSLOW CCG - HRCH (NMP),-0.326599,51.427449
18446.46,LEARNING DISABILITIES SERVICE,-1.904396,52.412409
