total_cost,name,longitude,latitude
1131.39,THE ABBOTSBURY PRACTICE,-0.397406,51.579266
5243.4299999999985,NUFFIELD HOUSE HEALTH CENTRE,0.112828,51.774439
458.99999999999994,CLIFTON RISE FAMILY PRACTICE,-0.03143300000000001,51.476334
2636.89,HASLEMERE HEALTH CENTRE,-0.707586,51.092107
1275.0700000000004,THE DORCHESTER RD SURGERY,-2.457512,50.625193
1229.7699999999998,ST.JAMES SURGERY,-1.989956,51.352926
2627.919999999999,BOTLEY MEDICAL CENTRE,-1.299442,51.753753
1377.5,QUEEN'S MEDICAL CENTRE,-4.057196,51.080161
1365.6,EXMOOR MEDICAL CENTRE,-3.544825,51.038507
714.7300000000001,CHARLES ROAD SURGERY,-1.850621,52.4722
353.94,WILLESDEN GREEN SURGERY,-0.216091,51.553773
157.97,PARKFIELD (H) MINOR EMERGENCY,-3.00005,53.363076
216.98,PRUH URGENT CARE CENTRE,0.059146,51.366243
1925.23,BROOKROYD HOUSE,-1.67818,53.707224
4321.1100000000015,NETTLEHAM MEDICAL PRACTICE,-0.476253,53.262865
984.7100000000002,UNIVERSITY HEALTH SERVICE HEALTH CENTRE,-1.482709,53.380323
2547.85,SHEPPERTON MEDICAL PRACTICE,-0.453153,51.396402
3099.19,THE MANOR PRACTICE,-0.234983,50.835138
239.98,CLAPHAM JUNCTION MEDICAL PRACTICE,-0.173908,51.465969
5942.030000000002,PEMBROKE MEDICAL GROUP,-3.560246,50.445527
876.18,GREENFORD ROAD MED.CTR.,-0.345702,51.537697
955.0500000000003,QUEENS WALK MEDICAL CENTRE,-0.393155,51.562716
3685.24,ADDISON HOUSE - HAQUE PRACTICE,0.088979,51.770891
1115.4600000000003,ST PETER'S STREET MEDICAL PRACTICE,-0.100772,51.535597
2166.5099999999993,STOKENCHURCH MEDICAL CTRE,-0.904033,51.660479
577.2000000000002,ABBOTS BROMLEY SURGERY,-1.880966,52.819974
1221.9999999999998,TOWNSIDE SURGERY,-2.29898,53.59031
1261.29,GOODMAYES MEDICAL CENTRE,0.10990599999999999,51.567626
165.55,EAST PARADE MEDICAL PRACTICE,-1.061835,53.965993
3313.49,SHAFTESBURY MEDICAL CTR.,-1.497858,53.800234
2085.38,GROBY ROAD MEDICAL CENTRE (ID PATCHETT),-1.150468,52.644337
2309.4600000000005,FOUNTAIN MEDICAL CENTRE,-0.8043829999999998,53.07286
2083.53,SCAWSBY HEALTH CENTRE PRACTICE,-1.167843,53.53678299999999
2153.89,ST. GEORGE'S MEDICAL CENTRE,0.298817,52.458085
2384.520000000001,CENTRAL SURGERY,0.147747,51.812546
497.14,THE HOXTON SURGERY,-0.086829,51.533527
469.7199999999999,LL MEDICAL CARE LTD,0.0021,51.555415
6771.13,THE ADAM PRACTICE,-2.07822,50.757881
723.0399999999998,PRIORY ROAD SURGERY,0.589253,50.860828
4245.420000000001,WISTARIA & MILFORD SURGERIES,-1.547285,50.760041
1559.25,GORDON STREET SURGERY,-1.644613,52.810998
4.87,HAVERING CCG,0.179796,51.579247
79.25,SOUTH KENT GROUP,1.118942,51.075872
2682.98,URGENT CARE CENTRE NORTHWICK PARK HOSP,-0.322037,51.575407
660.8499999999996,PROSPECT MEDICAL PRACTICE,1.285656,52.643921
1447.7400000000002,GROVELANDS MEDICAL CENTRE,-0.112028,51.620685
1907.17,ST JAMES' SURGERY,1.315702,51.128516
984.02,OXSHOTT MEDICAL PRACTICE,-0.360843,51.333099
1375.65,LAVENDER HILL GROUP PRACTICE,-0.15683,51.466044
3060.38,ST.MARY'S SURGERY,-1.397475,50.905746
1275.6300000000006,SPRINGMEAD SURGERY  CHARD,-2.967972,50.869562
1255.2900000000004,POND TAIL SURGERY,-0.066728,51.246436
1789.5300000000002,LYME VALLEY MEDICAL CENTRE,-2.22375,53.006305
547.04,WOODLANDS MEDICAL PRACTICE,-2.31213,53.406624
1123.35,BATH ROAD SURGERY,-0.37684,51.469395
0.63,HALTON COMMUNITY PALLIATIVE CARE TEAM,-2.670823,53.320248
4.16,BROMLEY DIABETES SERVICE (BECKENHAM),-0.033209,51.405232
28.7,TAMESIDE & GLOSSOP IC NHS FT,-2.071433,53.49153
7.44,ACCT 2,-1.962695,53.898015
4.27,BMI-THE SLOANE HOSPITAL,-0.00436,51.408332
3209.7900000000004,THE ALDERGATE MED.PRACT.,-1.695644,52.639079
2332.78,EASTGATE MEDICAL GROUP,-1.462815,54.006795
2727.350000000001,NEWBOLD VERDON MED.PRACT.,-1.34334,52.634612
1069.5,BAKERSFIELD MEDICAL CENTRE,-1.104957,52.960219
1125.7799999999997,THE ORDNANCE UNITY CENTRE FOR HEALTH,-0.039073,51.672653
1592.5100000000002,BLOXHAM SURGERY,-1.372977,52.018108
1389.8399999999995,GP HUBS - GP HEALTH PARTNERS LTD,-0.266331,51.334184
82.38000000000002,NORTH COTSWOLDS IMPROVED ACCESS,-2.239997,51.862659
2137.2700000000004,THE LAKESIDE PRACTICE,-1.148909,53.61549599999999
763.4399999999998,WESTWOOD CLINIC,-0.269054,52.591395
1413.3199999999995,THEOBALD MEDICAL CENTRE,-0.285584,51.661381
170.28,THE SURGERY,-0.184519,51.497627
1846.01,COMBS FORD SURGERY,0.995999,52.180181
1708.78,HILLVIEW SURGERY,-0.318331,51.540536
349.75,DR HAFFIZ,-0.119262,51.539321
1324.9300000000005,THE AVENUE SURGERY,-0.113425,50.844357
1359.1600000000005,NEW POND ROW SURGERY,-0.322292,50.824911
1921.99,LUDLOW - PORTCULLIS,-2.715958,52.368905
135.09,DADHANIA SURGERY,-1.491047,52.405815
2592.6799999999994,HUDDERSFIELD ROAD SURGERY,-1.485631,53.558165
1251.04,SHERINGHAM MEDICAL PRACTICE,1.214777,52.939688
1762.67,CHURCH LANE HEALTH CENTRE,0.941162,50.984187
1556.6700000000005,BARN CLOSE SURGERY,-1.859248,52.03627
1078.87,LOSTOCK HALL MEDICAL CTR.,-2.688037,53.727502
472.73,WELLINGBOROUGH EXTENDED ACCESS,-0.695567,52.303398
1942.12,SUMMERFIELD URGENT CARE CENTRE WIC,-1.937353,52.487686
1047.3499999999997,PENINSULA MEDICAL PRACTICE,-2.915665,54.18795600000001
3050.600000000001,HEBDEN BRIDGE GROUP PRACTICE,-2.010942,53.744036
2672.109999999999,STOCKWELL LODGE MED.CTR.,-0.055287,51.713792
562.7299999999998,DR PM PATEL,0.219281,51.55632
233.81,CHISWICK FAMILY DRS PRACTICE,-0.259879,51.493563
2434.41,ILFORD MEDICAL CENTRE,0.07431899999999998,51.556823
2110.65,WITLEY SURGERY,-0.650163,51.156457
2720.110000000001,FURLONG MEDICAL CENTRE,-2.208139,53.063325
1987.92,THE WATERFIELD PRACTICE,-0.733923,51.409204
507.25,JERICHO HEALTH CENTRE,-1.265958,51.760293
2187.36,TEAN SURGERY,-1.988036,52.954415
2004.19,THORNLEY STREET MEDICAL CENTRE,-2.125789,52.58843
1209.5700000000004,MILE LANE HEALTH CENTRE,-2.335248,53.587814
1338.64,BOLTON MEDICAL CENTRE,-2.431399,53.56543
1373.9200000000005,WESTCROFT HEALTH CENTRE,-0.795699,52.006367
751.0499999999998,KINGSTON CCG SLDUC OOH,-0.283378,51.412517
4232.000000000001,LOWTHER MEDICAL CENTRE,-3.586392,54.545056
2048.89,ANDAMAN SURGERY,1.715485,52.45691600000001
1982.7,BURNT ASH SURGERY,0.009913000000000002,51.452782
2390.55,HILLVIEW MEDICAL CENTRE,-0.557727,51.315501
1356.3100000000004,BATHEASTON MEDICAL CENTRE,-2.317387,51.406032
1391.77,HEALD GREEN HEALTH CENTRE 2,-2.229276,53.369878
874.12,SMITH (RICHMOND LOCK),-0.322897,51.464517
1041.0899999999997,JUBILEE GARDENS MEDICAL CENTRE,-0.368739,51.521097
435.72,NORTHAMPTONSHIRE OUT OF HOURS SERVICE,-0.683359,52.29767
5098.29,BRAMPTON MEDICAL PRACTICE,-2.734846,54.94237
2248.03,PLANE TREES GROUP PRACTICE,-1.894437,53.730448
2606.7399999999993,THORNTON MEDICAL CENTRE,-1.576209,53.791908
1086.38,BRAILSFORD & HULLAND MEDICAL PRACTICE,-1.624927,52.96943
287.9,SMS COMMUNITY DERMATOLOGY CLINIC,-1.398499,50.913503
39.82000000000001,AQP ANTICOAG LEY HILL SURGERY,-1.827841,52.583302
4.1,EAST STAFFS IMPROVING LIVES,-1.6480290000000002,52.798809
2753.860000000001,BISHOPS CLOSE MEDICAL PRACTICE,-1.599142,54.699817
4064.23,CLEE MEDICAL CENTRE,-0.041433,53.566223
760.15,BALDWINS LANE SURGERY,-0.448705,51.654076
1065.4799999999998,NEASDEN MEDICAL CENTRE,-0.247382,51.559667
196.59000000000003,JOHN SMITH MEDICAL CENTRE,0.112125,51.538899
2347.140000000001,FAIRFIELD PMS,0.038949,51.483908
2880.4400000000014,BURNHAM HEALTH CENTRE,-0.662137,51.5349
6611.970000000001,ASPEN MEDICAL PRACTICE,-2.225797,51.865969
2272.01,TRENT VALE MEDICAL PRACTICE,-2.201785,52.987386
758.08,BROOKSIDE SURGERY,-1.399088,52.35048
697.6200000000001,4/LOWER BROUGHTON MEDICAL PRACTICE,-2.258808,53.49359
744.0199999999996,DESFORD MEDICAL CENTRE,-1.296116,52.627473
337.86,DR VIJE'S SURGERY,-1.650877,52.617569
23.55,ALICE HOUSE HOSPICE,-1.224421,54.704049
107.61,DR R SHARMA'S PRACTICE,-0.096482,51.499125
4253.250000000001,NORTON MEDICAL CENTRE,-1.308737,54.588737
368.2099999999999,PEEL PARK SURGERY,-1.731903,53.806791
1147.11,BOURN SURGERY,-0.063404,52.193155
1190.6499999999996,COACHMANS MEDICAL PRACTICE,-0.203875,51.096335
89.38000000000002,COMMUNITY PAEDIATRICIANS-SOUTHWARK,-0.081097,51.474092
3433.7500000000005,HEREWARD MEDICAL CENTRE,-0.380913,52.768626
2981.8700000000013,PENISTONE GROUP PMS PRACTICE,-1.630732,53.523565
1863.34,THE PARK SURGERY,1.7292759999999998,52.606218
674.7299999999998,LANFRANC MEDICAL CENTRE,-0.332746,51.561586
2388.27,WOODLANDS MEDICAL CENTRE,-1.258898,51.603637
616.3900000000001,KNOCKIN MEDICAL CENTRE,-2.993042,52.79343
3266.4,THE CROSS KEYS PRACTICE,-0.830848,51.723655
1310.1599999999996,HILLCREST SURGERY,-2.431687,51.311982
648.9100000000002,APSLEY SURGERY,-2.187008,53.035377
1124.7699999999998,ASHFIELD ROAD SURGERY,-2.132841,52.62604399999999
3.04,ENFIELD COMMUNITY GYNAECOLOGY SERVICE,-0.101361,51.659225
23.24,CHELTENHAM LOCALITY NURSE PRESCRIBER,-2.176389,51.847073
2542.8100000000004,BLACKETTS MEDICAL PRACTICE,-1.559007,54.527221
638.9900000000001,DR A SINHA,-0.108523,53.567689
878.39,STANHOPE SURGERY,-0.032073,51.688002
1531.0700000000004,THE GRAHAM PRACTICE,0.048721,51.541534
3127.67,MID SUSSEX HEALTH CARE,-0.175279,50.933719
9604.02,PORTSDOWN GROUP PRACTICE,-1.080952,50.812876
2472.230000000001,ABBEY MEDICAL GROUP,-1.119194,53.100674
816.6699999999998,HOLBORN MEDICAL CENTRE,-0.118539,51.522233
948.16,BRICK LANE SURGERY,-0.048612,51.657327
1422.6999999999996,ELM LODGE SURGERY,-0.096232,51.451506
3900.550000000001,THE LIGHTHOUSE GROUP PRACTICE,-1.0805049999999998,50.796551
2089.0399999999995,THE ORCHARD PARTNERSHIP,-1.865867,51.077878
1351.09,PARKGATE SURGERY,-2.882743,53.564772
402.8,WLCCG EXTENDED HOURS HUBS,-0.217218,51.522362
285.11,NEWARK ACUTE HOME VISITING SERVICE,-1.238124,52.98146
4760.52,WILLIAM BROWN CENTRE,-1.33142,54.757994
1036.37,RED HOUSE MEDICAL CENTRE,-1.424063,54.925457
3175.340000000001,COLNE VALLEY GROUP PRACTICE,-1.9282130000000002,53.602096
727.25,SOUTHEY GREEN MEDICAL CTR,-1.477666,53.419051
2509.500000000001,IVRY STREET MEDICAL PRACTICE,1.148624,52.064021
1855.22,NEWBURY GROUP PRACTICE,0.085981,51.576435
528.53,BRAMPTON HEALTH CENTRE,-0.277386,51.586099
673.8,DOCKLANDS MEDICAL CENTRE,-0.021143,51.491152
1184.6499999999996,ABBEY WOOD SURGERY,0.11653,51.497094
2494.4100000000008,STAFFORD MEDICAL GROUP,-2.914755,51.35259
5718.6,SEVERN VALLEY MEDICAL PRACTICE,-2.235045,52.190415
2457.0400000000004,LIME SQUARE MEDICAL CENTRE,-2.164901,53.473649
525.26,HATTON MEDICAL PRACTICE,-0.433285,51.457879
2079.8100000000004,BIRBECK MEDICAL GROUP,-2.742581,54.656125
785.4799999999998,WENLOCK ROAD SURGERY,-1.455226,54.972635
1103.66,CRICH MEDICAL PRACTICE,-1.482573,53.084327
1395.6800000000005,LUDHAM AND STALHAM GREEN SURGERIES,1.534423,52.709131
9.170000000000002,ST LUKES HOSPICE,0.456959,51.5576
2369.25,WELL CLOSE MEDICAL GROUP,-2.006127,55.77245799999999
2200.9999999999995,THE BURNS PRACTICE,-1.12309,53.520707
844.4399999999998,KING GEORGE ROAD SURGERY,0.518518,51.348911
4038.48,CHURCHDOWN SURGERY,-2.171559,51.882487
1258.8099999999995,VENTNOR MEDICAL CENTRE,-1.203791,50.594548
1187.23,WEST VIEW SURGERY,-2.50212,51.411923
2162.419999999999,CONCEPT HOUSE SURGERY,-2.98492,53.449136
657.39,HEATHROW MEDICAL CENTRE,-0.433924,51.49302
57.25,COMMUNITY GERIATRICIAN SERVICE,-1.568473,53.81497099999999
2497.11,EAST PARADE SURGERY,-1.529793,53.996354
1400.7800000000002,BASLOW HEALTH CENTRE,-1.617823,53.246144
476.24,ASQUITH SURGERY,-1.117116,52.601489
1578.63,SUN LANE,1.087469,51.071536
854.0899999999998,THE CHURCH VIEW PRACTICE,0.609995,51.363412
832.9300000000003,TRIANGLE GROUP PRACTICE,-0.011071,51.457798
1898.3700000000006,BICESTER HEALTH CENTRE,-1.157239,51.896742
955.9499999999998,BILBROOK MEDICAL CENTRE,-2.181749,52.624775
10260.129999999996,LANCASTER MEDICAL PRACTICE,-2.797202,54.047583
1395.620000000001,NEW COURT SURGERY,-2.30878,52.113538
2662.629999999999,SWANWOOD PARTNERSHIP,0.519034,51.613356
1201.3200000000004,THE JUNCTION SURGERY,-1.759212,53.643662
5976.2199999999975,BADGER GROUP OOH,-1.8778259999999998,52.477589
1483.66,BCH URGENT CARE CENTRE,-2.583357,51.412858
252.56,COMMUNITY NURSING (SOUTH TEES),-1.215564,54.570237
200.79,WEST HERTS RESPIRATORY SERVICE,-0.468578,51.750846
633.29,GP SERVICES - GP HUBS,-0.175734,51.240416
1944.3700000000006,MIDDLE CHARE MEDICAL GROUP,-1.573113,54.855636
3400.2,LEIGH VIEW MEDICAL PRACTICE,-1.558358,53.728574
149.55,NORTH NORFOLK HUB 2 (BIRCHWOOD),1.38334,52.820065
1504.9500000000005,GILDERSOME HEALTH CENTRE,-1.6293,53.756554
951.42,HAZELMERE MEDICAL CENTRE,-1.16453,52.57337
2830.01,QUEENS PARK HEALTH CENTRE,-0.493075,52.133151
456.5300000000001,THE HEATHCOTE PRIMARY CARE CENTRE,0.062768,51.593832
2864.430000000001,TRESCOBEAS SURGERY,-5.085333,50.15531
1717.23,MITCHELDEAN SURGERY,-2.488369,51.865935
3856.090000000001,HARESFIELD HOUSE SURGERY,-2.202996,52.194829
3169.99,LAUREL HOUSE SURGERY,-1.692825,52.636563
1394.7900000000004,LONGFORD PRIMARY CARE CENTRE,-1.48555,52.449933
3420.96,ROPE GREEN MEDICAL CENTRE,-2.453958,53.06655
2798.0299999999993,AINSDALE MEDICAL CENTRE,-3.03882,53.602403
971.72,QUEEN STREET MEDICAL PRACTICE,-3.589063,54.546567
1429.29,THE MILLER PRACTICE,-0.092165,51.551419
3609.15,THE GROVES MEDICAL CENTRE,-0.26224,51.410048
1292.0800000000004,THE MARINE & OAKRIDGE PARTNERSHIP,-1.806532,50.722838
2197.48,PORT ISAAC SURGERY,-4.824594,50.589808
2658.39,ST JOHNS HOUSE SURGERY,-2.25911,52.18874
727.61,ADDERLEY GREEN SURGERY,-2.135511,52.991714
681.34,DR BILAS,-2.063063,52.612824
119.23,HOSP.OF THE GOOD SHEPHERD,-2.901692,53.242544
324.38,DILL HALL SURGERY,-2.390844,53.754996
1870.12,WEST TIMPERLEY MEDICAL CENTRE,-2.353117,53.402699
456.09,SUMMERLEE MEDICAL CENTRE,-0.652145,52.337022
611.9999999999999,THE GRANGE MEDICAL CENTRE,-0.262039,52.57839
2253.96,GREEN RIDGE SURGERY,-1.8710349999999998,52.428433
804.0899999999998,ROCK COURT SURGERY,-2.916187,53.411597
1449.3,HAVEN HEALTH,1.327039,51.96536
101.97000000000004,DANEHOUSE MEDICAL PRACTICE,-2.238948,53.791326
543.17,SHORTSTOWN MEDICAL CENTRE,-0.432463,52.110853
3784.47,MK URGENT CARE SERVICES OOH,-0.7357599999999997,52.026384
422.7900000000001,LIMEFIELD ROAD MEDICAL PRACTICE,-2.26047,53.506995
76.24999999999999,THE MATTHEWMAN PRACTICE,-0.149281,51.545823
126.63,LAKESIDE SURGERY,-1.310932,53.52812
1044.4,VALLEY VIEW SURGERY,-1.731903,53.806791
412.25999999999993,LICHFIELD GROVE SURGERY,-0.19329,51.599604
2159.330000000001,ARBURY MEDICAL CENTRE,-1.497961,52.51662
650.79,CHURCH LANE - KHAN,-1.793962,52.487056
883.58,BEECHDALE CENTRE,-2.007339,52.600867
1187.16,DINGLE PARK PRACTICE,-2.972885,53.38633
746.3299999999998,BEECHWOOD SURGERY,-3.009057,53.871568
2089.7000000000007,HEYWOOD HEALTH,-2.239335,53.58736999999999
913.1500000000003,GLOUCESTER HOUSE MEDICAL CENTRE,-2.352599,53.447337
670.39,FIR TREE,-2.878691,53.44930600000001
1668.4399999999996,NELPCT OUT OF HOURS SERVICE,-0.096229,53.544858
1473.7700000000002,WALK IN CENTRE (WIC),-1.784934,51.563016
9.340000000000002,PRIMARY CARE OPTOMETRY,1.14971,51.79169
2078.4100000000008,MAYNARD COURT SURGERY,0.020165,51.685605
12.14,THE HOSPICE CARE FOR BURNLEY & PENDLE,-2.237434,53.819025
3005.19,YARM MEDICAL PRACTICE,-1.355519,54.50530500000001
1460.3500000000006,BENSHAM FAMILY PRACTICE,-1.617038,54.952781
1050.31,EASTMOOR HEALTH CENTRE,-1.476864,53.690004
104.34,SPUR ROAD SURGERY,-0.086621,51.586597
771.3700000000001,ALBION STREET SURGERY,-0.133965,50.827627
1801.89,THE BANKS & BEARWOOD MEDICAL CENTRE,-1.9292169999999997,50.768326
633.63,MERE SURGERY,-2.265342,51.089873
4392.51,THE GROUP PRACTICE ALFRED SQUIRE ROAD,-2.080754,52.599417
3222.470000000001,LANGWORTHY MEDICAL PRACTICE,-2.294771,53.489371
222.05999999999997,LEY HILL SURGERY,-1.983266,52.421346
468.37,CRESCENT SURGERY,0.106446,51.389854
1390.5000000000007,GREEN CEDARS MEDICAL CENTRE,-0.073642,51.616071
3496.410000000001,WHITE HORSE SURGERY,0.343258,51.435153
9.61,LANCS HOUSE UROLOGY,-2.218662,53.592207
2008.23,PARK HOUSE MEDICAL CENTRE,-2.805295,53.42670699999999
1331.7600000000002,SOUTH KING STREET MEDICAL CENTRE,-3.047855,53.816775
113.12000000000002,ANN MARIE HOWES CENTRE,-1.7785380000000002,52.464805
4.57,AIREBOROUGH COMMUNITY CARE,-1.684881,53.866663
804.5799999999998,PEELER HOUSE SURGERY,-0.438756,53.72252
918.95,DR DHITAL PRACTICE,-0.003074,51.587786
3064.19,WOODLANDS HEALTH CENTRE,0.38485,51.18077
337.12,WEST KENT GROUP,1.118942,51.075872
321.57000000000005,BRAMHOPE DERMATOLOGY COMMUNITY CLINIC,-1.61581,53.881903
9.590000000000002,SOTON COMMUNITY ENT SERVICE WESTON LANE,-1.370694,50.888213
1472.9599999999994,DALTON SURGERY,-3.179816,54.155917
731.4699999999997,RAJ MEDICAL CENTRE,-0.113968,53.550655
2629.8199999999993,OAKWOOD LANE MEDICAL PRACTICE,-1.493931,53.819982
1347.0200000000004,CADDINGTON SURGERY,-0.458179,51.864502
2111.29,GREENWICH CCG GP ACCESS HUB,0.050556,51.457843
93.83,DMC COMMUNITY DERMATOLOGY BHR,0.223136,51.563496
1694.5199999999993,WEST ROAD MEDICAL CENTRE,-1.656263,54.976209
3963.6400000000012,FOREST PRACTICE,0.07523499999999998,51.654789
238.59,PRASAD,0.210579,51.600308
1388.7700000000002,NORTHDOWN SURGERY,1.368001,51.379866
3407.780000000001,DARWEN HEALTHLINK,-2.471427,53.695744
921.94,DAVID MEDICAL CENTRE,-2.268652,53.43186
1800.5700000000004,EDLESBOROUGH SURGERY,-0.588625,51.868423
583.7700000000002,CHURCH VIEW MEDICAL CENTRE,-2.960328,50.935622
973.62,HENDON WAY SURGERY,-0.241873,51.579182
19.22,SPECIALIST NURSE,-1.517573,53.993807
1030.3000000000004,NC GPA PLUS,-1.152649,52.954624
1341.32,NETHERFIELD HOUSE,-1.548435,55.063632
2618.48,PRACTICE 3  MEDICAL CENTRE  BRIDLINGTON,-0.201064,54.084715
1171.29,THE ALMONDBURY SURGERY,-1.751311,53.631868
404.5,NEWLAND SURGERY,-1.424247,53.695146
2425.8099999999995,TREETON MEDICAL CENTRE,-1.354708,53.384994
14.66,COMMUNITY MATRONS,-2.095555,52.599722
4.11,VIRGIN CARE (NORTH LINCS),-0.6524,53.592365
22.05,AMBER VALLEY HEALTH,-1.3726,53.082351
15.93,DMC COMMUNITY DERM BRENT,-0.306785,51.549713
787.1599999999999,THE CHESTNUTS & HALLGATE SURGERY,-0.403621,53.778985
4452.18,SHIRES HEALTHCARE,-1.215692,53.202513
1618.9799999999998,ORCHARD SURGERY,-1.278154,52.836522
1832.4200000000005,ST GEORGES MED PRACTICE,-1.132346,52.930754
997.89,THE RANDOLPH SURGERY,-0.186852,51.529819
732.98,HEXTABLE SURGERY,0.182972,51.409182
1313.2699999999993,THE ROEHAMPTON SURGERY,-0.242431,51.451154
997.16,CRICK MEDICAL PRACTICE,-1.135861,52.343212
1312.0500000000004,THE VILLAGE SURGERY,-2.219972,53.033945
1259.75,STONE CROSS MEDICAL CENTRE,-1.982689,52.545444
1578.43,ILEX VIEW MEDICAL PRACTICE,-2.280663,53.70081
996.5399999999998,PEEL CROFT,-1.6339549999999998,52.799271
2292.73,BEDLINGTONSHIRE MED.GROUP,-1.598682,55.1322
3330.0699999999993,MALTINGS SURGERY,-0.337918,51.751851
2359.140000000001,RECTORY MEADOW SURGERY,-0.6175,51.669079
382.81,CARE UK OOH,1.210633,52.034014
21.25,CONIFER HOUSE SEXUAL HEALTH CLINIC,-0.342095,53.746221
654.4300000000002,IC24 LTD (HWLH OOH),0.891514,51.129106
2414.5000000000005,KIRKBY COMMUNITY PRIMARY CARE CENTRE (3),-1.248741,53.10176
2464.7100000000005,BERKLEY PRACTICE,-2.024533,52.58916
3344.089999999999,WOODLANDS MEDICAL PRACTICE,-2.142182,53.545559
930.48,BROOKS BAR MEDICAL CENTRE,-2.261969,53.461412
1408.0699999999995,THE VILLAGE MEDICAL CTR,-0.512653,52.128152
2893.49,GP COLLABORATIVE OOH,-1.455965,53.409821
2307.2200000000007,ST NEOTS HEALTH CENTRE,-0.267116,52.228966
136.92999999999998,QUAY HEALTH EAC,-0.069645,51.49696
1772.8400000000006,MIDDLESTOWN,-1.600562,53.650545
816.13,AEGIS MEDICAL CENTRE,0.467525,51.57556
1476.71,LAVANT ROAD SURGERY,-0.781051,50.853385
621.6200000000001,BEGG PRACTICE,-0.179391,51.459968
2031.2900000000006,EMMER GREEN SURGERY,-0.972861,51.483584
5866.590000000001,ST THOMAS MEDICAL GROUP,-3.54518,50.714472
3084.390000000001,BOSWORTH MEDICAL CENTRE,-1.7536330000000002,52.480569
1736.15,CBS OOH,-1.233579,53.134573
560.4,EASTBOURNE  HAILSHAM & SEAFORD OOH,0.891514,51.129106
9.38,INTERMEDIATE CARE (THE PEELE),-2.259671,53.385779
44.71,HERTFORDSHIRE COMMUNITY SEXUAL HEALTH,-0.201186,51.899822
2426.61,WEM AND PREES MEDICAL PRACTICE,-2.722566,52.859338
793.2199999999998,ALL SAINTS SURGERY,-1.644121,52.794285
1900.1,DORRIDGE SURGERY,-1.752074,52.372757
192.21,QUEENS ROAD SURGERY,-1.474524,52.522119
1.49,JOSEPH COWEN HEALTH CARE CENTRE,-1.585714,54.975773
4847.440000000001,ASH TREES SURGERY,-2.769484,54.129481
612.39,FAMILY PRACTICE,-2.486748,53.750552
2192.19,LEESBROOK SURGERY,-2.07266,53.53879
47.71,ASHFORD HUB,-0.472813,51.444022
154.11,RUNCORN URGENT CARE CENTRE WIC,-2.694681,53.323266
2569.420000000001,RADCLIFFE-ON-TRENT. HEALTH CENTRE,-1.03822,52.946139
1257.91,MANCHESTER ROAD SURGERY,-1.521086,53.380573
1273.0300000000002,PENSHURST GARDENS SURGERY,-0.272812,51.616129
514.0799999999999,ORCHARD END,0.539532,51.091415
174.89999999999995,BLOOMSBURY SURGERY,-1.871892,52.49324300000001
173.72,KHAN MEDICAL PRACTICE,-2.000799,52.613174
755.23,ASHURST PRIMARY CARE,-2.772723,53.563208
2825.0199999999986,PEASE WAY MEDICAL CENTRE,-1.576495,54.618581
476.86000000000007,ELSDON AVENUE SURGERY,-1.525885,55.07062
1355.08,CROSLAND MOOR SURGERY,-1.809637,53.63841
7.050000000000001,CITY & HACKNEY COMMUNITY ENT SERVICE,-0.08430999999999998,51.500087
1384.0100000000002,PARKGATE MEDICAL CENTRE,-1.342798,53.455454
596.33,QUEENS AVENUE PRACTICE,-0.147916,51.591852
591.8200000000002,DR RHK SINHA'S PRACTICE,-0.103058,51.482668
412.3,THE ADDISCOMBE SURGERY,-0.061851,51.376293
3792.3,THE CAMBRIDGE PRACTICE,-0.76565,51.254364
1063.1799999999996,BRICKFIELDS SURGERY,0.605168,51.653143
2706.2899999999995,THE CEDARS SURGERY,1.403174,51.217619
2375.21,ORCHID HOUSE SURGERY,-1.894499,50.801788
3588.53,WEAVERS MEDICAL,-0.733538,52.401531
2566.9299999999994,BIDEFORD MEDICAL CENTRE,-4.211785,51.017201
3426.779999999999,CORBETT MEDICAL PRACTICE,-2.148792,52.263269
695.36,COBRIDGE SURGERY,-2.187008,53.035377
2750.7899999999986,ALBION MEDICAL PRACTICE,-2.088476,53.48960400000001
1543.83,LONGFIELD MEDICAL PRACTICE,-2.28357,53.533828
389.15,PALACCI (CASTELNAU),-0.238274,51.476873
24.56,GP EXTENDED HOURS,-2.597522,53.389256
679.3499999999998,BRERETON SURGERY,-1.924317,52.747482
87.72,THE LAWNS SURGERY,-0.502907,50.807746
20.03,BARNET COPD SERVICE,-0.271242,51.606493
1245.9899999999996,BRIERLEY MEDICAL CENTRE,-1.382484,53.594188
994.4700000000001,TEMPLE FORTUNE MEDICAL GROUP,-0.197845,51.581101
4916.55,WEST MALLING GROUP PRACTICE,0.407707,51.293351
2059.96,MOAT HOUSE SURGERY,-0.146361,51.259819
1820.07,DENHAM MEDICAL CENTRE,-0.502236,51.584564
1600.9799999999998,CHEW MEDICAL PRACTICE,-2.629195,51.35619
2642.4699999999993,CHARING SURGERY,0.791374,51.20971
5167.71,HEART OF BATH,-2.373947,51.376364
1198.02,LOSTWITHIEL SURGERY,-4.668763,50.407892
1608.01,THE GROVE ROAD PRACTICE,-0.202341,51.358201
2424.080000000001,HANLEY PRIMARY CARE CENTRE,-0.12083699999999999,51.567951
1125.1,LEYLAND SURGERY,-2.709316,53.689645
16.38,HP NMP'S RUSH CCG,-1.143101,53.130244
454.7300000000001,DEARNE VALLEY HEALTH CENTRE,-1.626482,53.588349
3817.39,SEAFORD MEDICAL PRACTICE,0.099275,50.772678
781.3799999999997,THE WHITEHORSE PRACTICE,-0.097391,51.385869
1087.9,TOWER HOUSE SURGERY,-0.770004,51.636372
2656.500000000001,CHURCH STREET PRACTICE,-1.425847,51.598763
3420.360000000001,ROSEBANK HEALTH,-2.242194,51.852611
1728.9100000000005,MAPLE VIEW MEDICAL PRACTICE,-1.905693,52.31659
1535.1,HOWDEN MEDICAL PRACTICE,-0.8694039999999998,53.744175
1745.0400000000004,THE WILSDEN MEDICAL PRACTICE,-1.86138,53.818377
559.44,GREASBROUGH MEDICAL CENTRE,-1.372776,53.452893
1265.35,WEST MERSEA SURGERY,0.9193420000000002,51.778349
1939.54,TWYFORD SURGERY,-1.314229,51.019421
2803.49,IDE LANE SURGERY,-3.534972,50.699471
1288.8100000000004,THE ARROW SURGERY,-1.861382,52.218546
556.32,WILLENHAL OAK MEDICAL CENTRE,-1.463131,52.388988
2758.8899999999994,THE OVER-WYRE MED.CTR.,-2.976492,53.928203
1178.6400000000006,FAMILY SURGERY,-2.346055,53.396194
536.44,CRANBROOK MEDICAL PRACTICE,-3.416198,50.746596
310.96,GOSPORT PRIMARY CARE ACCESS CENTRE,-1.148081,50.793062
4511.48,MARKET HARBOROUGH MED.CTR,-0.924843,52.477084
1099.3700000000003,PORTLAND ROAD PRACTICE,-0.208019,51.507366
762.32,THE STROUDLEY WLK HTH CTR,-0.017533,51.527214
1216.92,ST JOHN'S MEDICAL PRACTICE,0.195249,51.285009
676.14,DERRY DOWNS SURGERY,0.116651,51.385174
1866.2200000000007,DANES CAMP MEDICAL CENTRE,-0.904374,52.205152
1424.2700000000007,CULVERHAY SURGERY,-2.348649,51.638921
1921.72,SPRINGFIELDS MEDICAL CENTRE,-2.597522,53.389256
1054.53,HALLIWELL SURGERY 1,-2.431738,53.588322
292.2900000000001,FITZMAURICE (KEW),-0.283117,51.475875
5547.270000000002,THE MEDICAL GROUP,-1.628911,54.748296
562.65,KINGS HEAD MEDICAL PRACTICE,-0.011448,51.635688
12.63,COMMUNITY NURSES,-2.500977,51.462504
506.5799999999999,THE GLENDALE SURGERY,-2.01842,55.546525
2273.7700000000004,THORNE MOOR MEDICAL PRACTICE,-0.966348,53.613648
2221.1399999999994,ST.PETER'S MEDICAL CENTRE,-0.135237,50.831002
2203.0500000000006,YALDING,0.429804,51.221188
564.35,BIRDHURST MEDICAL PRACTICE,-0.092613,51.365279
3134.6700000000005,FORESTSIDE MEDICAL PRACTICE,-1.416173,50.851823
2927.57,GLASTONBURY SURGERY,-2.721853,51.148462
1713.5300000000007,MEDINA HEALTHCARE,-1.298686,50.697239
1313.21,GREENWAY COMMUNITY PRACTICE,-2.611274,51.499595
2437.57,HIGHBRIDGE MEDICAL CENTRE,-2.979117,51.227372
2221.51,CANTILUPE SURGERY,-2.712261,52.055418
778.8000000000003,DRS SHAH & TALPUR,-2.194635,52.974032
1956.1899999999994,WHALLEY MEDICAL CENTRE,-2.406348,53.819793
1481.72,PIKES LANE 1,-2.446348,53.572728
8.14,BARTON MOSS SECURE CHILDREN'S HOME,-2.39687,53.468834
1473.74,SEASCALE HEALTH CENTRE,-3.479998,54.396756
506.1,RIPLEY MEDICAL CENTRE,-1.405723,53.04704
867.76,DENABY MEDICAL PRACTICE,-1.245792,53.490666
763.91,UPTON ROAD SURGERY,-0.401058,51.656689
3808.7,THE HOLLIES,0.610574,51.555461
240.67,THE LEIGH SURGERY,0.656153,51.555504
2587.130000000001,THE DOWNLAND PRACTICE,-1.312402,51.463442
1563.88,EGERTON/DUNSCAR HEALTH CENTRE,-2.426383,53.617589
14.46,CATS - VERULAM GYNAECOLOGY,-0.302218,51.724886
3.26,SOLENT WEST NMPS,-1.446031,50.92524
2032.93,CARE UK COVENTRY OOH,-1.5080049999999998,52.413401
2.48,COASTAL HEALTH SOUTH,1.715177,52.478072
4766.469999999998,DONCASTER URGENT CARE & OUT OF HOURS,-1.109062,53.530806
2037.0500000000006,FARROW MEDICAL CENTRE,-1.74312,53.802511
3359.0999999999995,BRAMLEY VILLAGE HEALTH & WELLBEING CTR,-1.623032,53.80781999999999
2261.9500000000007,CUFFLEY AND GOFFS OAK MEDICAL PRACTICE,-0.113106,51.708171
57.67999999999999,NEAS SOUTH TYNESIDE CCG,-1.712365,54.969713
429.32000000000005,GP SERVICES-CRAWLEY HUB,-0.175734,51.240416
57.45,MERTON REHAB BEDS,-0.224115,51.437407
1657.3700000000006,CAMPINGLAND SURGERY,0.690978,52.645997
3646.349999999999,LEIGHTON ROAD SURGERY,-0.66795,51.915779
2047.3099999999995,WILLOW TREE FAMILY DOCTORS,-0.265224,51.589337
2141.78,MAIDSTONE RD RAINHAM SURGERY,0.600379,51.36233
610.3000000000002,BANK HOUSE SURGERY,0.069949,51.359218
1247.26,YORK MEDICAL PRACTICE,-0.325697,51.449369
1493.93,CARRINGTON HOUSE SURGERY,-0.749217,51.632299
1170.4900000000002,HOLLYOAKS MEDICAL CENTRE,-1.869052,52.377979
384.35,GARSTON FAMILY HEALTH CENTRE,-2.89683,53.353909
1106.9999999999998,COMMONFIELD RD SURGERY,-3.086369,53.370187
1051.8,WERNETH MEDICAL PRACTICE,-2.126938,53.53497
789.7999999999997,DR VICTORIA MUIR'S PRACTICE,-0.151358,51.490651
765.1100000000001,THE FAMILY PRACTICE,-3.229282,54.116755
1936.7,COWGILL SURGERY,-1.814543,53.781952
702.1499999999999,THE GLENSIDE COUNTRY PRACTICE,-0.537958,52.75451
397.85,NORTH AVENUE SURGERY,0.735187,51.546618
33.71,MEDICUS HEALTH PARTNERS- BUSH HILL PARK,-0.066545,51.63953
1785.6699999999996,HAWTHORNS SURGERY,-0.175174,51.241163
1756.85,TRINITY MEDICAL CENTRE,-0.158437,51.437554
3312.5,HOMEWELL.CURLEW PRACTICE,-0.978019,50.851067
1458.8199999999995,SUNLIGHT GROUP PRACTICE,-3.00005,53.363076
1327.7199999999998,BLYTH ROAD MEDICAL CENTRE,-1.20365,53.422231
885.08,HARBOUR MEDICAL PRACTICE,0.324489,50.797353
11.98,MEANWOOD GROUP PRACTICE ENT SERVICE,-1.565811,53.827167
127.0,M & A LTC PALLIATIVE CARE NURSE,-1.238124,52.98146
99.88999999999999,BROOMFIELD DOCTOR IN ED,0.465993,51.774654
736.9499999999998,M&A AHVS (PICS),-1.238124,52.98146
4762.549999999998,THE HAYMARKET HEALTH CTR,-2.211781,53.060343
659.29,HEATHERLANDS MED CTR,-3.089543,53.381475
1263.9199999999996,CATHEDRAL MEDICAL CENTRE,0.275488,52.413145
1942.12,NDUC NEWCASTLE GATESHEAD OOH,-1.58819,55.01931999999999
319.74000000000007,EXTENDED ACCESS PRIMARY CARE HUB,-0.079465,51.533775
757.29,THE GAMSTON MEDICAL CTR.,-1.100495,52.924252
3596.01,ERDINGTON GP HEALTH & WELLBEING WIC,-1.840871,52.522486
44.53999999999999,CRISIS RESPONSE TEAM,-2.186902,53.52264
312.44,CENTRAL DURHAM GP EXT'D ACCESS SERVICE,-1.56716,54.7787
3894.51,AUCKLAND MEDICAL GROUP,-1.678996,54.648085
7149.68,HAXBY GROUP PRACTICE,-1.081866,54.019329
239.26,VERITAS HEALTH CENTRE,-1.481026,53.354257
2868.7100000000005,THE NEVELLS ROAD SURGERY,-0.22942,51.980882
1174.7300000000002,COLLINGWOOD ROAD SURGERY,0.638271,51.802938
1880.73,STOCK HILL SURGERY,0.031768,51.312089
1139.05,CLAREMONT MEDICAL CENTRE,-0.306132,51.390808
1514.7199999999998,WATERFRONT AND SOLENT SURGERY,-1.403379,50.870013
1901.77,MARTINS OAK SURGERY,0.483675,50.91716
1917.25,THE GLEBE FAMILY PRACTICE,0.544473,51.383164
1649.0500000000004,KNOLL MEDICAL PRACTICE,0.101068,51.375411
605.6799999999998,CORDWALLIS ROAD SURGERY,-0.7240259999999998,51.528097
1007.63,ST. MARY'S SURGERY,-2.479869,51.326082
859.9299999999998,THE SUMMITT PRACTICE,0.04536,51.539588
2383.25,SELDOC HEALTHCARE,-0.283378,51.412517
16.8,MALLING CLUSTER,0.277462,51.194717
482.37000000000006,PASLEY ROAD HEALTH CENTRE (TK KHONG),-1.146741,52.591287
481.35,HAROLD STREET MEDICAL CENTRE,-1.492871,53.393121
1224.8100000000004,BRENTFIELD MEDICAL CENTRE,-0.260251,51.550588
1376.85,DR NAVIN KUMAR,0.70187,51.544989
505.13,RUSTON STREET CLINIC,-0.027306,51.536264
1136.99,HAMPTON HILL MEDICAL CENTRE,-0.354892,51.427508
247.92999999999995,ST PETER'S URGENT TREATMENT CENTRE,-0.52706,51.377832
1992.1199999999994,THE OAKLAND MEDICAL CENTRE,-0.45129300000000006,51.546055
1985.69,ABERFELDY PRACTICE,-0.004927,51.514483
1409.14,BROCKBANK (PARK ROAD),-0.334596,51.423912
706.8499999999998,HOLLINSWOOD SURGERY,-2.437453,52.673936
473.92,VICTORIA ROAD MEDICAL CTR,-1.887197,52.501868
2444.0599999999995,ST JOHN'S MEDICAL CENTRE,-1.932532,52.626307
4094.03,THE CORNERSTONE PRACTICE,-2.4524,53.739201
169.92,PARK GRANGE MEDICAL CENTRE,-1.775929,53.789415
787.65,HETHERINGTON AT THE PAVILION,-0.116397,51.461633
1827.26,PCEC,-2.227711,53.462436
621.36,CASTLETOWN MEDICAL CENTRE,-1.450848,54.913341
604.2500000000001,ALDBROUGH ST JOHN SURGERY,-1.684645,54.496518
952.8,BRANSTON & HEIGHINGTON FAMILY PRACTICE,-0.467988,53.195831
757.3599999999999,CLIFTON HAMPDEN SURGERY,-1.211451,51.658625
3129.52,SWANSCOMBE HEALTH CENTRE,0.28731,51.424657
1340.0599999999995,FRITHWOOD SURGERY,-2.162379,51.729707
1367.4600000000005,THE ISLAND SURGERY,0.591014,51.520226
2920.84,GATEWAY PRIMARY CARE,-1.352431,53.429997
365.86,ESSINGTON MEDICAL CENTRE,-2.056915,52.63194
6.27,QVM HOSPITAL,-0.222867,51.827957
48.55,SLEAFORD EXTENDED ACCESS K2,-0.406507,52.997784
3472.2200000000007,STONELEIGH SURGERY,-2.770704,54.227277
546.82,BROWNEY HOUSE SURGERY,-1.670679,54.800313
1753.2799999999993,HONLEY SURGERY,-1.791936,53.602386
2511.9500000000007,GOSBERTON MEDICAL CENTRE,-0.159263,52.869915
1498.56,MAPESBURY MEDICAL GROUP,-0.209473,51.551496
813.2800000000002,CHOLMLEY GARDENS SURGERY,-0.195423,51.552261
2533.74,HIGH GLADES MEDICAL CENTRE,0.551301,50.878354
2506.090000000001,CHERRYMEAD SURGERY,-0.700228,51.608271
2685.61,HORFIELD HC,-2.576275,51.489998
782.5299999999999,WHITE HOUSE SURGERY,-1.705957,51.983554
1631.9099999999994,CHURCH STRETTON MEDICAL CENTRE,-2.806169,52.537286
2003.3,WARWICK ROAD SURGERY,-2.928541,54.893858
1827.67,WOODVILLE SURGERY,-1.5365030000000002,52.770685
894.8199999999998,GROOMBRIDGE AND HARTFIELD MED GRP,0.184416,51.113952
2142.0600000000004,BRANKSOMEWOOD H/CARE CTR,-0.8448069999999998,51.281888
598.88,WOODSIDE MEDICAL PRACTICE,-2.466175,52.637949
2904.05,BODEY MEDICAL CENTRE,-2.214798,53.440636
702.7200000000001,NORTH LINCOLNSHIRE OOH,-0.667599,53.587582
173.98,EXTENDED HOURS SERVICE-ONE LIFE,-1.214164,54.682342
1980.95,CRAMLINGTON MEDICAL GROUP,-1.591516,55.084481
3218.7899999999995,KINGSTON MEDICAL GROUP,-0.349365,53.756137
388.22,WESTFIELD MEDICAL CENTRE,-1.531703,53.817673
830.2,STUBLEY MEDICAL CENTRE,-1.488541,53.304986
352.02,CHICHELE ROAD SURGERY,-0.216241,51.55483
280.75000000000006,SHIRLAND ROAD MEDICAL CENTRE,-0.203904,51.5292
821.6100000000001,STEWKLEY ROAD SURGERY,-0.71666,51.898041
4157.85,NEW COURT SURGERY,-2.958059,51.345794
3577.9599999999987,COLERIDGE MEDICAL CENTRE,-3.2835660000000004,50.751704
1919.33,YARDLEY WOOD HEALTH CENTRE,-1.859168,52.418648
1151.1799999999996,SHEET STREET SURGERY,-0.605507,51.479648
3009.92,HEDENA HEALTH,-1.204547,51.76203
1063.95,SELLY OAK HEALTH CENTRE,-1.939144,52.438251
3621.23,PEELHOUSE MEDICAL PLAZA,-2.72256,53.372135
1908.55,LANE ENDS SURGERY,-2.727014,53.770173
1702.18,WHITTAKER LANE MED CENTRE,-2.268645,53.528488
29.33,NMP CASTLE POINT AND ROCHFORD CCG,0.702782,51.583955
49.73,SALFORD ACUTE HOME VISITING SERVICE,-2.33763,53.484827
31.97,EXTENDED ACCESS PCD TICKHILL SURGERY,-1.110773,53.43304499999999
4653.129999999999,BIRTLEY MEDICAL GROUP,-1.576441,54.891881
1381.5600000000004,APOLLO COURT MEDICAL CENTRE,-1.524816,53.542364
1159.86,SUDBURY & ALPERTON MEDICAL CENTRE,-0.298046,51.536916
2180.83,THE CHESTERFIELD DRIVE PRACTICE,1.132012,52.07623
1100.88,MONTPELIER SURGERY,-0.149079,50.827148
527.2700000000002,SELLINDGE SURGERY,1.002785,51.103536
2498.129999999999,HARBOUR VIEW HEALTHCARE,-0.27437,50.833817
3000.58,WILSON PRACTICE,-0.966958,51.153736
1592.5600000000004,KINGSTEIGNTON MEDICAL PRACTICE,-3.597395,50.54898
4208.7,STIRCHLEY MEDICAL PRACTICE,-2.433777,52.655188
897.51,RED LION SURGERY,-2.030614,52.693241
784.23,HAZELDENE MEDICAL CENTRE,-0.275394,51.547592
928.63,CLOISTER ROAD SURGERY,-0.265589,51.521352
1211.3,MANOR PARK MEDICAL CENTRE,0.24261,50.819107
2145.01,LILLIPUT SURGERY,-1.954229,50.711523
4607.440000000001,PENRYN SURGERY,-5.10336,50.167504
1860.4200000000005,CROWN MEDICAL CENTRE,-3.080969,51.029111
934.9299999999997,GREASBY GROUP PRACTICE,-3.121417,53.377628
1265.7899999999995,BIRMINGHAM DENTAL HOSPITAL,-1.916521,52.45037
20.26,UROLOGY-MERTON CCG,-0.210281,51.409967
1756.2600000000002,ROSEWORTH SURGERY,-1.61867,55.001366
5039.879999999999,GREENGATES MEDICAL GROUP,-0.418494,53.844343
3501.05,LINCOLN HOUSE SURGERY,-0.469093,51.737355
227.42,DR DEVARAJA VC PRACTICE,0.44359,51.520015
557.74,FOUNTAYNE ROAD HEALTH CENTRE,-0.065145,51.56442
296.8500000000001,ARCHWAY SURGERY,-0.532167,51.72275
1605.9100000000005,RYE MEDICAL CENTRE,0.730363,50.961944
820.6699999999998,VASSALL MEDICAL CENTRE,-0.10851199999999998,51.477558
1241.3600000000004,FARMHOUSE SURGERY,-1.7595,50.736437
5496.800000000001,WESTONGROVE PARTNERSHIP,-0.74378,51.76588
1316.36,MILBORNE PORT SURGERY,-2.471962,50.967502
1175.8200000000004,PARADISE MEDICAL CENTRE,-1.494835,52.426778
1092.82,WOODBANK SURGERY,-2.308802,53.60507
755.2600000000001,HIGHFIELD HEALTH,-1.395746,50.932777
1721.36,IBSTOCK HOUSE SURGERY,-1.401818,52.684869
3575.409999999999,BARNBY GATE SURGERY,-0.8049699999999999,53.074931
2971.49,PRIORY FIELDS SURGERY,-0.179856,52.332272
1404.9400000000005,DRS DE ROSA & WILLIAMS,-2.167857,52.569265
534.6600000000001,INTERMEDIATE CARE-GP SERVICE,-2.130253,53.548188
295.64,BASSETLAW HEALTH PARTNERSHIP,-0.950634,53.325451
11.2,NEWMEDICA GLOUCESTERSHIRE,-2.225797,51.865969
779.8,DR RAOLU'S PRACTICE,-1.204348,53.423549
1466.6800000000005,EAST BARNET HEALTH CENTRE,-0.166424,51.646339
3462.82,OXTED HEALTH CENTRE,9.9e-05,51.257686
2820.95,THE WRYTHE GREEN SURGERY,-0.171312,51.371749
2748.32,TOPSHAM SURGERY,-3.462097,50.683825
3183.28,BAMPTON SURGERY,-1.55034,51.729032
4201.4,PETROC GROUP PRACTICE,-4.943163,50.430739
3344.6700000000005,EAST QUAY MEDICAL CENTRE,-3.000471,51.135669
632.0699999999998,EASTMEAD AVENUE SURGERY,-0.36274,51.531443
465.72,KINCORA DOCTORS SURGERY,-0.412216,51.511666
2396.03,HETHERINGTON GROUP PRACTICE,-0.12823,51.460932
1674.2099999999994,TUTBURY HEALTH CENTRE,-1.686361,52.858454
1325.8600000000004,MEREPARK MEDICAL CENTRE,-2.300747,53.093285
593.1100000000001,DR SP TALPAHEWA,-0.260303,51.616115
2385.91,BRANDON MEDICAL PRACTICE,0.6233,52.448489
3.65,PUBLIC HEALTH SERVICES,0.020377,51.403879
1248.9599999999996,THE SURGERY CLIFTON ROAD,-1.737497,53.013356
2565.8899999999994,ORCHARD SURGERY MELBOURN,0.020092,52.080651
2472.51,HIGH STREET SURGERY,1.756043,52.482123
3943.9800000000014,KING GEORGE SURGERY,-0.206096,51.907416
636.31,ST.PETERS SURGERY,-1.372792,50.897829
2889.19,LEVENSHULME MEDICAL PRACTICE,-2.188524,53.446352
2260.34,DMC ST MARYS ISLAND SURGERY,0.538105,51.406776
6872.950000000002,THORNABY & BARWICK MEDICAL GROUP,-1.292128,54.538149
2501.5399999999995,ROWLANDS GILL MEDICAL CENTRE,-1.742896,54.91936
3650.05,THE PARK MEDICAL PRACTICE,-1.432644,52.928801
2269.050000000001,MERRIDALE MEDICAL CENTRE (RP TEW),-1.160752,52.620146
824.5199999999999,OVER SURGERY,0.012018,52.314809
1900.4999999999993,DR TUN & PARTNERS,-2.583571,53.532102
210.32,HILLINGDON UCC,-0.461175,51.526077
1167.06,SOUTHOWRAM SURGERY,-1.831696,53.712293
1833.6,THE STANMORE MEDICAL CENTRE,-0.304021,51.60154
426.08,TOTTENHAM HEALTH CENTRE,-0.068474,51.604755
519.9499999999999,PARKSIDE MEDICAL CENTRE,-0.092642,51.475826
1111.2299999999998,GRAND DRIVE SURGERY,-0.228811,51.402155
799.9399999999998,SOMERSET BRIDGE MEDICAL CENTRE,-2.995883,51.115105
2462.0099999999993,CORNISHWAY GROUP PRACTICE,-2.265017,53.379925
4643.399999999999,BRADSHAW MEDICAL CENTRE,-2.688594,53.537889
244.99,SAVILE TOWN MEDICAL CTR.,-1.625804,53.68222900000001
994.37,THE ORCHARD SURGERY,-0.324352,50.828062
979.95,THE DANBY PRACTICE,-0.907874,54.468317
2056.69,THE LAWSON PRACTICE,-0.079465,51.533775
401.7199999999999,FRANCIS ROAD MEDICAL CENTRE,-0.003831,51.561975
801.2299999999998,UNIVERSITY MEDICAL CENTRE,1.062127,51.296198
810.6500000000002,ST STEPHENS HOUSE SURGERY,-0.305726,51.31772
794.2699999999999,PARK VIEW HEALTH PARTNERSHIP,-0.137252,50.961825
2432.6600000000008,BYFIELD MEDICAL CENTRE,-1.242893,52.174071
1643.7400000000002,SOHO ROAD PRIMARY CARE CENTRE,-1.934945,52.503094
1891.87,LACHE HEALTH CENTRE,-2.914326,53.173615
840.49,WALNUT ST MED CTR (LEICESTER MED GROUP),-1.138855,52.624601
862.75,ETTINGSHALL MEDICAL CENTRE,-2.092879,52.570364
2948.5499999999993,DARTFORD EAST HEALTH CENTRE,0.236914,51.440747
857.0499999999998,BOLINGBROKE MEDICAL CENTRE (THMP),-0.168282,51.45617
1576.64,THE BORDER PRACTICE,-0.740565,51.240995
1877.64,WHITELADIES MEDICAL GROUP,-2.612382,51.465097
2565.090000000001,RIVERSIDE SURGERY,-3.006197,53.372004
1915.7000000000005,HT PRACTICE,-2.110496,53.478305
318.44,MEDICUS HEALTH PARTNERS-CURZON AVENUE,-0.036518,51.645435
197.79,N&S COMMUNITY DERMATOLOGY CLINIC,-1.032629,53.141866
1083.14,UPWELL STREET SURGERY,-1.434724,53.406424
1349.3199999999995,PLOWRIGHT MEDICAL CENTRE,0.686691,52.655577
2405.86,BEECHWOOD SURGERY,0.292731,51.608567
2345.9700000000007,THE NIGHTINGALE PRACTICE,-0.062434,51.558261
2938.87,BELVEDERE MEDICAL CENTRE,0.144376,51.482567
3277.2700000000013,ST.LAWRENCE SURGERY,-0.390026,50.823979
1738.3200000000004,ESPLANADE SURGERY,-1.158697,50.731943
882.85,GLASTONBURY HEALTH CENTRE,-2.712893,51.148733
2531.48,MAYFIELD SURGERY,-2.13456,52.982709
1148.4999999999998,BRIDGE MEDICAL,-1.506726,55.038077
591.86,BCHC MEDICINES MANAGEMENT,-1.9537779999999998,52.398207
3.02,CHCP - HESSLE  BROUGH  COTT  ANLABY,-0.429474,53.723082
116.13,PML NEIGHBOURHOOD HUB (KIDLINGTON),-1.289236,51.821558
1030.74,TASBURGH LODGE SURGERY,-0.21375,53.151242
2902.9100000000008,SOTHALL & BEIGHTON HEALTH CENTRES,-1.340221,53.337895
1686.45,THE MEADS SURGERY,0.091624,50.969686
384.94,RAGSTONE ROAD SURGERY,-0.601832,51.503747
1600.54,WADEBRIDGE & CAMEL ESTUARY PRACTICE,-4.835729,50.514816
2680.7200000000007,EVE HILL MEDICAL PRACTICE,-2.096805,52.512922
2463.62,WEST DERBY MEDICAL CENTRE,-2.895944,53.431273
384.5399999999999,DR. B. K. PRASHARA,-2.114816,52.456326
2210.0100000000007,ORMSKIRK HOUSE SURGERY,-2.74261,53.456686
1722.85,PENNINE MEDICAL CENTRE,-2.040966,53.515337
95.02,THE WESTBOURNE CENTRE,-1.9230029999999998,52.466075
50.66,NT&H COMM MIDWIVES,-1.227837,54.702398
3.39,MOLESEY COMMUNITY HOSPITAL,-0.372542,51.397531
74.97,THE FLOWERS HUB,-1.438061,53.418053
6476.78,ALNWICK MEDICAL GROUP,-1.6967470000000002,55.410086
6553.260000000002,BOROUGHBURY MEDICAL CENTRE,-0.245486,52.577858
2412.9700000000007,THE ROOKERY MEDICAL CENTRE,0.405573,52.245158
527.9699999999999,MID CLUSTER IAGPS,-1.9731169999999998,50.721987
642.6099999999999,SJUH GPS IN A+E,-1.520359,53.806869
2561.1800000000007,FIELDHEAD SURGERY,-1.854229,53.641358
2614.38,CROFTON AND SHARLSTON MED PRAC,-1.427042,53.656573
2569.19,ST.PAUL'S WAY MEDICAL CTR,-0.024483,51.517862
2843.389999999999,WYKE REGIS & LANEHOUSE MEDICAL PRACTICE,-2.475127,50.594634
2768.840000000001,KINGSWOOD HEALTH CENTRE,-2.499974,51.462895
1734.85,THREE VILLAGES MEDICAL PRACTICE,-2.146398,52.465406
1241.27,MELROSE SURGERY,-0.9598620000000002,51.451692
2765.03,ACLE MEDICAL PARTNERSHIP,1.548667,52.640969
2593.55,MARTONSIDE MEDICAL CENTRE,-1.220329,54.553175
1093.89,ROCKLIFFE COURT SURGERY,-1.544074,54.483444
1203.0200000000002,CHAPELFORD PRIMARY CARE CENTRE,-2.633066,53.39615799999999
1157.9,THE SELE MEDICAL PRACTICE,-2.095702,54.970372
3128.0999999999995,MARKET WEIGHTON GROUP PRACTICE,-0.674786,53.864903
5075.72,HEALTH CARE FIRST PARTNERSHIP,-1.393615,53.736872
2001.88,BROOM LANE MEDICAL CENTRE,-1.332311,53.417383
207.58,THE KILLINGHOLME SURGERY,-0.260335,53.62990799999999
2109.9999999999995,COMBERTON SURGERY,0.018614,52.189811
1337.36,SHEPHALL HEALTH CENTRE,-0.167642,51.890799
548.06,WESTBOURNE GROVE MEDICAL CENTRE,-0.200361,51.514211
470.1499999999999,MILTON REGIS SURGERY,0.7321839999999998,51.349193
787.98,BURBAGE SURGERY,-1.669545,51.348496
1245.1500000000005,THE CREST FAMILY PRACTICE,-2.596274,51.428746
241.15999999999997,WORTHEN MEDICAL PRACTICE,-3.000165,52.635224
844.0399999999998,KIRKDALE MEDICAL CENTRE,-2.973842,53.433523
2927.8500000000013,FACCINI HOUSE SURGERY,-0.189379,51.389682
661.2800000000002,JRB HEALTHCARE BEECHDALE SURGERY,-1.198142,52.961504
2814.070000000001,WOODLANDS FAMILY MEDICAL CENTRE,-1.321204,54.561215
1539.84,THE UPPINGHAM SURGERY,-0.723557,52.594972
2189.4499999999994,THE THORPE BAY SURGERY,0.757986,51.534599
2005.72,HUDSON (SEYMOUR HOUSE),-0.292773,51.462401
3245.4499999999994,WHADDON MEDICAL CENTRE,-0.7662759999999998,52.000308
451.07,BONEY HAY SURGERY,-1.926768,52.690328
565.15,GREENFIELD MEDICAL CENTRE,-1.855764,52.491684
1088.89,THE SURGERY,-2.605295,53.024859
1723.62,MARPLE MEDICAL PRACTICE,-2.064954,53.39495
1407.2900000000004,CLOVER CITY PRACTICE,-1.46659,53.38187
1403.1999999999994,ASPATRIA MEDICAL GROUP,-3.337992,54.762123
2236.0400000000004,WELLSPRING MEDICAL PRACT.,-1.564066,55.037289
470.05,FAMILY DOCTORS,-1.440964,53.798248
4599.61,NORTH FULHAM SURGERY,-0.199224,51.486415
117.45000000000002,LAI CHUNG FONG QUEENS PARK HEALTH CENTRE,-0.205826,51.530911
2437.36,WHEATFIELD SURGERY,-0.495144,51.904445
1488.1,LONG CATLIS ROAD SURGERY,0.595579,51.348325
1358.9800000000002,MINET GREEN HEALTH PRACTICE,-0.105204,51.475715
1428.6800000000005,NEW ADDINGTON GROUP PRACTICE,-0.018557,51.344382
3048.760000000001,THE ARMADA FAMILY PRACTICE,-2.571861,51.413438
1907.94,LEEK HEALTH CENTRE,-2.019347,53.105691
1128.2700000000002,CHASE MEADOW HEALTH CENTRE,-1.608604,52.268838
448.35999999999984,CASTLE STREET MEDICAL CENTRE,-1.293753,53.229627
2264.8,HOLT MEDICAL PRACTICE,1.116042,52.914476
1075.4299999999996,UXENDON CRESCENT SURGERY,-0.292809,51.572063
555.5100000000001,STERNDALE SURGERY,-0.221441,51.498326
1803.5399999999993,WESTERHAM PRACTICE,0.070437,51.266465
1889.3200000000006,STEYNING HEALTH CENTRE,-0.329972,50.890666
1306.49,YOXALL,-1.7931740000000003,52.767984
0.81,GPSI ENT SERVICE ROMAN GATE HUNTS,-0.173105,52.317665
14.37,LCW HOUNSLOW CCG OOH,-0.217218,51.522362
424.80000000000007,SCHOOLACRE ROAD SURGERY,-1.785797,52.497659
2411.9500000000007,WITTON MEDICAL CENTRE,-2.507553,53.740232
376.6000000000001,WALMERSLEY ROAD MEDICAL PRACTICE,-2.289525,53.599849
1334.9599999999996,BEVAN HEALTHCARE CIC,-1.753352,53.795581
175.86,MERSEYCARE NHS TRUST,-2.826417,53.424035
0.79,WHANTS COMM ENT,-0.08430999999999998,51.500087
2680.79,THE COUNTY PRACTICE,-1.069884,52.70073000000001
2586.109999999999,ORCHARD SURGERY,0.944176,52.678309
2232.32,DR JK MARSDEN'S PRACTICE,-0.436528,51.894968
2305.55,WHITLEY HOUSE SURGERY,0.455723,51.726539
1141.1300000000006,JOYDENS WOOD MEDICAL CENTRE,0.166397,51.42449
3998.08,TRAFALGAR MEDICAL GROUP PRACTICE,-1.092485,50.785331
2403.540000000001,EASTFIELD HOUSE SURGERY,-1.323251,51.395555
2718.919999999999,TUDOR LODGE SURGERY,-2.975378,51.332396
2422.1399999999994,PRAZE-AN-BEEBLE SURGERY,-5.309264,50.173753
1422.4299999999994,HALL GREEN SURGERY,-2.741349,53.540745
302.75999999999993,LATIMER HEALTH CENTRE,-0.049503,51.54659
933.2600000000001,WHITCHURCH SURGERY,-1.340372,51.230256
964.7899999999998,DR NEWMAN,-1.975441,50.719722
1096.44,PONTELAND RD WIC,-1.656804,54.991604
246.18,BURNLEY LOCALITY NMPS,-2.238948,53.791326
1.77,ONE ASHFORD - ELECTIVE CARE NHS SERVICES,0.9117360000000002,51.142662
49.62000000000001,DMC COMMUNITY DERMATOLOGY ERY,-0.872594,53.695801
392.3499999999999,THE WHITSWOOD PRACTICE,-2.253502,53.455769
141.86,GATESHEAD HEALTH COMMUNITY SERVICES,-1.580781,54.93938000000001
8.019999999999998,VC WEST LANCS COMMUNITY NURSING,-2.840112,53.602357
979.4199999999997,BEESTON VILLAGE SURGERY,-1.569152,53.772415
319.4899999999999,BLURTON MEDICAL CENTRE,-2.156565,52.972002
571.0999999999998,HASTINGS AND ROTHER OOH,0.891514,51.129106
1502.69,BEWICK ROAD SURGERY,-1.601653,54.956398
1915.7599999999993,KEIGHLEY ROAD SURGERY,-1.893907,53.754239
1317.42,MULBERRY STREET MEDICAL PRACTICE,-1.66397,53.794738
1484.42,CHATSWORTH ROAD MEDICAL CENTRE,-1.467337,53.231374
2074.0,BENTHAM ROAD HEALTH CENTRE,-2.50627,53.73058399999999
11.38,INVICTA HEALTH CONNECT FOLKESTONE,1.171894,51.085996
4599.64,DENMARK STREET SURGERY,-1.552252,54.538825
1768.13,PALLION FAMILY PRACTICE,-1.414195,54.908604
1100.46,UEA MEDICAL CENTRE,1.241391,52.622369
693.0799999999998,THE STREATFIELD MEDICAL CENTRE,-0.30083,51.595343
400.65,THE CHELSEA PRACTICE,-0.166915,51.486814
1557.2,RYDAL,0.020102,51.608432
2706.4400000000005,GROSVENOR & ST JAMES MEDICAL CENTRE,0.264349,51.137424
396.7,THE THREE ZERO SIX MEDICAL CENTRE,-0.076403,51.450741
735.9499999999997,NEW OTTERSHAW SURGERY,-0.526005,51.361938
3487.510000000001,RIDGEWAY VIEW FAMILY PRACTICE,-1.7915709999999998,51.524175
2177.4300000000007,THE HALL PRACTICE,-0.561016,51.606986
783.4099999999999,HARTLAND SURGERY,-4.482549,50.992721
3176.9899999999993,RED BANK GROUP PRACTICE,-2.323706,53.560143
888.55,GRAVESEND MEDICAL CENTRE,0.369986,51.443932
1515.42,DR WICKREMESINGHE SSG,-0.123521,51.469491
3259.32,HAROLD WOOD WIC,0.225699,51.593184
55.00000000000001,SOUTH LAKES PRIMARY CARE SERVICES,-2.737133,54.312706
2879.69,BEECH HOUSE SURGERY,-1.465892,54.010836
2947.2499999999986,MANOR PARK SURGERY,-1.628914,53.814076
1292.83,PARKSIDE SURGERY,-1.391868,53.097732
1727.3000000000006,BURWELL SURGERY,0.331841,52.273327
1376.2900000000006,WEST LONDON MEDICAL CENTRE,-0.454699,51.525731
1909.7,ADELAIDE MEDICAL CENTRE,-1.475274,51.208539
656.4,TUDOR PRACTICE STOCKLAND GREEN,-1.857329,52.52388199999999
873.2600000000001,WALTON SURGERY,1.335453,51.973564
593.75,PARKGATE SURGERY,-1.548606,54.523273
726.63,POLLARD ROW SURGERY,-0.064328,51.528266
229.94000000000003,RUSHCLIFFE URGENT CARE SERVICE,-1.100495,52.924252
465.82000000000005,PML NEIGHBOURHOOD HUB (BANBURY),-1.349027,52.057771
913.81,ULVERSTON COMMUNITY HEALTH CENTRE,-3.097833,54.198882
3663.92,BISHOPS WALTHAM SURGERY,-1.212149,50.95528
1560.6999999999994,LOCKWOOD GP SURGERY,-2.989833,53.850947
199.89,THE ENTERPRISE PRACTICE,-0.320613,51.601113
1622.5900000000006,ODDFELLOWS HALL & ST CLEMENTS,0.327906,51.480703
2.77,COMMUNITY ENT SERVICE,-2.146398,52.465406
960.18,CHAUCER SURGERY,-1.45237,52.515151
2166.2299999999996,THE ENDEAVOUR PRACTICE,-1.235397,54.575047
153.67,MAYFAIR MEDICAL CENTRE,-0.150172,51.513536
1339.25,FOWEY RIVER PRACTICE,-4.635394,50.337915
1665.9400000000005,HOLTS HEALTH CENTRE,-2.406966,51.931555
2094.93,CUMBERLAND HOUSE,-2.145844,52.901549
727.93,DR A GUPTA BENIM MEDICAL CENTRE,-2.947804,53.419395
2719.23,RIVERSIDE MEDICAL CENTRE,-2.672299,53.748112
593.88,LITTLETOWN FAMILY MED PRACT,-2.134298,53.529137
714.7600000000001,CROWN WOOD MEDICAL CENTRE,-0.736934,51.395919
135.22,CITY REACH HEALTH SERVICES,1.288137,52.633042
4502.1100000000015,PELC REDBRIDGE OOH,0.066648,51.55684
717.0,GREENWOOD SURGERY,0.605168,51.653143
37.8,LEEDS INTEGRATED SEXUAL HEALTH SERVICE,-1.544048,53.80163
255.03,RAMSAY HEALTHCARE UK,-2.076674,52.457813
3.61,MERTON CCG-CLCH (NMP),-0.199155,51.47377
3.99,DHU 111 NOTTS PHARMACIST PRESCRIBERS OOH,-1.428134,52.914593
2680.2199999999993,SKELMANTHORPE FAMILY DOCTORS,-1.650686,53.591604
873.1300000000001,PHOENIX PRIMARY CARE (SOUTH) LTD,-0.435422,51.918016
595.2499999999999,CASSIDY ROAD MEDICAL CENTRE,-0.199015,51.479154
1587.7299999999998,ROWHEDGE SURGERY,0.945058,51.85767
938.7,THE CHESSER SURGERY,-0.177303,51.374927
1725.4100000000005,BUGBROOKE MEDICAL PRACTICE,-1.005426,52.211409
1643.7300000000002,TEIGN ESTUARY MEDICAL GROUP,-3.496462,50.5456
1294.82,LUSON,-3.229566,50.977398
195.69,HEDNESFORD MEDICAL PRACTICE,-2.000697,52.71233
975.8,ROTTON PARK MEDICAL CENTRE,-1.947079,52.482162
886.6600000000003,NEWTOWN SURGERY,-2.735705,53.362158
3043.740000000001,WINGATE MEDICAL CENTRE,-2.874647,53.488385
473.4800000000001,EGTON SURGERY,-0.7552379999999999,54.445555
1085.16,THE PRACTICE-SAYEED,-1.106589,52.63081700000001
1580.22,TRAMWAYS AND MIDDLEWOOD MEDICAL CENTRES,-1.515268,53.418958
4931.14,TULASI MEDICAL CENTRE,0.12448900000000002,51.561005
2247.6,SUTTON VALENCE GROUP PRACTICE,0.59403,51.211195
1639.85,THE STAUNTON SURGERY,-0.978019,50.851067
3429.03,BLUNDELLSANDS SURGERY,-3.041273,53.484452
1097.9299999999996,SLAG LANE MC,-2.575634,53.47856899999999
164.5,PRIMARY HEALTHCARE DARLINGTON,-1.561958,54.528141
80.0,SANDWELL HEALTH PARTNERSHIP,-2.011259,52.536236
1822.85,GREAT WITLEY SURGERY,-2.361004,52.291152
2414.8,MADELEY PRACTICE,-2.345126,52.999856
2578.31,QUEENSWAY MEDICAL CENTRE,-2.995384,53.846569
1182.98,DR KK CHAN & PARTNERS,-2.489022,53.524185
609.89,CITY ROAD MEDICAL CENTRE,-0.091116,51.527895
1352.3800000000006,BOTOLPH BRIDGE COMMUNITY HEALTH CENTRE,-0.261557,52.562595
486.73,LONG EATON ON DAY SERVICE,-1.272531,52.901553
181.11,SOUTH CHESHIRE & VALE ROYAL PCAH,-2.531272,53.1909
1480.7600000000007,GUTTERIDGE MEDICAL CENTRE,-2.691248,53.769881
1722.51,ST MARY'S MEDICAL CENTRE,-2.108554,53.543625
114.28,BEDSER HUB,-0.556304,51.315132
73.07,HARROW RAPID RESPONSE SERVICE,-0.294546,51.596988
137.23999999999998,WRAYSDALE HOUSE SURGERY,-3.076077,54.367247
5620.409999999999,SAVILLE MEDICAL GROUP,-1.609598,54.976095
501.0799999999999,COOK BF,-0.357512,53.780969
2317.149999999999,ADELAIDE MEDICAL CENTRE,-0.161257,51.543548
570.78,HOLLINGTON SURGERY,0.872487,51.151423
730.74,HARTLAND WAY SURGERY,-0.045782,51.374372
1159.7000000000005,COLVILLE HEALTH CENTRE,-0.206231,51.515837
974.05,THE KINGS FAMILY PRACTICE,0.534548,51.377821
1618.5900000000006,FOUNTAIN PRACTICE,-0.252307,51.350378
1579.94,NUFFIELD HEALTH CENTRE,-1.486793,51.786441
841.1599999999999,240 WEXHAM ROAD,-0.57838,51.516902
5137.520000000001,THISTLEMOOR MEDICAL CENTRE,-0.254566,52.595274
914.89,CANTERBURY HEALTH CENTRE,1.082981,51.274249
474.5199999999999,BANBURY HEALTH CENTRE,-1.334014,52.062032
7.39,DERMATOLOGY CLINIC,-2.486748,53.750552
663.2399999999999,SOHO HEALTH CENTRE,-1.934945,52.503094
4084.09,HOLLYNS HEALTH & WELLBEING - CLAYTON,-1.81454,53.779166
1438.6600000000005,BRIDGE STREET MEDICAL PRACTICE,-1.20716,52.774841
1968.6700000000005,PRIORS FIELD SURGERY,0.124169,52.388951
3505.590000000001,MILLWAY MEDICAL PRACTICE,-0.24359099999999997,51.614985
77.98,MOULSHAM LODGE SURGERY,0.475137,51.716565
1131.7800000000002,YORK ROAD SURGERY,0.065859,51.559165
1645.5,ST.GEORGE'S SURGERY,-2.0815,51.906706
347.2599999999998,OLDHAM URGENT TREATMENT GTD HEALTHCARE,-2.121831,53.553248
998.51,CROPREDY SURGERY,-1.320027,52.116731
697.4100000000003,BIRCHWOOD MEDICAL PRACTICE,-2.547938,51.446246
518.04,WEST PARK SURGERY,-2.141256,52.587783
776.5799999999998,UPTON ROCKS PRIMARY CARE,-2.754371,53.373367
973.93,WELLSBOURNE HEALTHCARE CIC,-0.107386,50.825445
737.86,P A PATEL SURGERY,0.582273,51.56978
1479.72,CLINTON ROAD SURGERY,-5.224966,50.23093
373.21,BLOOMSBURY HEALTH CENTRE,-1.876618,52.493743
1671.7200000000007,HOUGHTON MEDICAL GROUP ,-1.469175,54.842322
1307.75,LUNDWOOD MEDICAL CENTRE PMS PRACTICE,-1.438538,53.557711
4536.71,BALLARDS WALK SURGERY,0.441841,51.573232
609.6200000000001,THE HALFWAY SURGERY,0.524157,51.380429
1111.9499999999996,ELIZABETH HOUSE MEDICAL PRACTICE,-0.050005,51.308093
155.87,SARAJLIC (STAINES ROAD),-0.357923,51.439672
5194.060000000001,THE DOWNEND HEALTH GROUP,-2.505301,51.485109
688.4099999999999,THE SINGH MEDICAL PRACTICE,-2.213622,53.512042
142.70000000000005,STROKE PATHWAY AND REHABILITATION CENTRE,-1.461102,53.37116700000001
227.55,COMMUNITY PALLIATIVE CARE MEDICAL TEAM,-2.777861,53.433387
3125.48,BLACKBURN RD.MEDICAL CTR.,-1.664718,53.731348
1553.3000000000004,COMMUNITY HEALTH CENTRE (ZS OSAMA),-1.113421,52.632387
3155.7499999999995,TRAMWAYS MEDICAL CENTRE (O'CONNELL),-1.503023,53.402044
3141.67,SHEFFORD HEALTH CENTRE,-0.321643,52.034788
1133.49,THE FRYENT WAY SURGERY,-0.280565,51.582963
1575.05,BELMONT MEDICAL CENTRE,-0.478036,51.548264
2696.19,BEXLEY GROUP PRACTICE,0.10965599999999999,51.465832
1482.5699999999995,THE MOORINGS MEDICAL PRACTICE,-0.095892,51.322229
3670.41,BLACKTHORN HEALTH CENTRE,-1.327194,50.876037
1650.3399999999995,ELM HAYES SURGERY,-2.492756,51.300546
3289.84,THE DOVE MEDICAL PRACTICE,-1.864605,52.535155
2706.4300000000007,WARLEY MEDICAL CENTRE,-2.006757,52.468122
1643.4400000000005,OLIVE MEDICAL CENTRE,-2.484193,53.752309
430.05,SOMERS TOWN MEDICAL CENTRE,-0.130607,51.529916
1075.1700000000003,LAUREL BANK SURGERY,-1.587333,53.816942
1014.5499999999997,HEALTH CARE COMPLEX  KIRKBY,-1.244634,53.100062
901.7300000000001,THE AZAD PRACTICE,0.044868,51.531234
645.23,BRIGHTON STATION WALK-IN,-0.141323,50.827937
54.68,SW INTEGRATED TEAM MALVERN,-2.178135,52.192339
3528.2399999999993,COQUET MEDICAL GROUP,-1.580504,55.332599
1188.11,ALLERTON MEDICAL CENTRE,-1.533879,53.826921
800.9700000000001,SOLE BAY H/C,1.6664740000000002,52.336325
871.7199999999997,WATERSIDE MEDICAL CENTRE,-0.363984,51.502165
1104.7799999999997,MELBOURNE HOUSE SURGERY,0.451756,51.749214
1803.72,AMPTHILL PRACTICE,-0.137293,51.5346
1360.5500000000004,THE WILLOWS PRACTICE,0.104416,51.60776
3242.1,HIGHPARKS MEDICAL PRACTICE,0.496762,51.434213
1091.33,CRAWLEY DOWN HEALTH CENTRE,-0.07762099999999998,51.122557
1714.2,COTSWOLD MEDICAL PRACTICE,-1.75678,51.886317
1622.3799999999994,BEDFORD STREET SURGERY,-0.729782,51.995784
1599.16,SOUTHOVER MEDICAL PRACTICE,-3.528075,50.474733
1521.85,THE STOKE ROAD SURGERY ,-2.068173,51.94667
1111.13,HAWKESLEY MEDICAL PRACTICE,-1.937498,52.39544
2336.88,PARK MEDICAL CENTRE,-2.873099,53.202665
2347.79,NORWOOD SURGERY,-2.97819,53.65000799999999
141.21000000000004,SLAIDBURN HEALTH CENTRE,-2.444001,53.967313
1009.2900000000003,DR PATHAK ND,-1.9843959999999998,52.51273
422.25999999999993,DILSTON MEDICAL CENTRE,-1.640355,54.976621
1605.63,NORTH CHELMSFORD NHS HCC,0.510815,51.750584
103.1,GPHP - GP IN A&E,-0.273231,51.325518
1060.0300000000002,FRIERN BARNET MEDICAL CENTRE,-0.155988,51.613267
2799.28,THE GOLD STREET SURGERY,0.240471,52.021716
2514.3099999999995,WELLS HEALTH CENTRE,-2.655326,51.203403
576.7399999999998,VILLAGE MEDICAL PRACTICE,-2.095994,53.574817
11.99,CNWL-MK MEDICAL PRESCRIBER,-0.7357599999999997,52.026384
83.83000000000001,THOMAS LINACRE SPECIALIST,-2.629091,53.55774
1123.4299999999996,THE OM SURGERY,-1.2057,53.034978
2.08,WANDSWORTH COMMUNITY WARDS,-0.145908,51.472301
11.7,WHITTINGTON HEALTH (HARINGEY),-0.139066,51.566482
461.41,EAST CLUSTER IAGPS,-1.82052,50.747482
4354.899999999999,HOLMSIDE MEDICAL GROUP,-1.66023,54.969004
824.1299999999997,SEVERN SURGERY,-1.065583,52.598801
1534.1599999999994,SPRING TERRACE HEALTH CENTRE,-1.450673,55.010941
1409.4199999999996,SOUTH WIGSTON HEALTH CTR.,-1.129183,52.580452
2169.7500000000005,QUEENS WALK PRACTICE,-0.312985,51.524803
3159.12,OLD ROAD SURGERY,1.148421,51.795466
2431.4,THE LIMEHOUSE PRACTICE,-0.028747,51.511253
878.86,FORDBRIDGE MEDICAL CENTRE,-0.46301,51.431269
1463.41,EVERSLEY MEDICAL CENTRE,-0.11191300000000001,51.388514
1116.7900000000004,CRICKET GREEN MEDICAL PRACTICE,-0.174025,51.404579
3322.2500000000005,WELLFIELD MEDICAL CENTRE,-2.242019,53.512545
2199.5200000000004,WIGTON GROUP MEDICAL PRACTICE,-3.159002,54.820303
1806.98,VILLAGE SURGERY,-1.485797,52.896347
1048.5,THE MEDICAL CENTRE  DR JEFFERIES & PARTN,-0.212607,51.481206
410.03,MEANWHILE GARDEN MEDICAL CENTRE,-0.203126,51.522228
916.6100000000001,ROSERTON STREET SURGERY,-0.010049,51.498482
1523.54,ALBION PLACE MEDICAL PRACTICE,0.529542,51.274206
1134.86,TRIVENI PMS,0.058438,51.490321
2982.48,THE HARVEY PRACTICE,-1.993525,50.761018
2038.5599999999995,THE MISBOURNE SURGERY,-0.558045,51.607786
1191.61,SHAY LANE MEDICAL CENTRE (KELMAN),-2.31556,53.372189
2612.2300000000005,MORRAB SURGERY,-5.538987,50.116924
200.69,BHC NON MEDICAL PRESCRIBERS,0.010423,51.377216
152.52,CCG ACUTE VISITING SERVICE,-2.178123,53.021853
484.19999999999993,LGI GPS IN A+E,-1.551744,53.801445
3402.610000000001,BARBOURNE HEALTH CENTRE,-2.224952,52.208752
994.8900000000001,LILFORD PARK SURGERY,-2.511455,53.503236
0.78,MARSDEN INTERMEDIATE CARE,-1.696689,53.676075
827.6200000000003,MALLING HEALTH AT STOKE ALDERMOOR,-1.479565,52.402142
1205.5599999999995,THGPCG SERVICE OOH,-0.004927,51.514483
802.5,MEIR PARK & WESTON COYNEY MEDICAL PRACT,-2.094889,52.966305
1839.2200000000007,OAKWOOD SURGERY,-1.858645,52.444556
559.1700000000001,THE GROVE MEDICAL PRACTICE,-0.362401,51.55534
688.8299999999998,THE DURU PRACTICE,-2.116945,53.543824
9.920000000000002,ADDICTIONS SERVICE,-1.607294,54.973724
2887.9999999999986,ASH GROVE,-1.245572,53.704968
2592.359999999999,HOLLIES MEDICAL CENTRE,-1.494834,53.363179
780.2899999999997,THE ABINGDON HEALTH CENTRE,-0.197138,51.496085
624.4300000000002,ELTHAM PALACE PMS,0.053714,51.449946
3028.18,CHAWTON PARK SURGERY,-0.989411,51.139814
1991.5600000000006,THE OAKS MEDICAL CENTRE,-1.895827,52.552454
1517.8900000000006,NEWBRIDGE SURGERY,-2.155299,52.5936
144.37,ST.GEORGES MEDICAL CENTRE,-0.24612,51.558731
1002.23,OAKWOOD MEDICAL CENTRE,-0.134269,51.646534
319.80999999999995,SMGPF,-2.237795,53.434307
215.45,DCHS DERBY CITY,-1.441882,53.221288
1444.4400000000005,REDBURN PARK MEDICAL CENTRE,-1.474775,55.00092
734.7999999999998,BARKEREND HC - EL ELIWI,-1.7218490000000002,53.797834
681.09,ROSEMEAD DRIVE SURGERY,-1.083088,52.5934
1426.1100000000006,BRENTFORD GROUP PRACTICE,-0.310054,51.48676
3658.98,JUBILEE MEDICAL CENTRE,0.300332,51.3978
2338.1800000000007,LAMBETH WALK GROUP PRACTICE,-0.11259100000000001,51.495609
1265.7499999999998,SOUTHMEAD SURGERY,-0.616953,51.552538
1328.32,MALLING HEALTH BLUE SUITE,0.609995,51.363412
3476.28,FARNHAM DENE MEDICAL PRACTICE,-0.777405,51.200549
4306.490000000002,BRUNEL MEDICAL PRACTICE,-3.516948,50.479349
3693.0399999999986,THE MANOR PRACTICE,-1.8236169999999998,52.55816
2110.7500000000005,DUNCAN STREET PRIMARY CARE PARTNERSHIP,-2.126602,52.57346999999999
934.62,WESTOVER SURGERY,-5.07501,50.148927
274.27,LANGTHORNE SHARMA FAMILY PRACTICE,0.0021,51.555415
1433.67,WEST MEADS SURGERY,-0.701481,50.788299
561.71,PBORO WEEKEND HOURS GP PILOT,-0.279386,52.583921
2649.65,BUSHLOE SURGERY,-1.116921,52.583283
1080.17,LEISTON SURGERY,1.575953,52.207708
1190.46,HEATHFIELDE MEDICAL CENTRE,-0.179797,51.585238
2853.38,MOTE,0.545625,51.246876
1800.88,WINSCOMBE SURGERY,-2.830537,51.315196
702.25,ELTHAM PARK SURGERY,0.061023,51.4547
1535.01,JAMES O'RIORDAN MEDICAL CENTRE,-0.212686,51.385157
1084.22,27 BEAUMONT STREET,-1.26216,51.755081
111.25,ST LUKES MEDICAL CENTRE,-3.517636,50.394313
697.76,PRIMROSE SURGERY,-2.357311,53.456159
2273.7900000000004,THE OLD DAIRY HEALTH CENTRE,-0.091201,51.436586
583.46,BRADFORD DERMATOLOGY SERVICE,-1.781103,53.830481
3.52,SUTTON COMMUNITY SERVICES,-0.183642,51.380313
2328.0,THE MANOR SURGERY,-1.216371,52.925036
1341.27,ESSEX LODGE,0.026685000000000004,51.527915
2349.48,BRIDGE MEDICAL CENTRE,-0.166439,51.117364
2910.9099999999994,THE CRANBORNE PRACTICE,-1.9192779999999998,50.919773
1656.8199999999995,NEW FOREST MEDICAL GROUP,-1.576665,50.81471
2565.44,SWALLOWFIELD MEDICAL PRACTICE,-0.958531,51.378289
1987.1500000000005,TALBOT MEDICAL CENTRE,-1.440661,54.973054
1138.9599999999996,NOVA SCOTIA MEDICAL CNTR,-1.373051,53.747561
4.07,DORSET IUC PARTNERSHIP,-1.856578,50.81726
3077.9999999999995,ABBEY SURGERY,-4.150401,50.546904
2884.5000000000005,WHITEACRES MEDICAL CENTRE,-2.300547,52.124716
2627.24,AUDLEM MEDICAL PRACTICE,-2.508717,52.989615
651.3399999999998,KENNETH MACRAE MED CENTRE,-2.786435,53.49903
611.1800000000002,WOODLANDS MEDICAL PRACTICE,-0.170943,51.592914
1562.5899999999995,VERNON STREET MEDICAL CTR,-1.49039,52.924019
6278.83,BRIDGE COTTAGE SURGERY,-0.215995,51.830002
3308.110000000001,DR KRISHNAN & PTNR - KENT ELMS HC,0.664114,51.563831
828.3599999999999,CRANHAM HEALTH CENTRE,0.265291,51.568865
1478.08,LEWISHAM MEDICAL CENTRE,0.004522,51.458513
1150.0200000000002,LYDNEY PRACTICE,-2.529867,51.727913
3654.1299999999987,ST. JOHNS SURGERY,-2.059728,52.337612
904.1,MONTAGUE MEDICAL PRACTICE,-0.872899,53.707031
1801.2199999999993,HORTON BANK PRACTICE,-1.806018,53.774478
1464.89,HIGH STREET PRACTICE,-1.458313,53.597926
1496.2799999999993,DR BAKER & PARTNERS,0.548167,51.570733
549.11,INGREBOURNE MEDICAL CENTRE,0.210579,51.600308
919.02,CROUCH HALL ROAD SURGERY,-0.127301,51.579178
3043.240000000001,CENTRAL SURGERY,-0.299929,51.390825
2381.04,ST PAUL'S SURGERY,-1.32139,51.065963
1483.7099999999994,KINGTON MEDICAL PRACTICE,-3.022556,52.199361
1437.4900000000002,WEST GORTON MEDICAL PRACTICE,-2.203859,53.46720500000001
10.88,NON MEDICAL PRESCRIBERS,-0.8019889999999998,51.797983
0.63,HEALTH HARMONIE GYNAECOLOGY,-1.922375,52.471325
3199.3199999999993,THE LEEDS ROAD PRACTICE,-1.535156,53.980466
1451.4299999999996,FOXHILL MEDICAL CENTRE,-1.501327,53.429911
2808.5199999999995,CAULDWELL MEDICAL CENTRE,-0.472495,52.128265
723.49,SANDRINGHAM PRACTICE,-0.067207,51.547773
2526.5,LAKESIDE MEDICAL,0.122454,51.496518
3732.68,LEAP VALLEY MEDICAL CENTRE,-2.487852,51.496541
275.22,ST JAMES MEDICAL PRACTICE1,-2.097323,52.514234
848.48,MORETON MEDICAL CENTRE,-3.110005,53.39886
1146.7100000000005,DRS HANIF &  BANNURU,-2.184157,53.484308
4364.26,SWALLOWNEST HEALTH CENTRE,-1.317097,53.362997
648.3799999999999,BOUNDARY HOUSE SURGERY,-0.054245,51.632475
4183.92,WESTBURY GROUP PRACTICE,-2.203558,51.252792
1128.0299999999995,HIGHLEY MEDICAL CENTRE,-2.392978,52.456165
1386.39,WOLSTON SURGERY,-1.392727,52.376806
918.28,BALLIOL ROAD SURGERY,-1.471449,52.415924
1428.33,NEWTON MEDICAL CENTRE,-2.638386,53.457172
1380.24,TIMPERLEY HEALTH CENTRE (WESTWOOD),-2.323566,53.397228
1264.37,LIMES MEDICAL CENTRE,-1.387885,53.098493
1746.0299999999993,SELSTON SURGERY,-1.299871,53.070196
1918.8100000000006,CRYSTAL PEAKS MEDICAL CENTRE,-1.354473,53.342881
1009.5699999999997,CHURCH LANE SURGERY,-0.262165,51.574931
584.1400000000001,ACRE SURGERY,-0.411552,51.604465
816.6899999999998,CUMBERLAND MEDICAL CENTRE,0.026047,51.519716
1054.2800000000002,MAIDSTONE RD CHATHAM SURGERY,0.516708,51.361226
1517.0300000000002,LONG BARN LANE SURGERY,-0.967033,51.436181
1333.15,OMBERSLEY MEDICAL CENTRE,-2.229023,52.276554
1677.96,MAYFIELD MEDICAL CENTRE,-2.093284,52.583046
446.18,DR M GOYAL'S PRACTICE,0.156711,51.540066
2363.340000000001,TOLLGATE MEDICAL CENTRE,0.056362,51.515573
1239.88,WAKE GREEN SURGERY,-1.883357,52.446103
1157.3300000000004,RAINHILL VILLAGE SURGERY,-2.763813,53.41631
1221.1,NEW ISLINGTON MEDICAL CENTRE,-2.219472,53.4829
1950.8600000000006,CLARENDON MEDICAL CENTRE,-2.079951,53.45264
2255.09,WIRRAL WIC (APH)_WIC APH,-3.096815,53.36964
2781.4300000000007,(FRACTURE CLINIC) NORTH OOH,-0.883829,52.236068
36.88,CARLISLE LOCALITY PRIMARY CARE SERVICES,-2.8956419999999996,54.892234
4759.27,MERSEYCARE NHS TRUST - NMP,-2.933499,53.407265
106.63,CORRINGHAM HUB,0.42690200000000006,51.513843
12.48,OPTIMUSEXTENDEDACCESS,-0.596637,53.18754
4.84,COMMUNITY RESPIRATORY TEAM,-2.931104,53.466323
2660.1999999999994,COLLEGE LANE SURGERY,-1.336292,53.644573
2546.52,THE ORCHARD MED PRACTICE,-1.231693,52.533972
5662.310000000001,STANMORE MEDICAL GROUP,-0.204612,51.913274
1860.04,KEATS GROUP PRACTICE,-0.17103,51.555534
4070.74,DOWNING STREET GROUP PRACTICE,-0.7989009999999998,51.212905
420.69000000000017,ASHBURTON PARK MEDICAL CENTRE,-0.064221,51.384147
397.99,NEATH HILL HEALTH CENTRE,-0.747321,52.060411
2833.59,BRINNINGTON SURGERY,-2.132367,53.427651
365.76,HALF PENNY STEPS HEALTH CENTRE,-0.206044,51.526213
9260.12,CARLISLE HEALTHCARE,-2.930647,54.893714
2838.09,THE GOLDEN BROOK PRACTICE,-1.272531,52.901553
1701.4699999999993,RUSKINGTON SURGERY,-0.400977,53.048226
1344.0399999999993,DUKE MEDICAL CENTRE,-1.455657,53.378576
11.86,CHILD AND FAMILY SERVICES,-1.5080049999999998,52.413401
81.37,DMC COMMUNITY DERMATOLOGY SFSS,-2.98492,53.449136
442.93,THE TUDOR HOUSE MEDICAL CENTRE,-0.266689,51.564495
1613.7099999999996,LABURNUM HEALTH CENTRE,0.151208,51.560662
1488.0600000000004,PRIMECARE PMS (SOUTH STREET),-0.012448,51.476194
855.0399999999998,THE GARDENS SURGERY,-0.066803,51.46061
1813.11,NORDEN HOUSE SURGERY,-0.882727,51.944924
887.5799999999998,BREDON HILL SURGERY,-2.104857,52.030166
2516.099999999999,PHOENIX FAMILY CARE,-1.51543,52.390005
2011.84,CHURCH STREET PRACTICE,-0.459783,51.37345
1681.8400000000006,LEYBOURNE SURGERY,-1.88721,50.758437
1780.71,PATFORD HOUSE PARTNERSHIP,-2.005519,51.437601
880.0999999999998,ESTOVER SURGERY,-4.0952,50.411271
2310.15,NORTHGATE MEDICAL CENTRE,-2.892972,53.19509300000001
1413.77,WESTLEIGH MEDICAL PRACTICE,-2.526024,53.510851
878.8900000000001,WINDMILL SURGERY,-1.48555,52.449933
576.2500000000001,ARNOS GROVE MEDICAL CENTR,-0.129838,51.615476
186.0,ST.QUINTIN HEALTH CENTRE,-0.220325,51.519199
1774.86,PARK COMMUNITY PRACTICE,-1.871717,53.725678
94.01,WALTHAM FOREST CCG(NMP-COMMUNITY HEALTH),-0.022546,51.616083
55.90000000000001,CHESTERFIELD HEALTH PROVIDER LTD,-1.43962,53.233943
378.36,MELROSE SURGERY,-1.287301,54.609397
2930.909999999999,LAKENHAM SURGERY,1.296577,52.6183
2705.9300000000007,ISLAND HEALTH,-0.013513,51.495357
3190.550000000001,STANFORD MEDICAL CENTRE,-0.148293,50.838378
2873.2000000000007,NEWINGTON ROAD SURGERY,1.399222,51.343459
1893.25,THE WHITELEY SURGERY,-1.266072,50.88262
2988.110000000001,THE ELMS PRACTICE,-0.976476,50.789794
604.46,CHILLINGTON HEALTH CENTRE,-3.693645,50.272623
274.04,AMBAR MEDICAL CENTRE,-1.991354,52.575093
35.56999999999999,STREET LANE DERMATOLOGY CLINIC,-1.513393,53.843234
1493.1600000000005,RISEDALE SURGERY,-3.224778,54.109942
2498.2,BASLOW RD  SHOREHAM ST & YORK RD SRGIES,-1.531066,53.316325
3021.5799999999986,MANOR DRIVE MEDICAL CENTRE,-0.24836599999999998,51.380785
288.4899999999999,NELFT SOUTH WEST ESSEX CS,0.496195,51.591456
5.58,COMMUNITY MIDWIVES,-2.784954,53.420469
1869.9299999999994,WIBSEY & QUEENSBURY MED P,-1.779715,53.767225
471.55,BROOK GREEN SURGERY,-0.218145,51.495291
546.1,DR MOHAMMED GREEN MAN MEDICAL CENTRE,0.015000999999999999,51.571506
1431.1100000000006,NORK CLINIC,-0.215842,51.326429
2161.17,QUEENHILL MEDICAL PRACTICE,-0.066791,51.34499
5206.18,THE BOSMERE MEDICAL PRACTICE,-0.990581,50.850232
1141.33,THE LONG BUCKBY PRACTICE,-1.08255,52.30049
2163.3400000000006,GLOUCESTER CITY HEALTH CENTRE,-2.245328,51.860355
1519.0600000000006,NORTHWAY MEDICAL CENTRE,-2.130997,52.54810500000001
1832.43,ASHBOURNE MEDICAL PRACTICE,-1.737589,53.012862
2285.88,BIRLEY HEALTH CENTRE,-1.396985,53.340317
2125.68,PARKFIELD MEDICAL CENTRE,-0.179588,51.695129
980.44,REDWOOD PRACTICE,-0.359614,51.461125
452.74,ABBEY COURT,0.26122,51.137755
1044.2,OPEN DOOR SURGERY,-0.155581,51.443166
940.3599999999997,BROSELEY MEDICAL PRACTICE,-2.481266,52.611554
1822.6,BEECH TREE MEDICAL PRACTICE,-1.252936,52.377534
82.26999999999998,I HEART BARNSLEY OOH,-1.4569,53.543072
1325.02,ROYSTON GROUP PRACTICE,-1.451018,53.600005
153.22,FULHAM CROSS MEDICAL CENTRE,-0.214067,51.482774
1810.67,BELMONT SURGERY,0.340829,51.061952
881.3300000000002,BANBURY ROAD MEDICAL CENTRE,-1.263535,51.774771
187.30000000000004,HILL TOP PRACTICE,-2.011775,52.537791
86.34999999999998,GREAT CHAPEL STREET MEDICAL CENTRE,-0.134097,51.51508
20.630000000000006,A&E GPS,-2.629091,53.55774
1443.2300000000007,WINTERTON MEDICAL PRACTICE,-0.606876,53.652511
1851.8200000000006,THE OLD SCHOOL MEDICAL PRACTICE,-1.1424040000000002,53.916163
1404.07,MEXBOROUGH HEALTH CENTRE,-1.279795,53.494237
0.3,HMP EASTWOOD PARK,-2.467383,51.634454
27.21,ROTHERHAM HOSPICE,-1.340784,53.424046
79.98,UHMB COMMUNITY NMP,-2.799232,54.042726
2309.74,NORWOOD MEDICAL CENTRE,-3.222974,54.119201
851.51,PICTON MEDICAL CENTRE,-1.77624,53.807296
4852.899999999999,ORCHARD MEDICAL PRACTICE,-1.206764,53.141121
697.3200000000002,THE VILLAGE SURGERY,-0.168135,51.648069
2067.1,ST. BARTHOLOMEWS SURGERY,0.051755,51.532409
7919.7599999999975,THE WILLOW GROUP,-1.143034,50.800579
1527.03,PORT VIEW SURGERY,-4.214351,50.40735
2650.25,STANMORE HOUSE SURGERY,-2.231468,52.391138
4966.02,SOLIHULL HEALTHCARE PARTNERSHIP,-1.775235,52.419642
45.18,RICHARDSON COMMUNITY HOSPITAL,-1.9161529999999998,54.545708
126.02,BSUH DERMATOLOGY SERVICE,-0.115477,50.83046
2611.9,IVY GROVE SURGERY,-1.402822,53.042198
2366.6900000000005,THE LINDEN MEDICAL GROUP,-1.273642,52.931099
2163.9499999999994,BUTE HOUSE MEDICAL CENTRE,-0.423966,51.880162
1738.6,GURU NANAK MEDICAL CENTRE,-0.387151,51.511774
1.63,WESTMINSTER SCHOOL,-0.128107,51.498762
392.21,SOUTH GREEN SURGERY,0.430504,51.613411
936.5399999999998,RICHMOND ROAD MEDICAL CENTRE,-0.065532,51.543051
3080.4700000000007,OLD SCHOOL SURGERY,0.100722,50.772062
2710.2700000000004,LAMBTON ROAD MEDICAL PRACTICE,-0.231169,51.411219
2109.72,LORDSHILL HEALTH CENTRE,-1.448733,50.940999
2058.0200000000004,HOLES LANE MEDICAL CENTRE,-2.545107,53.399828
1606.66,THE GILL MEDICAL PRACTICE,-2.398384,53.524288
665.73,PAK HEALTH CENTRE,-1.856091,52.490749
1435.1900000000005,WALFORD STREET  TIVIDALE,-2.059752,52.513192
12.0,NT&H COMM NURSES DN,-1.227837,54.702398
1290.65,RUSHEY MEAD HEALTH CENTRE,-1.103823,52.663187
2245.81,BRAMHALL HEALTH CENTRE,-2.162929,53.36001
738.2700000000002,AYLESBURY SURGERY,-1.876053,52.542854
346.86,NEVILLE ROAD SURGERY,-0.443036,51.906419
31.96,INTEGRATED COMMUNITY RESPONSE SERVICE,-0.371755,51.468263
760.9599999999998,THE PRACTICE BEAUMONT LEYS,-1.15392,52.662296
477.2899999999999,KINGSWAY SURGERY,-0.437208,51.517478
2828.4999999999995,BELLEGROVE SURGERY,0.09579,51.464561
3880.529999999999,CHEAM GP CENTRE,-0.225239,51.368621
381.51,HANDSWORTH MEDICAL PRACT.,-1.941212,52.505377
1068.39,BEARWOOD MEDICAL CENTRE,-1.97344,52.476903
524.96,BEEHIVE SURGERY,-2.419172,53.564161
2405.57,THE CHEYLESMORE SURGERY,-1.503924,52.391324
3313.5199999999986,ST PETER'S SURGERY,-1.984855,52.594537
1245.0600000000004,MANOR HEALTH CTR,-3.044493,53.421061
642.6399999999999,THE CROSSROADS SURGERY,-2.770123,53.417492
634.36,LAS S.E. LONDON IUC CAS,-0.10903099999999999,51.500174
2821.319999999999,ADELAIDE STREET SURGERY,-3.048397,53.817351
482.53,CAVENDISH HEALTH CENTRE,-0.148092,51.519331
3221.0499999999993,BROWNLOW GROUP PRACTICE,-2.96585,53.405021
6.29,COMMUNITY GYNAE SERVICE,-1.555879,53.778323
43.38,WYRE FOREST COMMUNITY NURSES,-2.244954,52.387785
1355.6500000000005,THE LAKES MEDICAL PRACTICE,-2.742581,54.656125
3349.6700000000005,OSMASTON SURGERY,-1.467954,52.911084
2196.1799999999994,HOLBEACH MEDICAL CENTRE,0.014430000000000002,52.804778
841.1400000000001,LAMBOURN SURGERY,-1.526933,51.504696
3631.55,KNOWLE HOUSE SURGERY,-4.134098,50.40863
1222.4900000000002,VALE OF RED HORSE,-1.510351,52.15797
1042.2000000000003,BALSALL COMMON & MERIDEN GROUP PRACTICE,-1.643862,52.394956
2444.350000000001,DINAS LANE MEDICAL CENTRE,-2.861513,53.417388
413.68,DORKING HEALTHCARE LLP,-0.333421,51.225985
804.1899999999998,DURNFORD DERMATOLOGY CATS,-2.197033,53.554038
1942.34,GREAT BRIDGE HEALTH CENTRE,-2.02775,52.527792
98.69,NON MEDICAL PRESCRIBING SOUTHEND CCG,0.702782,51.583955
50.77,FITZWILLIAM HOSPITAL,-0.297549,52.576469
3297.2499999999995,ST ANN'S ROAD SURGERY,-0.08783399999999998,51.581428
10.6,DAWN CLINIC,-1.7272,51.538528
2218.72,TAURUS HEALTHCARE LTD,-2.71099,52.05708
564.65,CARTMEL SURGERY,-2.946985,54.199165
3072.030000000001,MEADOWGREEN HEALTH CENTRE,-1.480804,53.326831
3425.4999999999995,CRUDDAS PARK SURGERY,-1.630965,54.968173
1831.99,HAWORTH MEDICAL PRACTICE,-1.954883,53.831322
663.1899999999998,WELBECK SURGERY,-1.147823,52.979645
2219.4400000000005,WICKHAM MARKET MEDICAL CENTRE,1.363674,52.151842
1750.03,DR YADAVA N PRACTICE,0.334586,51.476703
5564.49,THORNHILLS MEDICAL PRACTICE,0.440958,51.300117
2505.3100000000004,BIDDULPH VALLEY SURGERY,-2.178498,53.116111
3690.0800000000013,STOCKTON HEATH MED.CENTRE,-2.582161,53.37195
2261.75,CHORLTON FAMILY PRACTICE,-2.279717,53.443773
141.66,DR R KAPUR & PARTNERS,-1.119092,52.631036
1578.6400000000006,WESTBOURNE SURGERY,-1.8061,53.650937
424.54,DR WEBB AND PARTNERS,-1.308041,52.968251
967.63,SILVERDALE MEDICAL CENTRE,-1.090548,52.672318
5528.65,PARKBURY HOUSE SURGERY,-0.334063,51.756766
885.5499999999998,THORNTON & VALLEY PARK SURGERY,-0.120709,51.388871
978.75,MOORDOWN MEDICAL CENTRE,-1.874485,50.756212
2312.149999999999,WOLVERTON HEALTH CENTRE,-0.814934,52.054197
758.7599999999996,GREET MEDICAL PRACTICE,-1.857778,52.453195
3366.8999999999987,THE PARK MEDICAL PRACTICE,-2.739045,53.77018
296.9700000000001,CROSSWAYS PRACTICE,-3.023992,53.484655
17.670000000000005,DERMATOLOGY-MERTON CCG,-0.210281,51.409967
6228.910000000003,CENTRAL SURGERY,-1.265473,52.371743
0.69,HMP BRISTOL,-2.591585,51.480902
1072.2900000000004,BHF LUNDWOOD SURGERY,-1.438538,53.557711
1858.06,WOODLANDS PARK HEALTH CTR,-1.628825,55.04614
1247.35,MAYFORD HOUSE SURGERY,-1.446534,54.328376
1868.41,HAVEN MEDICAL CENTRE,-1.416874,52.891498
3316.3799999999987,CASTLE HEALTHCARE PRACTICE,-1.144908,52.930476
595.05,IMEARY STREET PRACTICE,-1.424863,54.98753000000001
2217.639999999999,TRINITY & BOWTHORPE MEDICAL PRACTICE,1.280248,52.624411
367.36,WAKEMANS HILL SURGERY,-0.254209,51.587088
1397.7400000000002,HARROW ROAD GP CENTRE,0.012856,51.559538
6154.550000000001,THE SWAN PRACTICE,-0.985664,52.001593
2007.62,NESTON MEDICAL CENTRE,-3.064349,53.291818
2362.85,ST.MARY'S HEALTH CENTRE,-2.729589,53.747433
417.4,ASKAM SURGERY,-3.210918,54.183705
2306.81,GRANGE PARK SURGERY,-1.7481080000000002,53.912695
4105.93,BEECHFIELD MEDICAL CENTRE,-0.145012,52.787253
1552.4700000000007,GRIMETHORPE SURGERY,-1.378978,53.573614
648.76,HANWELL HEALTH CENTRE (NAISH),-0.334375,51.510263
1597.8000000000004,WEST ROAD SURGERY,0.70187,51.544989
1017.4700000000003,PENN SURGERY,-2.145001,52.568567
749.19,SARAF MEDICAL PRACTICE,-2.076954,53.561455
1429.0799999999995,DELL MEDICAL CENTRE,0.328114,51.480258
642.6599999999999,GATDOC OOH,-1.580781,54.93938000000001
706.7199999999998,THE TRINITY MEDICAL CENTRE,0.085815,51.478803
900.65,ASHVILLE SURGERY,-0.201145,51.476255
2221.77,DR HANTSDOC N OOH,-1.109918,51.280633
26.83,HOLYWELL AT LANGLEY HOUSE HCT,-0.391206,51.683651
35.58,NEAS HAST CCG,-1.712365,54.969713
46.88,DGS HEALTH,0.343258,51.435153
13.53,DARLINGTON PALLIATIVE CARE,-1.567053,54.529074
1912.5300000000007,EN HERTS ACUTE IN-HOURS VISITING SERVICE,-0.191727,51.782567
219.22,PARTNERSHIP STOKE,-2.109085,52.810605
612.4599999999998,OAK GLEN SURGERY,-1.816352,53.854799
959.13,OAKWOOD SURGERY,-1.4290459999999998,52.941386
1262.32,THE KAKOTY PRACTICE,-1.473444,53.5464
1632.8199999999995,NEWCASTLE GP IN MOLINEUX WIC,-1.583491,54.977507
2502.9400000000005,BURNGREAVE SURGERY,-1.459815,53.393327
7184.140000000001,COLCHESTER MEDICAL PRACTICE,0.909325,51.890029
1757.85,ESHER GREEN SURGERY,-0.370196,51.375782
2164.04,ASHFIELD MEDICAL CENTRE,-0.7382729999999998,52.019666
2448.510000000001,TETTENHALL MEDICAL PRACTICE,-2.159502,52.600723
732.27,PENNY LANE SURGERY,-2.915004,53.389404
1193.48,CORNERSTONE SURGERY,-2.457402,53.58815500000001
1508.5,VICTORIA PARK HEALTH CENTRE,-1.1192,52.619071
681.5,OLD FORGE SURGERY,-2.079758,54.623041
1101.07,VESPER ROAD,-1.615337,53.827318
797.26,GLADSTONE HOUSE SURGERY,-1.307927,52.968816
1505.9299999999996,LANGSTONE WAY SURGERY,-0.210815,51.606981
437.86,ELMTREES SURGERY,-0.335968,51.550787
1591.7700000000007,SNODLAND MEDICAL PRACTICE,0.441488,51.326053
1248.7900000000004,LEITH HILL PRACTICE,-0.322969,51.150452
312.0,MALTHOUSE MEADOWS SURGERY,-2.568038,50.668698
967.9599999999998,HARBURY SURGERY,-1.458027,52.236759
2364.49,QUEEN SQUARE MEDICAL PRACTICE,-2.800994,54.046219
2190.55,MARUS BRIDGE PRACTICE,-2.643772,53.529393
67.99,HEALTH E1,-0.07152500000000002,51.518304
67.52,CAXTON HOUSE SURGERY,-1.382415,53.575347
790.2899999999998,OUT OF HOURS CENTRE,-1.842798,54.869081
69.68,ALEX CENTRE UNREGISTERED WIC,-0.369696,51.568372
646.0500000000002,WESTCOTES MEDICAL CENTRE,-1.153587,52.63133199999999
525.8099999999998,WEST MERTON ACCESS HUB,-0.210281,51.409967
692.2399999999999,DERBY CITY SOUTH HEALTHCARE LTD,-1.531656,52.891817
2.35,SAFECARE NETWORK,-0.647232,53.568261
1377.32,BUNBURY MEDICAL PRACTICE,-2.649377,53.116827
3174.7100000000014,CASTLETON HEALTH CENTRE,-2.18229,53.597034
1297.0099999999998,SALFORD GP OUT OF HOURS,-2.323424,53.487545
243.49,NOTTINGHAM CITYCARE,-1.155769,52.951832
84.15999999999998,ASHTON PCC SEVEN DAY ACCESS OOH,-2.099981,53.485827
1057.63,DR A CALOW'S PRACTICE,-2.503837,53.742584
3571.91,CHEADLE MEDICAL PRACTICE,-2.213539,53.393745
1339.9299999999996,GREEN STREET GREEN MED CT,0.089996,51.354366
641.56,3/ST ANDREWS MEDICAL CENTRE,-2.339619,53.484875
3.54,EAR NOSE AND THROAT CLINIC,-1.597685,54.851721
756.12,BLACKFRIARS,-2.254244,53.484135
3.62,FIRST COMMUNITY HEALTH & CARE,-0.170767,51.235608
592.5100000000001,CALDBECK SURGERY,-3.050622,54.749864
1469.4199999999996,DR INGRAM & PTRS,-1.526892,54.136451
1593.77,HOUNSFIELD SURGERY,-0.811033,53.183702
1243.7600000000002,LENSFIELD MEDICAL PRACTICE,0.124449,52.198365
2385.26,CEDAR BROOK PRACTICE,-0.41413199999999994,51.534092
682.59,ROSE VILLA SURGERY,0.506616,51.566232
1309.5900000000004,BOYATT WOOD SURGERY,-1.36001,50.977856
1755.16,RISING BROOK,-2.118782,52.787133
638.92,ST JAMES MEDICAL PRACTICE2,-2.097323,52.514234
249.63,LINGHOLME HEALTH CENTRE,-2.744752,53.457769
4004.5000000000014,PEEL HOUSE MEDICAL PRACTICE,-2.365995,53.75089200000001
2208.65,GRASMERE SURGERY,-2.511455,53.503236
10115.01,TELDOC,-2.435206,52.672614
0.79,SW INTEGRATED TEAM WORCESTER,-2.178135,52.192339
64.72,GP EXTENDED ACCESS - HARROGATE,-1.529793,53.996354
4596.510000000002,ST ANDREW'S MEDICAL PRACTICE,-1.598213,54.699634
2508.96,SPINNEY HILL MEDICAL CENTRE,-1.109212,52.637381
1724.5600000000006,MARTLESHAM SURGERY,1.272068,52.061314
409.67,THE AVENUE SURGERY,-0.319031,51.518389
2952.3500000000013,ST.JAMES SURGERY,1.147433,51.787326
2593.79,SANDWICH MEDICAL PRACTICE,1.337364,51.274071
411.8399999999999,MODALITY ANN JONES FAMILY HEALTH CENTRE,-1.871333,52.462659
1361.1300000000006,CENTRAL SURGERY,-2.74261,53.456686
831.8800000000001,DALTON TM,-2.643772,53.529393
1650.86,MIRIAM MINOR EMERGENCY,-3.04649,53.39824599999999
394.0,LIVEWELL S/W,-4.116613,50.378837
767.4300000000003,BALDERTON SURGERY,-0.7864679999999998,53.052881
2233.2,NORTH ROAD SUITE RAVENSTHORPE HEALTH CTR,-1.661589,53.677829
1712.35,CASTLE MEAD MEDICAL CENTRE,-1.367743,52.541052
1940.0300000000007,RISE PARK SURGERY,-1.174951,53.011477
2775.130000000001,THE MEDICI MEDICAL PRACTICE,-0.418382,51.874494
1100.28,ELLIS PRACTICE,-0.276552,51.563894
1778.2000000000005,NEW ELTHAM AND BLACKFEN MEDICAL CENTRE,0.074199,51.434495
2019.58,THE GROVE MEDICAL CENTRE,-2.513702,50.953273
3618.470000000001,THE HADLEIGH PRACTICE,-1.993525,50.761018
4406.87,THREE CHEQUERS MEDICAL PRACTICE,-1.794625,51.071924
272.2300000000001,CORNERSTONE SURGERY,-2.724149,53.454211
434.17,HIGHER HEYS SURGERY,-2.394094,53.740865
3110.0800000000013,DELAMERE MEDICAL PRACTICE,-2.307365,53.450887
1422.6299999999994,OAK TREE HEALTH CENTRE,-1.2409629999999998,51.614986
1540.1899999999994,THE TRINITY MEDICAL PRACTICE,0.760305,51.684982
253.34,BECKENHAM BEACON URGENT CARE CENTRE,-0.033209,51.405232
323.37,NORWICH IMPROVED ACCESS HUB,1.319958,52.632405
1.13,BRAMLEY COMMUNITY CARE BEDS,-1.623032,53.80781999999999
3328.7100000000005,BRIDGE VIEW MEDICAL GROUP,-1.401824,54.919455
2302.689999999999,CAYTHORPE & ANCASTER MEDICAL PRACTICE,-0.536327,52.981851
476.22,BRAYFORD SQUARE SURGERY,-0.050404,51.514375
1463.74,ELMDENE SURGERY,0.263153,51.446098
1778.81,THAMES AVE SURGERY,0.603057,51.36344
317.02,TRAFALGAR SURGERY,-0.074414,51.485672
1095.96,THE ORCHARD PRACTICE,-0.303542,51.369116
1070.61,UNIVERSITY HEALTH SERVICE,-1.395714,50.934099
1176.4800000000005,LINDEN MEDICAL CENTRE,-0.737415,51.530813
1218.45,ST SAVIOURS SURGERY,-2.308488,52.130324
1337.38,WEST HEATH SURGERY,-1.96202,52.401797
486.3399999999999,MOOR PARK MEDICAL PRACTICE,-1.7218490000000002,53.797834
35.5,YORKSHIRE SMOKEFREE,-1.018306,53.503028
3623.95,THE CENTRAL SURGERY BARTON,-0.439445,53.684236
2195.14,MICKLEOVER MEDICAL CENTRE,-1.54633,52.907111
951.0399999999997,THE ELMS SURGERY,-0.404224,51.661642
5062.819999999999,BUXTED MEDICAL CENTRE,0.132095,50.989406
2793.100000000001,WEST END ROAD SURGERY,-1.359281,50.916702
2205.26,PINHOE SURGERY,-3.469622,50.737528
1601.73,PRESCOTT SURGERY,-2.852689,52.784345
1870.4600000000007,HEATON ROAD SURGERY,-1.579814,54.978269
469.92,HANCOCKS ME,-0.41296400000000005,53.782123
246.76,COLSTERWORTH SURGERY,-0.619356,52.806388
144.84,SOMERSET MEDICAL CENTRE,-0.371127,51.522244
2198.1999999999994,DOWNLANDS MEDICAL CENTRE,0.244085,50.822919
2748.930000000001,OTFORD MEDICAL PRACTICE,0.191446,51.31358
2110.8600000000006,BURNEY STREET PMS,-0.009168,51.479034
4753.6,ROYAL CRESCENT SURGERY,-2.452679,50.616587
133.9,ABBEY MEDICAL CENTRE,-0.982406,51.453949
968.4799999999997,ST.BARTHOLOMEWS MEDICAL CENTRE,-1.232108,51.747668
1929.93,DR SN CLAY AND PARTNERS,-1.832005,52.528641
1825.9800000000007,WORDSLEY GREEN HEALTH CENTRE,-2.164692,52.480602
151.54,URGENT CARE,0.475497,50.850706
3488.0200000000013,SAFFRON HEALTH PARTNERSHIP,-0.264459,52.084232
1699.7800000000002,GLADSTONE MEDICAL CENTRE,-0.24612,51.558731
974.36,ST MARTINS MEDICAL CENTRE,-0.424566,51.577646
668.78,ABRIDGE SURGERY,0.12458,51.653631
2229.76,WEAVER VALE PRACTICE,-2.696866,53.325561
2668.34,GLOVERS LANE SURGERY,-2.971961,53.488314
777.95,VILLAGE SURGERY,-0.255874,51.399503
422.31,DR KHALIQ,-1.799612,53.663276
1423.1899999999996,NEWHOLME SURGERY,-2.74261,53.456686
28.7,CCCT 2,-2.019013,53.955694
20.57,FELIXSTOWE HOSPITAL,1.35594,51.963766
1451.7500000000002,LUNESDALE SURGERY,-2.602213,54.200573
1011.6,SPILSBY SURGERY,0.098963,53.173049
938.08,BRIDGEWAY PRACTICE,-1.147343,52.943574
5479.579999999999,LITTLE WALTHAM & GT NOTLEY SURGERY,0.477622,51.787396
2249.39,DR KUMAR & PARTNER STUDFALL MEDICAL CTR,-0.704816,52.495882
1844.28,CASTLE PLACE PRACTICE,-3.492865,50.908884
2219.4,NUNWELL SURGERY,-2.507177,52.187931
4149.550000000002,THREE SPIRES MEDICAL PRACTICE,-5.055864,50.259982
1529.5900000000006,MYTTON OAK MEDICAL PRACT.,-2.797762,52.707667
973.8899999999999,DR VSR CHADALAVADA,-2.139143,53.0416
129.82999999999998,KEYNELL COVERT,-1.911857,52.408441
17.66,STRELLEY HEALTH CENTRE (COCKRILL),-1.227726,52.973231
938.96,PHOENIX MEDICAL PRACTICE,0.48126899999999995,51.328805
1.49,INTERGRATED COMMUNITY PAEDIATRIC SERVICE,-2.384279,53.582354
264.95000000000005,KIRKHOLT MEDICAL PRACTICE,-2.162243,53.59832
1436.21,DR AZIM & PARTNERS,-0.225729,51.579655
469.92,BHF HIGHGATE SURGERY,-1.378978,53.573614
2571.379999999999,DOLPHIN HOUSE SURGERY,-0.029818,51.810791
514.04,THE CIVIC MEDICAL CENTRE,-0.337497,51.587155
938.35,CHANCERY LANE SURGERY,-1.521755,52.536173
1030.4600000000003,NECHELLS PRACTICE,-1.876618,52.493743
1759.9,THE LIMES MEDICAL CENTRE,-1.974677,52.58065500000001
359.9599999999999,PRINGLE STREET SURGERY,-2.467594,53.742039
2687.84,BROADWAY MEDICAL CENTRE,-3.033843,53.912667
664.9,EASTGATE SURGERY,-0.519836,51.886145
1654.42,PHOENIX PRIMARY CARE (SOUTH) LTD,-0.441597,51.88973
237.57,PATIENT FIRST SOCIAL ENTERPRISE,0.006461,51.542096
720.39,CWP (WEST) PHYSICAL HEALTH,-2.897884,53.2088
177.0,NSC BOSWORTH HUB,-1.7536330000000002,52.480569
1322.51,THE NEW SPRINGWELLS PRACTICE,-0.340804,52.893623
1636.8000000000006,SAME DAY HEALTH CNTRE COASTAL HEALTHCARE,-2.859565,54.072841
125.4,THE CONFEDERATION HILLINGDON CIC,-0.47790600000000005,51.547653
32.1,HMR CCG HART,-2.152215,53.620446
11.36,ARC,-3.002931,53.801771
37.87000000000001,EXTENDED ACCESS PCD CONISBROUGH GROUP,-1.237653,53.482282
3052.97,THE GARTH,-1.055444,54.532597
2028.86,THE GABLES MEDICAL GROUP,-1.564429,55.140811
2544.840000000001,PRACTICE ONE,-0.201064,54.084715
3401.18,CHURCH STREET SURGERY,-1.583343,53.681523
1258.3500000000004,HIGH STREET SURGERY  EPPING,0.113402,51.700812
524.5799999999999,HIGH STREET SURGERY,0.223589,51.561554
621.7699999999996,BERRYLANDS SURGERY,-0.299929,51.390825
314.69999999999993,PROSPECT HOUSE SURGERY,-0.705258,51.701136
2132.85,WOODSETTON MEDICAL CENTRE,-2.10089,52.537994
1222.6200000000003,THE BORCHARDT MEDICAL CENTRE,-2.237795,53.434307
274.04,CHAPEL MEDICAL CENTRE,-2.418293,53.449094
2055.77,NEWLANDS MEDICAL CENTRE,-1.226035,54.571931
3938.66,SKERNE MEDICAL GROUP,-1.4488,54.654032
940.3499999999997,BACON LANE SURGERY,-0.275903,51.605078
3615.04,THE LIMES MEDICAL CENTRE,0.123958,51.706179
240.93,MITCHAM FAMILY PRACTICE,-0.167118,51.410109
1849.81,SPA MEDICAL CENTRE,-2.126012,51.366868
538.47,BOURNBROOK VARSITY MEDICAL CENTRE,-1.929903,52.445713
267.77,CAUSEWAY GREEN ROAD SURGERY,-2.014697,52.484564
4256.890000000001,PATTERDALE LODGE MED CTRE,-2.64461,53.452446
1730.0,CENTRAL MEDICAL CENTRE,-0.245977,52.587
2821.160000000001,WILLOW BANK SURGERY,-2.102853,52.97847
210.35,BANES ENHANCED MEDICAL SERVICE (BEMS+),-2.372621,51.358169
2056.42,GOLDENHILL MEDICAL CENTRE,-2.221385,53.076901
1721.5600000000004,JIGGINS LANE MEDICAL CENTRE,-1.995411,52.436801
21.22,DARTMOUTH MEDICAL CENTRE,-2.005409,52.520435
88.57999999999998,PEEL PRECINCT SURGERY,-0.198814,51.534421
2067.330000000001,VC WEST LANCS HC-UCC,-2.871252,53.564616
1712.9699999999998,NORTH PARK HEALTH CENTRE,-2.995994,53.458392
94.15999999999998,TELFORD OOH,-2.732712,52.740396
2.77,PRACTICE OPHTHALMOLOGY SERVICE HARINGEY,-0.574826,51.671154
33.87,RAMSAY HEALTHCARE - NORTH DOWNS HOSPITAL,-0.079153,51.273556
838.27,SHAP MEDICAL PRACTICE,-2.677931,54.52889
2153.32,THE GLEN MEDICAL GROUP,-1.52187,54.97385
2472.800000000001,MILLVIEW MEDICAL CENTRE,-0.30904,52.981326
3133.96,THE HEALTH CENTRE PRACTICE,-0.020738999999999997,52.048757
902.09,BELGRAVIA SURGERY,-0.14856,51.495004
1280.8099999999995,CHAPEL STREET SURGERY,0.051144,50.79327
1243.13,GREEN PRACTICE,-0.371755,51.468263
744.8899999999996,BLACKFRIARS MEDICAL PRACTICE,-0.105775,51.505364
448.75000000000006,CRONDALL NEW SURGERY,-0.858386,51.237211
831.4899999999997,CHADDESLEY SURGERY,-2.158038,52.361961
1733.6999999999996,DR JUDE'S PRACTICE - RIVERSIDE,-2.943016,53.398876
538.65,THE MANOR PARK PRACTICE,0.057339,51.55393
706.1499999999997,TRENTHAM MEWS MEDICAL CENTRE,-2.189898,52.970452
3.26,NATIONAL SOCIETY FOR EPILEPSY,-0.551146,51.62127
216.25,CANNOCK MINOR INJURIES UNIT,-2.030614,52.693241
670.7099999999998,WIDNES GP EXTRA SERVICE,-2.735705,53.362158
1414.24,DR THORNILEY-WALKER & PARTNERS,-1.460703,54.949762
1400.67,DR U AKBAR,-1.777945,53.803569
670.93,AIREBOROUGH FAMILY PRACTICE,-1.684881,53.866663
2004.1900000000005,THE BURBAGE SURGERY,-1.361645,52.53009599999999
1144.5599999999995,SCHOOL HILL MEDICAL PRACTICE,0.012064,50.873469
2217.8800000000006,GRAYSHOTT SURGERY,-0.745626,51.110093
594.6099999999999,OLD SCHOOL HOUSE SURGERY,-1.604408,51.376032
1954.1500000000005,THE ARDLEIGH SURGERY,0.985096,51.927073
2497.69,STONE CROSS SURGERY,0.289944,50.816757
681.6099999999999,MARSHALLS ROAD SURGERY,-0.539225,52.344743
4042.86,DARWIN MEDICAL CENTRE,-1.831505,52.694061
1795.1799999999994,SOUTH HERMITAGE SURGERY,-2.752497,52.699728
176.99,AR-RAZI MEDICAL CENTRE,-1.101204,52.623926
1845.63,OAKENHALL MEDICAL PRACT,-1.199437,53.03661700000001
1606.09,LAWNS PRACTICE,1.109092,52.378889
647.07,CHURCH END MEDICAL CENTRE,-0.253241,51.54757
1504.6800000000005,THE DEVONSHIRE LODGE PRACTICE,-0.397406,51.579266
1888.68,STANWELL ROAD SURGERY,-0.470567,51.438013
446.53,WIDCOMBE SURGERY,-2.354321,51.376371
2640.08,HILLVIEW MEDICAL CENTRE,-1.951153,52.305568
1442.66,LONGTON MEDICAL CENTRE,-2.770123,53.417492
1512.27,DR AHMAD & PTNRS,-2.595925,53.522279
1319.5400000000004,JS MEDICAL PRACTICE,-0.078706,51.589103
753.9199999999998,SUMMERFIELD GP SURG & URGENT CARE CENTRE,-1.937353,52.487686
1304.41,THE WILLASTON SURGERY,-3.011643,53.292908
35.55999999999999,EPUT TISSUE VIABILITY,0.12393,51.704295
4.89,WHITTINGTON HEALTH (ISLINGTON),-0.139066,51.566482
25.81,ST MICHAELS HOSPICE,-1.518091,53.977242
2146.67,TOWNHEAD SURGERY,-2.276903,54.070534
730.7399999999997,HORNE STREET SURGERY,-1.871717,53.725678
4510.33,THE GARDEN CITY PRACTICE,-0.209287,51.797151
1958.75,RIVERMEAD GATE MED.CTR.,0.472887,51.740849
1333.4099999999996,ROMAN WAY MEDICAL CENTRE,-0.10550599999999999,51.544561
723.33,CARNON DOWNS SURGERY,-5.091905,50.22345
1462.4300000000005,DR KS UPTON'S PRACTICE,-1.986582,52.988358
2624.2799999999993,KINGSWAY MEDICAL CENTRE,-1.289009,54.606459
1796.7299999999993,PRUDHOE MEDICAL GROUP,-1.853822,54.96186
1428.9499999999994,ARTHUR MEDICAL CENTRE,-1.422636,53.001503
2851.100000000001,PORTLAND MEDICAL PRACTICE,-0.539074,53.22371999999999
5273.069999999999,THE WALL HOUSE SURGERY,-0.208192,51.241304
455.98999999999984,THE HALING PARK PARTNERSHIP,-0.098109,51.357113
1961.99,THE PRINCE OF WALES SURGERY,-2.457579,50.713502
1113.34,THE GROVE SURGERY,-0.735114,52.023651
1551.7099999999994,PROBUS SURGERY,-4.948542,50.290121
365.42,DR PAL,-2.595495,53.47988
1194.7100000000005,CHAPEL ROW SURGERY,-1.17086,51.425877
29.630000000000006,NCH&C COMMUNITY NURSES (WEST),0.410147,52.749129
4580.94,HEALTHBRIDGE DIRECT,0.020102,51.608432
1514.7400000000007,GRANGE STREET SURGERY,-0.335878,51.757298
833.26,ST PETER'S SURGERY,1.41893,51.362936
298.36,SIBFORD SURGERY,-1.479244,52.037614
2558.17,AXMINSTER MEDICAL PRACTICE,-2.999226,50.780899
928.7299999999997,PRICES MILL SURGERY,-2.224938,51.693801
827.7699999999996,MARSH MEDICAL PRACTICE,0.143689,53.445069
3052.7900000000004,KNEBWORTH & MARYMEAD MEDICAL PRACTICE,-0.184972,51.866323
484.85,THE HODFORD ROAD PRACTICE,-0.199318,51.569038
862.0699999999998,ABBEY ROAD MEDICAL PRACTICE,0.005881,51.534784
3663.04,BETHESDA MEDICAL CENTRE,1.414787,51.390277
1085.0400000000004,WOODLANDS SURGERY,0.088913,51.439755
465.64,ALVELEY MEDICAL PRACTICE,-2.353309,52.454738
803.65,KNOWSLEY MEDICAL CENTRE,-2.300551,53.588497
97.21,ST JOSEPH'S HOSPICE  HACKNEY,-0.056255,51.537053
1521.5899999999995,CHURCHSIDE MEDICAL PRACTICE,-1.203539,53.146592
2916.57,SOUTHEND MEDICAL CENTRE,0.708516,51.540069
769.2500000000001,THE MITCHISON ROAD SURGERY,-0.087357,51.544992
2354.23,FRAMLINGHAM SURGERY,1.334192,52.227216
588.59,CHOWDHURY,0.233898,51.592339
1320.45,JENNER HOUSE SURGERY,-0.7745189999999998,51.294302
2293.7200000000007,NORFOLK STREET SURGERY,-2.182794,53.01602
2654.96,TORKARD HILL MEDICAL CTRE,-1.207389,53.029901
1935.69,VILLAGE SURGERY,-1.251934,53.39421
191.24,ALLENBY CLINIC,-0.376261,51.531514
7496.830000000003,DR PUZEY DR KOTHARI AND DR NANDA,0.705992,51.582107
5160.78,SEVERN FIELDS MEDICAL PRACTICE,-2.721619,52.728047
3292.1800000000007,CUMBERLAND HOUSE SURGERY,-2.990437,53.638743
396.56999999999994,HOLLINS GROVE SURGERY,-2.477472,53.705346
1284.08,OLDHAM FAMILY PRACTICE,-2.116945,53.543824
927.96,SHAY LANE MEDICAL CENTRE (PATEL),-2.31556,53.372189
116.54000000000002,AT HOME SERVICE,-0.10603,51.438104
3371.100000000001,CHURCHILL MEDICAL CENTRE,-0.018466,51.618226
1879.6,PRIORY MEDICAL CENTRE,-0.50567,52.167181
303.81999999999994,ESK ROAD MEDICAL CENTRE,0.024266,51.522454
3652.93,REACH HEALTHCARE,0.52408,51.337756
1389.4700000000007,CAMBERLEY HEALTH CENTRE,-0.754069,51.324435
700.5300000000002,FLOOD (ESSEX HOUSE),-0.247469,51.472541
890.1899999999998,WOLLASTON AND BOZEAT SURGERIES,-0.674311,52.252471
1930.9100000000005,ST.LEVAN SURGERY,-4.177328,50.383921
1592.5000000000002,BARTON,-1.725223,52.761751
840.6499999999999,HAWTHORNS MEDICAL CENTRE,-1.967268,52.501507
331.82000000000005,BROWNLOW AT MARYBONE,-2.987806,53.411269
843.8500000000001,LITTLE LEVER HEALTH CENTRE 1,-2.370624,53.55981800000001
2719.2700000000004,CONWAY ROAD MEDICAL PRACTICE,-2.303561,53.417873
1687.0100000000002,MAYBUSH MEDICAL CENTRE,-1.489249,53.670273
1006.9400000000003,FALKLAND HOUSE SURGERY,-1.514423,53.359728
2820.6999999999994,MILTON KEYNES VILLAGE SURG,-0.697865,52.043891
5.93,GPSI PALLIATIVE CARE,-3.007792,53.502483
1987.11,FIELDHOUSE MEDICAL GROUP,-0.112579,53.564436
1394.39,SAXON CROSS SURGERY,-1.273642,52.931099
1495.9799999999998,THE NAYAR PRACTICE,-1.1933790000000002,53.480824
96.03,NEW NORTH HEALTH CENTRE,-0.091592,51.537534
2064.18,HOVE MEDICAL CENTRE,-0.19539,50.845024
1621.15,FORT HOUSE SURGERY,-0.412578,51.37881
1281.18,THE LAWN MEDICAL CENTRE,-1.7619029999999998,51.547821
445.87,ST MARY'S HEALTH CENTRE,-6.308668,49.911605
2870.280000000001,TAVYSIDE HEALTH CENTRE,-4.145976,50.545824
2285.4200000000005,HAGLEY SURGERY,-2.144103,52.420783
126.91,YARDLEY MEDICAL CENTRE,-1.828397,52.463189
5095.66,ASHTON MEDICAL GROUP,-2.089184,53.489361
1782.7700000000007,THE WILLESDEN MEDICAL CENTRE,-0.233873,51.547532
481.66,SELHURST MEDICAL PRACTICE,-0.088969,51.390012
1504.15,PONTESBURY MEDICAL PRAC,-2.887922,52.650521
916.53,BRAITHWAITE RD SURGERY,-2.574985,53.477412
2116.76,WOODGRANGE MEDICAL PRACTICE,0.025253,51.548596
810.9699999999998,JARVIS MEDICAL PRACTICE,-2.095095,53.537786
3626.5,IC24 LTD (NORFOLK & WISBECH OOH),0.891514,51.129106
696.2799999999999,THE MANSELL ROAD PRACTICE,-0.358969,51.525654
658.3200000000002,FOUNDATIONS,-1.257899,54.563441
1389.88,READING WALK-IN HEALTH CENTRE,-0.9758960000000002,51.454809
457.33000000000015,BRADFORD DISTRICT CARE TRUST,-1.788605,53.839675
28.79,GP EXTENDED HOURS SERVICE,-0.62317,54.485919
570.0600000000002,NORTH TYNESIDE CARE PLUS,-1.456596,55.011193
282.35,8 TO 8 TOP-UP HUB QMH,0.101687,51.419041
986.42,SUFFOLK GP FEDERATION OOH,1.164244,52.044508
4945.930000000002,MUNRO MEDICAL CENTRE,-0.147427,52.794037
1017.99,MOSBOROUGH HEALTH CENTRE,-1.364873,53.325238
1730.5200000000007,PUCKERIDGE & STANDON SURGERY,0.019374,51.888296
1406.9599999999994,COMMONWEALTH HEALTH CENTRE,0.36308,51.463166
1127.1099999999994,TAMWORTH HOUSE MEDICAL CENTRE.,-0.146254,51.40122
6873.370000000003,PARKSIDE PRACTICE,-1.353169,50.970948
1039.59,DARTMOUTH MEDICAL PRACTICE,-3.580811,50.351157
707.4400000000002,BLACKHEATH MED CTR,-3.104694,53.412239
196.99,GOLDINGTON ROAD SURGERY,-0.456174,52.140172
1457.32,POPLAR PRIMARY CARE CENTRE,-1.890326,52.43631
3274.59,THE SUTTON MANOR SURGERY,-0.315294,53.785759
3254.49,JESSOP MEDICAL PRACTICE,-1.372226,53.074348
1996.1200000000006,THE MAYFLOWER MEDICAL PRACTICE,-1.01945,53.431872
1239.63,ST.ANTHONY'S HEALTH CENTRE,-1.55655,54.966674
3535.619999999999,WESTCALL OOH,-0.8315749999999998,51.410524
20.450000000000006,MK ENT SERVICE,-0.79788,52.035898
32.230000000000004,PCAH - NEW ROMNEY,0.938719,50.987586
1120.62,WHITWICK HEALTH CENTRE,-1.3606790000000002,52.742576
2640.1800000000007,MARKET SURGERY,-1.345958,53.502635
981.62,DERWENT CRESCENT MEDICAL CENTRE,-0.175285,51.622908
3790.5800000000013,ABBEY FIELD MEDICAL CENTRE,0.898575,51.877487
3824.1400000000012,ABBEY HOUSE MEDICAL PRACTICE,-1.160725,52.260319
2307.620000000001,NORTON BROOK MEDICAL CENTRE,-3.782122,50.288739
2221.2300000000005,MARTON MEDICAL PRACTICE,-3.034524,53.812843
67.04,COMMUNITY PAEDIATRICIANS,-2.214271,53.470746
433.35,DMC COMMUNITY DERMATOLOGY RBWF,-2.059728,52.337612
3200.700000000001,THE NORTH LEEDS MEDICAL PRACTICE,-1.534037,53.843332
683.7599999999998,FRIAR GATE SURGERY,-1.485624,52.924816
1788.9399999999996,NAVENBY CLIFF VILLAGES SURGERY,-0.526297,53.103518
2017.07,ASKERN MEDICAL PRACTICE,-1.148909,53.61549599999999
1900.6600000000005,LEYTON HEALTHCARE 4TH FLOOR,-0.013313,51.559894
371.9500000000001,CAMBRIDGE HOUSE,-2.144827,53.024433
274.85,PARK HOUSE SURGERY,-1.942965,52.54446
2707.0199999999995,RAINBOW MEDICAL CENTRE,-2.705931,53.435389
2051.61,LITTLE LONDON SURGERY,-1.979284,52.574984
1352.66,STRETTON MEDICAL CENTRE,-2.577017,53.339489
178.7,THE DALE MEDICAL PRACTICE,-2.154239,53.611617
354.51,CAMBRIDGE ACCESS SURGERY,0.138701,52.20875
81.03999999999998,ANGEL LODGE,-1.50929,53.683308
4.97,HP NMP'S NN & E CCG,-1.143101,53.130244
2.48,WARWICKSHIRE DRUG & ALCOHOL RECOVERY,-1.529997,52.283202
2666.44,LEIGH FAMILY PRACTICE,-2.511927,53.493519
1860.54,THE GREYSWOOD PRACTICE,-0.144853,51.419489
595.86,CHATHAM STREET SURGERY,-0.981895,51.455924
1285.3600000000004,DEVON SQUARE SURGERY,-3.60508,50.529985
813.38,THE ROYAL WELL SURGERY,-2.0815,51.906706
931.43,THE LIMES SURGERY MEDICAL CENTRE,-2.114052,52.456884
2144.96,LAYTON MEDICAL CENTRE,-3.027291,53.827425
253.6,GPSI DERMATOLOGY SERVICE BUCKDEN HUNTS,-0.254174,52.291764
1.49,CAMDEN COMMUNITY NURSING,-0.131658,51.53665
248.43,COMMUNITY DERMATOLOGY SOUTHWARK GSTT,-0.08679399999999998,51.503466
2032.25,WILLINGTON SURGERY,-1.566835,52.850285
2033.0999999999995,MANOR FARM MEDICAL CENTRE,0.690513,52.648544
2367.6600000000008,REGAL CHAMBERS SURGERY,-0.275959,51.952843
328.7799999999999,THE GARWAY MEDICAL PRACTICE,-0.185494,51.515392
9245.019999999997,ACORN HEALTH PARTNERSHIP,-1.114058,51.245047
610.04,UNIV HOSP NORTH DURHAM OOH,-1.593834,54.788497
238.04,BOWLING GREEN STREET SURGERY,-1.133096,52.63304599999999
277.54,GP CARE DVT SERVICE,-2.570351,51.544821
38.36,INDEPENDENT HEALTH GROUP,-2.414415,51.312224
2822.63,BURTON CROFT SURGERY,-1.57692,53.820807
749.0200000000002,HARTINGTON SURGERY,-1.810816,53.142488
316.29,FIVE ELMS MEDICAL PRACTICE,0.14235,51.553315
1967.1499999999994,SOUTH VIEW PARTNERSHIP,0.026125,51.405111
398.5799999999999,CORNERWAYS SURGERY,-0.404519,50.81566
358.2900000000001,WALLINGTON MEDICAL CENTRE,-0.129285,51.357345
1861.0400000000006,COMBE DOWN SURGERY,-2.345599,51.361003
1216.14,NORTH PETHERTON SURGERY,-3.013922,51.09139
836.7999999999998,QUEENS MEDICAL CENTRE,-2.235847,53.50081899999999
2025.8300000000006,THE PENDLE MEDICAL PARTNERSHIP,-2.144307,53.915882
2978.85,3/SPRINGFIELD HOUSE MEDICAL PRACTICE,-2.362019,53.480252
281.80000000000007,THE KINGSWAY PRACTICE,-2.135588,53.612168
27.96,THE ENFIELD PAIN CLINICS,-0.076772,51.66253
515.09,THE PRACTICE FELTHAM,-0.411086,51.446367
295.2600000000001,NHS FYLDE & WYRE CCG,-2.881037,53.789498
4133.339999999998,BEACON MEDICAL PRACTICE,0.331219,53.157472
655.04,GREENFIELDS MEDICAL CENTRE (YVS RAO),-1.168583,52.966506
1149.0400000000004,IC24-THANET CCG OOH,0.891514,51.129106
1506.68,TODDINGTON MEDICAL CENTRE,-0.530482,51.945856
1846.76,OAKLANDS HEALTH CENTRE,1.08253,51.069106
4219.670000000001,LONGCROFT CLINIC,-0.192332,51.325314
610.3399999999996,WHITCHURCH SURGERY,-0.8426209999999998,51.882174
314.5899999999999,RIVERSIDE SURGERY,-1.699518,52.632337
2094.390000000001,THE VILLAGE SURGERIES GROUP,-2.771265,53.124246
1854.2700000000007,SHIFA SURGERY,-2.475999,53.757295
1441.92,OLDHAM MEDICAL SERVICES,-2.111235,53.52535699999999
1235.1600000000005,LEADGATE SURGERY,-1.805988,54.860562
2710.7500000000005,GOYT VALLEY MEDICAL PRACTICE,-1.983113,53.3305
1541.97,CONCORD MEDICAL PRACTICE,-1.524864,54.913411
2220.8,COUNTESTHORPE HEALTH CENTRE,-1.136767,52.554536
3046.28,ANNANDALE MEDICAL CENTRE,-0.17421099999999998,51.698571
26.26,WEST KENT HEALTH FEDERATION,0.277462,51.194717
1122.53,DR SINHA & PARTNERS,0.100204,53.030138
542.54,THE HEALTH CARE SURGERY,-1.487911,53.42172
1791.4699999999993,THE LIMES SURGERY,-0.010842,51.759413
724.5299999999999,SEVEN DIALS MEDICAL CENTRE,-0.147743,50.829681
2169.65,BARCROFT MEDICAL CENTRE,-1.780526,51.172939
2766.360000000001,PIONEER MEDICAL GROUP,-2.617628,51.510306
1817.65,WITHNELL HEALTH CENTRE,-2.556663,53.692491
1379.57,DR ABBAS,-0.841253,52.26834
1589.75,DR GS KALKAT'S PRACTICE,0.103861,51.527941
212.78,THE LYNWOOD SURGERY,-0.29964,51.528594
