total_cost,name,longitude,latitude
876.1799999999998,GREENFORD ROAD MED.CTR.,-0.345702,51.537697
1992.1199999999994,THE OAKLAND MEDICAL CENTRE,-0.45129300000000006,51.546055
955.0499999999997,QUEENS WALK MEDICAL CENTRE,-0.393155,51.562716
780.2900000000003,THE ABINGDON HEALTH CENTRE,-0.197138,51.496085
1954.15,THE ARDLEIGH SURGERY,0.985096,51.927073
3685.240000000001,ADDISON HOUSE - HAQUE PRACTICE,0.088979,51.770891
1115.4600000000003,ST PETER'S STREET MEDICAL PRACTICE,-0.100772,51.535597
1985.6900000000005,ABERFELDY PRACTICE,-0.004927,51.514483
2497.69,STONE CROSS SURGERY,0.289944,50.816757
624.4299999999998,ELTHAM PALACE PMS,0.053714,51.449946
1409.14,BROCKBANK (PARK ROAD),-0.334596,51.423912
3028.18,CHAWTON PARK SURGERY,-0.989411,51.139814
2166.51,STOKENCHURCH MEDICAL CTRE,-0.904033,51.660479
681.61,MARSHALLS ROAD SURGERY,-0.539225,52.344743
706.85,HOLLINSWOOD SURGERY,-2.437453,52.673936
577.1999999999998,ABBOTS BROMLEY SURGERY,-1.880966,52.819974
4042.860000000001,DARWIN MEDICAL CENTRE,-1.831505,52.694061
1991.5600000000006,THE OAKS MEDICAL CENTRE,-1.895827,52.552454
473.92,VICTORIA ROAD MEDICAL CTR,-1.887197,52.501868
2444.0600000000004,ST JOHN'S MEDICAL CENTRE,-1.932532,52.626307
1517.89,NEWBRIDGE SURGERY,-2.155299,52.5936
4094.030000000001,THE CORNERSTONE PRACTICE,-2.4524,53.739201
1221.9999999999998,TOWNSIDE SURGERY,-2.29898,53.59031
1261.29,GOODMAYES MEDICAL CENTRE,0.10990599999999999,51.567626
169.92000000000004,PARK GRANGE MEDICAL CENTRE,-1.775929,53.789415
144.37,ST.GEORGES MEDICAL CENTRE,-0.24612,51.558731
787.6499999999999,HETHERINGTON AT THE PAVILION,-0.116397,51.461633
1002.23,OAKWOOD MEDICAL CENTRE,-0.134269,51.646534
1795.1799999999996,SOUTH HERMITAGE SURGERY,-2.752497,52.699728
1827.26,PCEC,-2.227711,53.462436
319.81000000000006,SMGPF,-2.237795,53.434307
215.45,DCHS DERBY CITY,-1.441882,53.221288
1444.44,REDBURN PARK MEDICAL CENTRE,-1.474775,55.00092
621.36,CASTLETOWN MEDICAL CENTRE,-1.450848,54.913341
604.25,ALDBROUGH ST JOHN SURGERY,-1.684645,54.496518
165.54999999999995,EAST PARADE MEDICAL PRACTICE,-1.061835,53.965993
734.8000000000003,BARKEREND HC - EL ELIWI,-1.7218490000000002,53.797834
3313.4899999999993,SHAFTESBURY MEDICAL CTR.,-1.497858,53.800234
2085.3800000000006,GROBY ROAD MEDICAL CENTRE (ID PATCHETT),-1.150468,52.644337
681.0899999999998,ROSEMEAD DRIVE SURGERY,-1.083088,52.5934
176.98999999999995,AR-RAZI MEDICAL CENTRE,-1.101204,52.623926
952.8,BRANSTON & HEIGHINGTON FAMILY PRACTICE,-0.467988,53.195831
2309.4600000000005,FOUNTAIN MEDICAL CENTRE,-0.8043829999999998,53.07286
1845.63,OAKENHALL MEDICAL PRACT,-1.199437,53.03661700000001
2083.53,SCAWSBY HEALTH CENTRE PRACTICE,-1.167843,53.53678299999999
2153.89,ST. GEORGE'S MEDICAL CENTRE,0.298817,52.458085
1606.09,LAWNS PRACTICE,1.109092,52.378889
2384.520000000001,CENTRAL SURGERY,0.147747,51.812546
647.0699999999998,CHURCH END MEDICAL CENTRE,-0.253241,51.54757
1426.11,BRENTFORD GROUP PRACTICE,-0.310054,51.48676
1504.6799999999994,THE DEVONSHIRE LODGE PRACTICE,-0.397406,51.579266
497.14,THE HOXTON SURGERY,-0.086829,51.533527
469.72,LL MEDICAL CARE LTD,0.0021,51.555415
3658.9800000000014,JUBILEE MEDICAL CENTRE,0.300332,51.3978
2338.18,LAMBETH WALK GROUP PRACTICE,-0.11259100000000001,51.495609
1888.68,STANWELL ROAD SURGERY,-0.470567,51.438013
6771.129999999997,THE ADAM PRACTICE,-2.07822,50.757881
1265.75,SOUTHMEAD SURGERY,-0.616953,51.552538
757.3599999999999,CLIFTON HAMPDEN SURGERY,-1.211451,51.658625
4.07,DORSET IUC PARTNERSHIP,-1.856578,50.81726
894.82,GROOMBRIDGE AND HARTFIELD MED GRP,0.184416,51.113952
1255.29,POND TAIL SURGERY,-0.066728,51.246436
5273.069999999999,THE WALL HOUSE SURGERY,-0.208192,51.241304
455.99,THE HALING PARK PARTNERSHIP,-0.098109,51.357113
1961.99,THE PRINCE OF WALES SURGERY,-2.457579,50.713502
2142.0600000000004,BRANKSOMEWOOD H/CARE CTR,-0.8448069999999998,51.281888
1113.34,THE GROVE SURGERY,-0.735114,52.023651
1551.7100000000007,PROBUS SURGERY,-4.948542,50.290121
3077.9999999999986,ABBEY SURGERY,-4.150401,50.546904
2884.5000000000005,WHITEACRES MEDICAL CENTRE,-2.300547,52.124716
598.88,WOODSIDE MEDICAL PRACTICE,-2.466175,52.637949
1789.5299999999993,LYME VALLEY MEDICAL CENTRE,-2.22375,53.006305
2627.24,AUDLEM MEDICAL PRACTICE,-2.508717,52.989615
651.3399999999998,KENNETH MACRAE MED CENTRE,-2.786435,53.49903
2904.05,BODEY MEDICAL CENTRE,-2.214798,53.440636
547.04,WOODLANDS MEDICAL PRACTICE,-2.31213,53.406624
365.4200000000001,DR PAL,-2.595495,53.47988
1123.35,BATH ROAD SURGERY,-0.37684,51.469395
1194.7100000000005,CHAPEL ROW SURGERY,-1.17086,51.425877
611.18,WOODLANDS MEDICAL PRACTICE,-0.170943,51.592914
702.7199999999998,NORTH LINCOLNSHIRE OOH,-0.667599,53.587582
0.63,HALTON COMMUNITY PALLIATIVE CARE TEAM,-2.670823,53.320248
4.16,BROMLEY DIABETES SERVICE (BECKENHAM),-0.033209,51.405232
29.63,NCH&C COMMUNITY NURSES (WEST),0.410147,52.749129
4580.940000000001,HEALTHBRIDGE DIRECT,0.020102,51.608432
28.700000000000006,TAMESIDE & GLOSSOP IC NHS FT,-2.071433,53.49153
7.44,ACCT 2,-1.962695,53.898015
173.98000000000005,EXTENDED HOURS SERVICE-ONE LIFE,-1.214164,54.682342
4.27,BMI-THE SLOANE HOSPITAL,-0.00436,51.408332
1980.95,CRAMLINGTON MEDICAL GROUP,-1.591516,55.084481
3218.79,KINGSTON MEDICAL GROUP,-0.349365,53.756137
388.22,WESTFIELD MEDICAL CENTRE,-1.531703,53.817673
1562.5899999999995,VERNON STREET MEDICAL CTR,-1.49039,52.924019
830.2,STUBLEY MEDICAL CENTRE,-1.488541,53.304986
6278.83,BRIDGE COTTAGE SURGERY,-0.215995,51.830002
1514.7399999999998,GRANGE STREET SURGERY,-0.335878,51.757298
352.02,CHICHELE ROAD SURGERY,-0.216241,51.55483
280.75,SHIRLAND ROAD MEDICAL CENTRE,-0.203904,51.5292
3308.11,DR KRISHNAN & PTNR - KENT ELMS HC,0.664114,51.563831
828.3599999999999,CRANHAM HEALTH CENTRE,0.265291,51.568865
833.2599999999996,ST PETER'S SURGERY,1.41893,51.362936
1478.0799999999995,LEWISHAM MEDICAL CENTRE,0.004522,51.458513
821.6100000000001,STEWKLEY ROAD SURGERY,-0.71666,51.898041
298.36,SIBFORD SURGERY,-1.479244,52.037614
4157.85,NEW COURT SURGERY,-2.958059,51.345794
2558.17,AXMINSTER MEDICAL PRACTICE,-2.999226,50.780899
3577.96,COLERIDGE MEDICAL CENTRE,-3.2835660000000004,50.751704
1150.0200000000004,LYDNEY PRACTICE,-2.529867,51.727913
928.73,PRICES MILL SURGERY,-2.224938,51.693801
3654.1299999999987,ST. JOHNS SURGERY,-2.059728,52.337612
3209.7899999999995,THE ALDERGATE MED.PRACT.,-1.695644,52.639079
1919.33,YARDLEY WOOD HEALTH CENTRE,-1.859168,52.418648
904.1,MONTAGUE MEDICAL PRACTICE,-0.872899,53.707031
2332.78,EASTGATE MEDICAL GROUP,-1.462815,54.006795
1801.2199999999993,HORTON BANK PRACTICE,-1.806018,53.774478
827.7700000000002,MARSH MEDICAL PRACTICE,0.143689,53.445069
2592.6799999999994,HUDDERSFIELD ROAD SURGERY,-1.485631,53.558165
4364.259999999998,SWALLOWNEST HEALTH CENTRE,-1.317097,53.362997
1251.0400000000004,SHERINGHAM MEDICAL PRACTICE,1.214777,52.939688
3052.7900000000013,KNEBWORTH & MARYMEAD MEDICAL PRACTICE,-0.184972,51.866323
484.85,THE HODFORD ROAD PRACTICE,-0.199318,51.569038
784.23,HAZELDENE MEDICAL CENTRE,-0.275394,51.547592
928.63,CLOISTER ROAD SURGERY,-0.265589,51.521352
862.07,ABBEY ROAD MEDICAL PRACTICE,0.005881,51.534784
648.3799999999999,BOUNDARY HOUSE SURGERY,-0.054245,51.632475
1211.3000000000004,MANOR PARK MEDICAL CENTRE,0.24261,50.819107
1762.67,CHURCH LANE HEALTH CENTRE,0.941162,50.984187
3663.0399999999986,BETHESDA MEDICAL CENTRE,1.414787,51.390277
1085.04,WOODLANDS SURGERY,0.088913,51.439755
2145.01,LILLIPUT SURGERY,-1.954229,50.711523
4183.919999999999,WESTBURY GROUP PRACTICE,-2.203558,51.252792
4607.440000000001,PENRYN SURGERY,-5.10336,50.167504
1860.4200000000005,CROWN MEDICAL CENTRE,-3.080969,51.029111
1556.6699999999996,BARN CLOSE SURGERY,-1.859248,52.03627
1128.0300000000004,HIGHLEY MEDICAL CENTRE,-2.392978,52.456165
465.64,ALVELEY MEDICAL PRACTICE,-2.353309,52.454738
1386.39,WOLSTON SURGERY,-1.392727,52.376806
918.2800000000002,BALLIOL ROAD SURGERY,-1.471449,52.415924
1428.33,NEWTON MEDICAL CENTRE,-2.638386,53.457172
934.9299999999997,GREASBY GROUP PRACTICE,-3.121417,53.377628
1078.8699999999994,LOSTOCK HALL MEDICAL CTR.,-2.688037,53.727502
803.6500000000002,KNOWSLEY MEDICAL CENTRE,-2.300551,53.588497
1380.24,TIMPERLEY HEALTH CENTRE (WESTWOOD),-2.323566,53.397228
1265.79,BIRMINGHAM DENTAL HOSPITAL,-1.916521,52.45037
20.26,UROLOGY-MERTON CCG,-0.210281,51.409967
472.73,WELLINGBOROUGH EXTENDED ACCESS,-0.695567,52.303398
97.21,ST JOSEPH'S HOSPICE  HACKNEY,-0.056255,51.537053
1942.12,SUMMERFIELD URGENT CARE CENTRE WIC,-1.937353,52.487686
1047.35,PENINSULA MEDICAL PRACTICE,-2.915665,54.18795600000001
1756.2599999999998,ROSEWORTH SURGERY,-1.61867,55.001366
5039.879999999999,GREENGATES MEDICAL GROUP,-0.418494,53.844343
3050.6,HEBDEN BRIDGE GROUP PRACTICE,-2.010942,53.744036
1264.37,LIMES MEDICAL CENTRE,-1.387885,53.098493
1521.5900000000006,CHURCHSIDE MEDICAL PRACTICE,-1.203539,53.146592
1746.0300000000007,SELSTON SURGERY,-1.299871,53.070196
1918.8100000000006,CRYSTAL PEAKS MEDICAL CENTRE,-1.354473,53.342881
3501.050000000001,LINCOLN HOUSE SURGERY,-0.469093,51.737355
2672.11,STOCKWELL LODGE MED.CTR.,-0.055287,51.713792
2916.57,SOUTHEND MEDICAL CENTRE,0.708516,51.540069
227.42,DR DEVARAJA VC PRACTICE,0.44359,51.520015
562.73,DR PM PATEL,0.219281,51.55632
769.2500000000001,THE MITCHISON ROAD SURGERY,-0.087357,51.544992
557.7399999999999,FOUNTAYNE ROAD HEALTH CENTRE,-0.065145,51.56442
2354.23,FRAMLINGHAM SURGERY,1.334192,52.227216
296.8499999999999,ARCHWAY SURGERY,-0.532167,51.72275
1009.57,CHURCH LANE SURGERY,-0.262165,51.574931
233.81000000000003,CHISWICK FAMILY DRS PRACTICE,-0.259879,51.493563
584.14,ACRE SURGERY,-0.411552,51.604465
588.5899999999998,CHOWDHURY,0.233898,51.592339
816.69,CUMBERLAND MEDICAL CENTRE,0.026047,51.519716
2434.41,ILFORD MEDICAL CENTRE,0.07431899999999998,51.556823
1605.91,RYE MEDICAL CENTRE,0.730363,50.961944
1054.2799999999997,MAIDSTONE RD CHATHAM SURGERY,0.516708,51.361226
820.6699999999997,VASSALL MEDICAL CENTRE,-0.10851199999999998,51.477558
2110.65,WITLEY SURGERY,-0.650163,51.156457
1241.3599999999994,FARMHOUSE SURGERY,-1.7595,50.736437
1320.4500000000005,JENNER HOUSE SURGERY,-0.7745189999999998,51.294302
1517.03,LONG BARN LANE SURGERY,-0.967033,51.436181
5496.799999999998,WESTONGROVE PARTNERSHIP,-0.74378,51.76588
1316.3600000000004,MILBORNE PORT SURGERY,-2.471962,50.967502
1333.15,OMBERSLEY MEDICAL CENTRE,-2.229023,52.276554
2720.110000000001,FURLONG MEDICAL CENTRE,-2.208139,53.063325
2293.72,NORFOLK STREET SURGERY,-2.182794,53.01602
1175.8200000000004,PARADISE MEDICAL CENTRE,-1.494835,52.426778
1677.96,MAYFIELD MEDICAL CENTRE,-2.093284,52.583046
2889.1900000000023,LEVENSHULME MEDICAL PRACTICE,-2.188524,53.446352
1391.7699999999993,HEALD GREEN HEALTH CENTRE 2,-2.229276,53.369878
874.12,SMITH (RICHMOND LOCK),-0.322897,51.464517
604.46,CHILLINGTON HEALTH CENTRE,-3.693645,50.272623
1041.09,JUBILEE GARDENS MEDICAL CENTRE,-0.368739,51.521097
707.44,BLACKHEATH MED CTR,-3.104694,53.412239
274.04,AMBAR MEDICAL CENTRE,-1.991354,52.575093
196.99,GOLDINGTON ROAD SURGERY,-0.456174,52.140172
2260.34,DMC ST MARYS ISLAND SURGERY,0.538105,51.406776
35.57,STREET LANE DERMATOLOGY CLINIC,-1.513393,53.843234
1457.3200000000004,POPLAR PRIMARY CARE CENTRE,-1.890326,52.43631
435.72,NORTHAMPTONSHIRE OUT OF HOURS SERVICE,-0.683359,52.29767
6872.950000000003,THORNABY & BARWICK MEDICAL GROUP,-1.292128,54.538149
5098.29,BRAMPTON MEDICAL PRACTICE,-2.734846,54.94237
1493.1600000000005,RISEDALE SURGERY,-3.224778,54.109942
2501.54,ROWLANDS GILL MEDICAL CENTRE,-1.742896,54.91936
3274.59,THE SUTTON MANOR SURGERY,-0.315294,53.785759
2248.03,PLANE TREES GROUP PRACTICE,-1.894437,53.730448
2606.74,THORNTON MEDICAL CENTRE,-1.576209,53.791908
3254.489999999999,JESSOP MEDICAL PRACTICE,-1.372226,53.074348
3650.050000000001,THE PARK MEDICAL PRACTICE,-1.432644,52.928801
1086.3799999999997,BRAILSFORD & HULLAND MEDICAL PRACTICE,-1.624927,52.96943
2269.0499999999993,MERRIDALE MEDICAL CENTRE (RP TEW),-1.160752,52.620146
1996.1200000000006,THE MAYFLOWER MEDICAL PRACTICE,-1.01945,53.431872
2498.2000000000007,BASLOW RD  SHOREHAM ST & YORK RD SRGIES,-1.531066,53.316325
824.5200000000002,OVER SURGERY,0.012018,52.314809
1900.5,DR TUN & PARTNERS,-2.583571,53.532102
1239.6300000000006,ST.ANTHONY'S HEALTH CENTRE,-1.55655,54.966674
3021.580000000001,MANOR DRIVE MEDICAL CENTRE,-0.24836599999999998,51.380785
287.9000000000001,SMS COMMUNITY DERMATOLOGY CLINIC,-1.398499,50.913503
3535.6199999999994,WESTCALL OOH,-0.8315749999999998,51.410524
288.49,NELFT SOUTH WEST ESSEX CS,0.496195,51.591456
210.32,HILLINGDON UCC,-0.461175,51.526077
39.82,AQP ANTICOAG LEY HILL SURGERY,-1.827841,52.583302
20.45,MK ENT SERVICE,-0.79788,52.035898
4.1,EAST STAFFS IMPROVING LIVES,-1.6480290000000002,52.798809
5.58,COMMUNITY MIDWIVES,-2.784954,53.420469
32.23,PCAH - NEW ROMNEY,0.938719,50.987586
2753.860000000001,BISHOPS CLOSE MEDICAL PRACTICE,-1.599142,54.699817
4064.23,CLEE MEDICAL CENTRE,-0.041433,53.566223
1869.93,WIBSEY & QUEENSBURY MED P,-1.779715,53.767225
1167.0599999999995,SOUTHOWRAM SURGERY,-1.831696,53.712293
1120.62,WHITWICK HEALTH CENTRE,-1.3606790000000002,52.742576
2640.1799999999994,MARKET SURGERY,-1.345958,53.502635
760.15,BALDWINS LANE SURGERY,-0.448705,51.654076
981.6200000000003,DERWENT CRESCENT MEDICAL CENTRE,-0.175285,51.622908
1833.6,THE STANMORE MEDICAL CENTRE,-0.304021,51.60154
1065.4799999999998,NEASDEN MEDICAL CENTRE,-0.247382,51.559667
471.55,BROOK GREEN SURGERY,-0.218145,51.495291
3790.58,ABBEY FIELD MEDICAL CENTRE,0.898575,51.877487
196.59,JOHN SMITH MEDICAL CENTRE,0.112125,51.538899
426.08,TOTTENHAM HEALTH CENTRE,-0.068474,51.604755
546.1,DR MOHAMMED GREEN MAN MEDICAL CENTRE,0.015000999999999999,51.571506
2347.140000000001,FAIRFIELD PMS,0.038949,51.483908
519.95,PARKSIDE MEDICAL CENTRE,-0.092642,51.475826
1431.11,NORK CLINIC,-0.215842,51.326429
2161.170000000001,QUEENHILL MEDICAL PRACTICE,-0.066791,51.34499
1111.23,GRAND DRIVE SURGERY,-0.228811,51.402155
5206.1799999999985,THE BOSMERE MEDICAL PRACTICE,-0.990581,50.850232
2880.4399999999987,BURNHAM HEALTH CENTRE,-0.662137,51.5349
1141.33,THE LONG BUCKBY PRACTICE,-1.08255,52.30049
6611.969999999998,ASPEN MEDICAL PRACTICE,-2.225797,51.865969
2163.34,GLOUCESTER CITY HEALTH CENTRE,-2.245328,51.860355
3824.1400000000012,ABBEY HOUSE MEDICAL PRACTICE,-1.160725,52.260319
2307.6199999999994,NORTON BROOK MEDICAL CENTRE,-3.782122,50.288739
799.9400000000002,SOMERSET BRIDGE MEDICAL CENTRE,-2.995883,51.115105
2272.0099999999993,TRENT VALE MEDICAL PRACTICE,-2.201785,52.987386
758.0800000000002,BROOKSIDE SURGERY,-1.399088,52.35048
1519.0600000000004,NORTHWAY MEDICAL CENTRE,-2.130997,52.54810500000001
2221.23,MARTON MEDICAL PRACTICE,-3.034524,53.812843
2462.01,CORNISHWAY GROUP PRACTICE,-2.265017,53.379925
2245.8099999999995,BRAMHALL HEALTH CENTRE,-2.162929,53.36001
2078.41,MAYNARD COURT SURGERY,0.020165,51.685605
738.27,AYLESBURY SURGERY,-1.876053,52.542854
346.85999999999984,NEVILLE ROAD SURGERY,-0.443036,51.906419
610.0399999999998,UNIV HOSP NORTH DURHAM OOH,-1.593834,54.788497
12.14,THE HOSPICE CARE FOR BURNLEY & PENDLE,-2.237434,53.819025
238.04,BOWLING GREEN STREET SURGERY,-1.133096,52.63304599999999
31.96,INTEGRATED COMMUNITY RESPONSE SERVICE,-0.371755,51.468263
277.54,GP CARE DVT SERVICE,-2.570351,51.544821
591.8599999999998,BCHC MEDICINES MANAGEMENT,-1.9537779999999998,52.398207
3.02,CHCP - HESSLE  BROUGH  COTT  ANLABY,-0.429474,53.723082
38.36,INDEPENDENT HEALTH GROUP,-2.414415,51.312224
116.13,PML NEIGHBOURHOOD HUB (KIDLINGTON),-1.289236,51.821558
3005.1899999999987,YARM MEDICAL PRACTICE,-1.355519,54.50530500000001
1460.3499999999995,BENSHAM FAMILY PRACTICE,-1.617038,54.952781
2822.63,BURTON CROFT SURGERY,-1.57692,53.820807
1050.3100000000004,EASTMOOR HEALTH CENTRE,-1.476864,53.690004
749.0200000000002,HARTINGTON SURGERY,-1.810816,53.142488
760.9599999999998,THE PRACTICE BEAUMONT LEYS,-1.15392,52.662296
1030.74,TASBURGH LODGE SURGERY,-0.21375,53.151242
2902.91,SOTHALL & BEIGHTON HEALTH CENTRES,-1.340221,53.337895
477.29,KINGSWAY SURGERY,-0.437208,51.517478
316.29,FIVE ELMS MEDICAL PRACTICE,0.14235,51.553315
104.34000000000003,SPUR ROAD SURGERY,-0.086621,51.586597
1686.4499999999996,THE MEADS SURGERY,0.091624,50.969686
771.37,ALBION STREET SURGERY,-0.133965,50.827627
2828.5,BELLEGROVE SURGERY,0.09579,51.464561
1967.15,SOUTH VIEW PARTNERSHIP,0.026125,51.405111
398.58,CORNERWAYS SURGERY,-0.404519,50.81566
3880.530000000001,CHEAM GP CENTRE,-0.225239,51.368621
358.29,WALLINGTON MEDICAL CENTRE,-0.129285,51.357345
1801.89,THE BANKS & BEARWOOD MEDICAL CENTRE,-1.9292169999999997,50.768326
633.6300000000001,MERE SURGERY,-2.265342,51.089873
384.93999999999994,RAGSTONE ROAD SURGERY,-0.601832,51.503747
1861.04,COMBE DOWN SURGERY,-2.345599,51.361003
1600.54,WADEBRIDGE & CAMEL ESTUARY PRACTICE,-4.835729,50.514816
1216.14,NORTH PETHERTON SURGERY,-3.013922,51.09139
381.50999999999993,HANDSWORTH MEDICAL PRACT.,-1.941212,52.505377
2680.7199999999993,EVE HILL MEDICAL PRACTICE,-2.096805,52.512922
1068.39,BEARWOOD MEDICAL CENTRE,-1.97344,52.476903
4392.509999999998,THE GROUP PRACTICE ALFRED SQUIRE ROAD,-2.080754,52.599417
2463.619999999999,WEST DERBY MEDICAL CENTRE,-2.895944,53.431273
524.96,BEEHIVE SURGERY,-2.419172,53.564161
836.8,QUEENS MEDICAL CENTRE,-2.235847,53.50081899999999
3222.47,LANGWORTHY MEDICAL PRACTICE,-2.294771,53.489371
222.06000000000003,LEY HILL SURGERY,-1.983266,52.421346
2405.570000000001,THE CHEYLESMORE SURGERY,-1.503924,52.391324
384.54,DR. B. K. PRASHARA,-2.114816,52.456326
3313.5199999999995,ST PETER'S SURGERY,-1.984855,52.594537
2210.01,ORMSKIRK HOUSE SURGERY,-2.74261,53.456686
1245.06,MANOR HEALTH CTR,-3.044493,53.421061
2025.83,THE PENDLE MEDICAL PARTNERSHIP,-2.144307,53.915882
2978.8499999999995,3/SPRINGFIELD HOUSE MEDICAL PRACTICE,-2.362019,53.480252
1722.85,PENNINE MEDICAL CENTRE,-2.040966,53.515337
642.64,THE CROSSROADS SURGERY,-2.770123,53.417492
468.37,CRESCENT SURGERY,0.106446,51.389854
1390.5,GREEN CEDARS MEDICAL CENTRE,-0.073642,51.616071
281.8,THE KINGSWAY PRACTICE,-2.135588,53.612168
3496.41,WHITE HORSE SURGERY,0.343258,51.435153
9.61,LANCS HOUSE UROLOGY,-2.218662,53.592207
27.96,THE ENFIELD PAIN CLINICS,-0.076772,51.66253
634.3599999999999,LAS S.E. LONDON IUC CAS,-0.10903099999999999,51.500174
0.69,HMP BRISTOL,-2.591585,51.480902
337.12,WEST KENT GROUP,1.118942,51.075872
1203.02,CHAPELFORD PRIMARY CARE CENTRE,-2.633066,53.39615799999999
321.57,BRAMHOPE DERMATOLOGY COMMUNITY CLINIC,-1.61581,53.881903
1072.29,BHF LUNDWOOD SURGERY,-1.438538,53.557711
9.590000000000002,SOTON COMMUNITY ENT SERVICE WESTON LANE,-1.370694,50.888213
1472.9600000000007,DALTON SURGERY,-3.179816,54.155917
1157.9000000000005,THE SELE MEDICAL PRACTICE,-2.095702,54.970372
1858.06,WOODLANDS PARK HEALTH CTR,-1.628825,55.04614
1541.97,CONCORD MEDICAL PRACTICE,-1.524864,54.913411
3128.0999999999995,MARKET WEIGHTON GROUP PRACTICE,-0.674786,53.864903
731.4699999999998,RAJ MEDICAL CENTRE,-0.113968,53.550655
1247.3499999999995,MAYFORD HOUSE SURGERY,-1.446534,54.328376
2629.82,OAKWOOD LANE MEDICAL PRACTICE,-1.493931,53.819982
5075.719999999998,HEALTH CARE FIRST PARTNERSHIP,-1.393615,53.736872
1868.41,HAVEN MEDICAL CENTRE,-1.416874,52.891498
2220.8,COUNTESTHORPE HEALTH CENTRE,-1.136767,52.554536
3316.380000000001,CASTLE HEALTHCARE PRACTICE,-1.144908,52.930476
2001.8800000000006,BROOM LANE MEDICAL CENTRE,-1.332311,53.417383
1347.02,CADDINGTON SURGERY,-0.458179,51.864502
3046.2799999999993,ANNANDALE MEDICAL CENTRE,-0.17421099999999998,51.698571
2111.29,GREENWICH CCG GP ACCESS HUB,0.050556,51.457843
26.26,WEST KENT HEALTH FEDERATION,0.277462,51.194717
93.83,DMC COMMUNITY DERMATOLOGY BHR,0.223136,51.563496
1694.5199999999998,WEST ROAD MEDICAL CENTRE,-1.656263,54.976209
595.05,IMEARY STREET PRACTICE,-1.424863,54.98753000000001
207.58,THE KILLINGHOLME SURGERY,-0.260335,53.62990799999999
1122.53,DR SINHA & PARTNERS,0.100204,53.030138
542.5400000000002,THE HEALTH CARE SURGERY,-1.487911,53.42172
2109.9999999999995,COMBERTON SURGERY,0.018614,52.189811
2217.64,TRINITY & BOWTHORPE MEDICAL PRACTICE,1.280248,52.624411
1791.4700000000007,THE LIMES SURGERY,-0.010842,51.759413
1337.3600000000004,SHEPHALL HEALTH CENTRE,-0.167642,51.890799
367.36,WAKEMANS HILL SURGERY,-0.254209,51.587088
548.06,WESTBOURNE GROVE MEDICAL CENTRE,-0.200361,51.514211
3963.639999999999,FOREST PRACTICE,0.07523499999999998,51.654789
238.59,PRASAD,0.210579,51.600308
1397.74,HARROW ROAD GP CENTRE,0.012856,51.559538
724.5300000000002,SEVEN DIALS MEDICAL CENTRE,-0.147743,50.829681
1388.7699999999993,NORTHDOWN SURGERY,1.368001,51.379866
470.14999999999986,MILTON REGIS SURGERY,0.7321839999999998,51.349193
2169.6500000000005,BARCROFT MEDICAL CENTRE,-1.780526,51.172939
787.98,BURBAGE SURGERY,-1.669545,51.348496
6154.549999999997,THE SWAN PRACTICE,-0.985664,52.001593
2766.360000000001,PIONEER MEDICAL GROUP,-2.617628,51.510306
1245.15,THE CREST FAMILY PRACTICE,-2.596274,51.428746
241.16,WORTHEN MEDICAL PRACTICE,-3.000165,52.635224
2007.62,NESTON MEDICAL CENTRE,-3.064349,53.291818
844.0400000000003,KIRKDALE MEDICAL CENTRE,-2.973842,53.433523
1817.65,WITHNELL HEALTH CENTRE,-2.556663,53.692491
3407.78,DARWEN HEALTHLINK,-2.471427,53.695744
2362.85,ST.MARY'S HEALTH CENTRE,-2.729589,53.747433
921.94,DAVID MEDICAL CENTRE,-2.268652,53.43186
1379.5700000000004,DR ABBAS,-0.841253,52.26834
2927.850000000001,FACCINI HOUSE SURGERY,-0.189379,51.389682
1800.57,EDLESBOROUGH SURGERY,-0.588625,51.868423
1589.75,DR GS KALKAT'S PRACTICE,0.103861,51.527941
661.2799999999999,JRB HEALTHCARE BEECHDALE SURGERY,-1.198142,52.961504
212.78,THE LYNWOOD SURGERY,-0.29964,51.528594
583.7699999999999,CHURCH VIEW MEDICAL CENTRE,-2.960328,50.935622
2814.070000000001,WOODLANDS FAMILY MEDICAL CENTRE,-1.321204,54.561215
417.3999999999999,ASKAM SURGERY,-3.210918,54.183705
3357.01,FERRYHILL AND CHILTON MEDICAL PRACTICE,-1.556828,54.689838
3695.95,COLLIERY COURT MEDICAL GROUP,-1.460703,54.949762
2306.8099999999995,GRANGE PARK SURGERY,-1.7481080000000002,53.912695
2680.79,THE COUNTY PRACTICE,-1.069884,52.70073000000001
4105.93,BEECHFIELD MEDICAL CENTRE,-0.145012,52.787253
1552.4699999999998,GRIMETHORPE SURGERY,-1.378978,53.573614
1353.68,THE OAKWOOD SURGERY,-1.073937,53.506609
1368.88,PAPWORTH SURGERY,-0.11749200000000001,52.252071
2586.110000000001,ORCHARD SURGERY,0.944176,52.678309
2232.32,DR JK MARSDEN'S PRACTICE,-0.436528,51.894968
3330.0699999999993,MALTINGS SURGERY,-0.337918,51.751851
648.76,HANWELL HEALTH CENTRE (NAISH),-0.334375,51.510263
2305.55,WHITLEY HOUSE SURGERY,0.455723,51.726539
1597.8000000000006,WEST ROAD SURGERY,0.70187,51.544989
1141.1299999999997,JOYDENS WOOD MEDICAL CENTRE,0.166397,51.42449
3998.08,TRAFALGAR MEDICAL GROUP PRACTICE,-1.092485,50.785331
2403.5400000000004,EASTFIELD HOUSE SURGERY,-1.323251,51.395555
2359.140000000001,RECTORY MEADOW SURGERY,-0.6175,51.669079
2718.920000000001,TUDOR LODGE SURGERY,-2.975378,51.332396
2422.140000000001,PRAZE-AN-BEEBLE SURGERY,-5.309264,50.173753
2829.6699999999987,CAMBRIAN MEDICAL PRACTICE,-3.047774,52.86281
1017.47,PENN SURGERY,-2.145001,52.568567
1463.5100000000002,FIRDALE MEDICAL CENTRE,-2.537387,53.253804
1422.4299999999994,HALL GREEN SURGERY,-2.741349,53.540745
749.1900000000002,SARAF MEDICAL PRACTICE,-2.076954,53.561455
302.76,LATIMER HEALTH CENTRE,-0.049503,51.54659
1429.0800000000004,DELL MEDICAL CENTRE,0.328114,51.480258
1031.5099999999998,KIRKSTALL LANE MEDICAL CENTRE,-1.587333,53.816942
933.2600000000001,WHITCHURCH SURGERY,-1.340372,51.230256
964.79,DR NEWMAN,-1.975441,50.719722
642.66,GATDOC OOH,-1.580781,54.93938000000001
706.7199999999998,THE TRINITY MEDICAL CENTRE,0.085815,51.478803
382.81000000000006,CARE UK OOH,1.210633,52.034014
1096.44,PONTELAND RD WIC,-1.656804,54.991604
21.25,CONIFER HOUSE SEXUAL HEALTH CLINIC,-0.342095,53.746221
654.4300000000002,IC24 LTD (HWLH OOH),0.891514,51.129106
246.17999999999995,BURNLEY LOCALITY NMPS,-2.238948,53.791326
6.93,SOUTH EAST HUB 1,-0.10851199999999998,51.477558
1.77,ONE ASHFORD - ELECTIVE CARE NHS SERVICES,0.9117360000000002,51.142662
2414.5,KIRKBY COMMUNITY PRIMARY CARE CENTRE (3),-1.248741,53.10176
49.62000000000001,DMC COMMUNITY DERMATOLOGY ERY,-0.872594,53.695801
2464.7100000000005,BERKLEY PRACTICE,-2.024533,52.58916
2809.5200000000004,BELLE VALE HEALTH CENTRE,-2.859752,53.392035
988.22,ELIZABETH STREET SURGERY,-3.043658,53.820839
1045.28,RAMSBOTTOM MEDICAL PRACTICE,-2.319287,53.64878
392.35,THE WHITSWOOD PRACTICE,-2.253502,53.455769
3344.089999999999,WOODLANDS MEDICAL PRACTICE,-2.142182,53.545559
930.48,BROOKS BAR MEDICAL CENTRE,-2.261969,53.461412
893.76,BROOK HOUSE SURGERY,-1.445882,50.921794
900.6499999999999,ASHVILLE SURGERY,-0.201145,51.476255
1408.07,THE VILLAGE MEDICAL CTR,-0.512653,52.128152
2221.77,DR HANTSDOC N OOH,-1.109918,51.280633
4.95,WEST CAMHS - KIRKSTALL,-1.599694,53.817164
2893.49,GP COLLABORATIVE OOH,-1.455965,53.409821
2307.2200000000007,ST NEOTS HEALTH CENTRE,-0.267116,52.228966
3596.010000000001,ERDINGTON GP HEALTH & WELLBEING WIC,-1.840871,52.522486
136.92999999999998,QUAY HEALTH EAC,-0.069645,51.49696
1621.55,HMR BARDOC OOH,-2.288591,53.59553
26.83,HOLYWELL AT LANGLEY HOUSE HCT,-0.391206,51.683651
338.4699999999998,7 DAY ACCESS ROCHDALE INFIRMARY HUB,-2.160152,53.624282
141.86,GATESHEAD HEALTH COMMUNITY SERVICES,-1.580781,54.93938000000001
35.58000000000001,NEAS HAST CCG,-1.712365,54.969713
8.019999999999998,VC WEST LANCS COMMUNITY NURSING,-2.840112,53.602357
40.00000000000001,SOUTH DALES HEALTHCARE LTD,-1.571366,53.077623
2678.2099999999987,PRIORY MEDICAL CENTRE,-1.588641,52.285051
411.84,MODALITY ANN JONES FAMILY HEALTH CENTRE,-1.871333,52.462659
325.57000000000005,BALDWINS LANE SURGERY,-1.846405,52.414514
656.4000000000002,TUDOR PRACTICE STOCKLAND GREEN,-1.857329,52.52388199999999
1361.13,CENTRAL SURGERY,-2.74261,53.456686
4847.440000000001,ASH TREES SURGERY,-2.769484,54.129481
612.3899999999999,FAMILY PRACTICE,-2.486748,53.750552
1421.0600000000004,MONARCH MEDICAL CENTRE,-2.316823,53.564198
2192.19,LEESBROOK SURGERY,-2.07266,53.53879
873.26,WALTON SURGERY,1.335453,51.973564
621.84,LINCOLN GREEN MEDICAL CENTRE,-1.525196,53.802098
593.7500000000001,PARKGATE SURGERY,-1.548606,54.523273
831.88,DALTON TM,-2.643772,53.529393
726.63,POLLARD ROW SURGERY,-0.064328,51.528266
2203.4999999999995,HARROGATE OOH,-1.517573,53.993807
1650.86,MIRIAM MINOR EMERGENCY,-3.04649,53.39824599999999
47.71,ASHFORD HUB,-0.472813,51.444022
45.86999999999999,EXTENDED HOURS SERVICE,-2.9023,53.211542
394.0,LIVEWELL S/W,-4.116613,50.378837
10.4,WILL ADAMS NHS TREATMENT CENTRE,0.576568,51.380889
229.94000000000003,RUSHCLIFFE URGENT CARE SERVICE,-1.100495,52.924252
154.11,RUNCORN URGENT CARE CENTRE WIC,-2.694681,53.323266
8.41,COLORECTAL SURGERY,-0.210281,51.409967
465.82000000000005,PML NEIGHBOURHOOD HUB (BANBURY),-1.349027,52.057771
767.4299999999997,BALDERTON SURGERY,-0.7864679999999998,53.052881
913.8099999999998,ULVERSTON COMMUNITY HEALTH CENTRE,-3.097833,54.198882
2233.2000000000007,NORTH ROAD SUITE RAVENSTHORPE HEALTH CTR,-1.661589,53.677829
1712.35,CASTLE MEAD MEDICAL CENTRE,-1.367743,52.541052
2569.42,RADCLIFFE-ON-TRENT. HEALTH CENTRE,-1.03822,52.946139
1940.03,RISE PARK SURGERY,-1.174951,53.011477
1257.9100000000005,MANCHESTER ROAD SURGERY,-1.521086,53.380573
1450.83,CHERRY HINTON MEDICAL CENTRE,0.177635,52.187459
2775.13,THE MEDICI MEDICAL PRACTICE,-0.418382,51.874494
1273.0299999999995,PENSHURST GARDENS SURGERY,-0.272812,51.616129
1100.2799999999997,ELLIS PRACTICE,-0.276552,51.563894
514.0799999999998,ORCHARD END,0.539532,51.091415
1778.2,NEW ELTHAM AND BLACKFEN MEDICAL CENTRE,0.074199,51.434495
2019.5800000000006,THE GROVE MEDICAL CENTRE,-2.513702,50.953273
3663.9199999999987,BISHOPS WALTHAM SURGERY,-1.212149,50.95528
1782.7700000000002,THE WILLESDEN MEDICAL CENTRE,-0.233873,51.547532
632.0700000000002,EASTMEAD AVENUE SURGERY,-0.36274,51.531443
465.7199999999999,KINCORA DOCTORS SURGERY,-0.412216,51.511666
446.18,DR M GOYAL'S PRACTICE,0.156711,51.540066
2363.34,TOLLGATE MEDICAL CENTRE,0.056362,51.515573
2396.03,HETHERINGTON GROUP PRACTICE,-0.12823,51.460932
481.6600000000001,SELHURST MEDICAL PRACTICE,-0.088969,51.390012
1987.92,THE WATERFIELD PRACTICE,-0.733923,51.409204
507.25000000000006,JERICHO HEALTH CENTRE,-1.265958,51.760293
1504.1499999999994,PONTESBURY MEDICAL PRAC,-2.887922,52.650521
1674.21,TUTBURY HEALTH CENTRE,-1.686361,52.858454
2187.36,TEAN SURGERY,-1.988036,52.954415
1239.88,WAKE GREEN SURGERY,-1.883357,52.446103
2004.19,THORNLEY STREET MEDICAL CENTRE,-2.125789,52.58843
1325.86,MEREPARK MEDICAL CENTRE,-2.300747,53.093285
1157.3300000000004,RAINHILL VILLAGE SURGERY,-2.763813,53.41631
1209.5700000000004,MILE LANE HEALTH CENTRE,-2.335248,53.587814
1221.1,NEW ISLINGTON MEDICAL CENTRE,-2.219472,53.4829
1950.86,CLARENDON MEDICAL CENTRE,-2.079951,53.45264
916.53,BRAITHWAITE RD SURGERY,-2.574985,53.477412
2116.7599999999993,WOODGRANGE MEDICAL PRACTICE,0.025253,51.548596
810.9699999999998,JARVIS MEDICAL PRACTICE,-2.095095,53.537786
593.11,DR SP TALPAHEWA,-0.260303,51.616115
2255.0899999999992,WIRRAL WIC (APH)_WIC APH,-3.096815,53.36964
3626.5,IC24 LTD (NORFOLK & WISBECH OOH),0.891514,51.129106
2385.9100000000008,BRANDON MEDICAL PRACTICE,0.6233,52.448489
1338.64,BOLTON MEDICAL CENTRE,-2.431399,53.56543
696.28,THE MANSELL ROAD PRACTICE,-0.358969,51.525654
1373.92,WESTCROFT HEALTH CENTRE,-0.795699,52.006367
658.3200000000002,FOUNDATIONS,-1.257899,54.563441
2781.430000000001,(FRACTURE CLINIC) NORTH OOH,-0.883829,52.236068
1389.8800000000006,READING WALK-IN HEALTH CENTRE,-0.9758960000000002,51.454809
36.88,CARLISLE LOCALITY PRIMARY CARE SERVICES,-2.8956419999999996,54.892234
4759.27,MERSEYCARE NHS TRUST - NMP,-2.933499,53.407265
457.33,BRADFORD DISTRICT CARE TRUST,-1.788605,53.839675
3.65,PUBLIC HEALTH SERVICES,0.020377,51.403879
28.79,GP EXTENDED HOURS SERVICE,-0.62317,54.485919
106.63,CORRINGHAM HUB,0.42690200000000006,51.513843
570.06,NORTH TYNESIDE CARE PLUS,-1.456596,55.011193
751.0499999999998,KINGSTON CCG SLDUC OOH,-0.283378,51.412517
282.35,8 TO 8 TOP-UP HUB QMH,0.101687,51.419041
12.48,OPTIMUSEXTENDEDACCESS,-0.596637,53.18754
986.42,SUFFOLK GP FEDERATION OOH,1.164244,52.044508
4.84,COMMUNITY RESPIRATORY TEAM,-2.931104,53.466323
4232.0,LOWTHER MEDICAL CENTRE,-3.586392,54.545056
2660.2000000000007,COLLEGE LANE SURGERY,-1.336292,53.644573
1248.9599999999996,THE SURGERY CLIFTON ROAD,-1.737497,53.013356
2546.519999999999,THE ORCHARD MED PRACTICE,-1.231693,52.533972
4945.93,MUNRO MEDICAL CENTRE,-0.147427,52.794037
1017.9900000000004,MOSBOROUGH HEALTH CENTRE,-1.364873,53.325238
2565.890000000001,ORCHARD SURGERY MELBOURN,0.020092,52.080651
2472.5099999999993,HIGH STREET SURGERY,1.756043,52.482123
2048.89,ANDAMAN SURGERY,1.715485,52.45691600000001
5662.309999999999,STANMORE MEDICAL GROUP,-0.204612,51.913274
1730.5199999999993,PUCKERIDGE & STANDON SURGERY,0.019374,51.888296
3943.98,KING GEORGE SURGERY,-0.206096,51.907416
1406.96,COMMONWEALTH HEALTH CENTRE,0.36308,51.463166
1860.0399999999993,KEATS GROUP PRACTICE,-0.17103,51.555534
1982.7,BURNT ASH SURGERY,0.009913000000000002,51.452782
2390.550000000001,HILLVIEW MEDICAL CENTRE,-0.557727,51.315501
4070.739999999999,DOWNING STREET GROUP PRACTICE,-0.7989009999999998,51.212905
420.69,ASHBURTON PARK MEDICAL CENTRE,-0.064221,51.384147
1127.1099999999994,TAMWORTH HOUSE MEDICAL CENTRE.,-0.146254,51.40122
6873.370000000001,PARKSIDE PRACTICE,-1.353169,50.970948
636.3099999999998,ST.PETERS SURGERY,-1.372792,50.897829
397.98999999999984,NEATH HILL HEALTH CENTRE,-0.747321,52.060411
1356.31,BATHEASTON MEDICAL CENTRE,-2.317387,51.406032
1039.59,DARTMOUTH MEDICAL PRACTICE,-3.580811,50.351157
2948.55,DARTFORD EAST HEALTH CENTRE,0.236914,51.440747
2011.8400000000006,CHURCH STREET PRACTICE,-0.459783,51.37345
1860.5399999999993,THE GREYSWOOD PRACTICE,-0.144853,51.419489
857.0499999999998,BOLINGBROKE MEDICAL CENTRE (THMP),-0.168282,51.45617
1681.8400000000006,LEYBOURNE SURGERY,-1.88721,50.758437
1576.64,THE BORDER PRACTICE,-0.740565,51.240995
1780.7099999999996,PATFORD HOUSE PARTNERSHIP,-2.005519,51.437601
595.8599999999999,CHATHAM STREET SURGERY,-0.981895,51.455924
3266.3999999999987,THE CROSS KEYS PRACTICE,-0.830848,51.723655
1877.6400000000006,WHITELADIES MEDICAL GROUP,-2.612382,51.465097
1310.16,HILLCREST SURGERY,-2.431687,51.311982
1285.3600000000004,DEVON SQUARE SURGERY,-3.60508,50.529985
880.1000000000001,ESTOVER SURGERY,-4.0952,50.411271
813.38,THE ROYAL WELL SURGERY,-2.0815,51.906706
648.9100000000002,APSLEY SURGERY,-2.187008,53.035377
931.43,THE LIMES SURGERY MEDICAL CENTRE,-2.114052,52.456884
1124.7700000000002,ASHFIELD ROAD SURGERY,-2.132841,52.62604399999999
2310.15,NORTHGATE MEDICAL CENTRE,-2.892972,53.19509300000001
2565.09,RIVERSIDE SURGERY,-3.006197,53.372004
2144.9600000000005,LAYTON MEDICAL CENTRE,-3.027291,53.827425
1915.7,HT PRACTICE,-2.110496,53.478305
1413.7700000000007,WESTLEIGH MEDICAL PRACTICE,-2.526024,53.510851
318.44000000000005,MEDICUS HEALTH PARTNERS-CURZON AVENUE,-0.036518,51.645435
878.89,WINDMILL SURGERY,-1.48555,52.449933
576.2499999999999,ARNOS GROVE MEDICAL CENTR,-0.129838,51.615476
186.0,ST.QUINTIN HEALTH CENTRE,-0.220325,51.519199
253.6,GPSI DERMATOLOGY SERVICE BUCKDEN HUNTS,-0.254174,52.291764
1774.8599999999994,PARK COMMUNITY PRACTICE,-1.871717,53.725678
94.01,WALTHAM FOREST CCG(NMP-COMMUNITY HEALTH),-0.022546,51.616083
3.04,ENFIELD COMMUNITY GYNAECOLOGY SERVICE,-0.101361,51.659225
1.49,CAMDEN COMMUNITY NURSING,-0.131658,51.53665
23.24,CHELTENHAM LOCALITY NURSE PRESCRIBER,-2.176389,51.847073
197.79,N&S COMMUNITY DERMATOLOGY CLINIC,-1.032629,53.141866
248.43,COMMUNITY DERMATOLOGY SOUTHWARK GSTT,-0.08679399999999998,51.503466
55.9,CHESTERFIELD HEALTH PROVIDER LTD,-1.43962,53.233943
378.36000000000007,MELROSE SURGERY,-1.287301,54.609397
2542.81,BLACKETTS MEDICAL PRACTICE,-1.559007,54.527221
638.9900000000001,DR A SINHA,-0.108523,53.567689
2032.25,WILLINGTON SURGERY,-1.566835,52.850285
1083.14,UPWELL STREET SURGERY,-1.434724,53.406424
2930.91,LAKENHAM SURGERY,1.296577,52.6183
2033.1,MANOR FARM MEDICAL CENTRE,0.690513,52.648544
1349.3200000000004,PLOWRIGHT MEDICAL CENTRE,0.686691,52.655577
2367.6600000000008,REGAL CHAMBERS SURGERY,-0.275959,51.952843
878.39,STANHOPE SURGERY,-0.032073,51.688002
328.78,THE GARWAY MEDICAL PRACTICE,-0.185494,51.515392
2405.86,BEECHWOOD SURGERY,0.292731,51.608567
2345.9700000000007,THE NIGHTINGALE PRACTICE,-0.062434,51.558261
1531.0700000000006,THE GRAHAM PRACTICE,0.048721,51.541534
2705.93,ISLAND HEALTH,-0.013513,51.495357
3190.55,STANFORD MEDICAL CENTRE,-0.148293,50.838378
2873.199999999999,NEWINGTON ROAD SURGERY,1.399222,51.343459
2938.87,BELVEDERE MEDICAL CENTRE,0.144376,51.482567
3277.2699999999995,ST.LAWRENCE SURGERY,-0.390026,50.823979
3127.6700000000005,MID SUSSEX HEALTH CARE,-0.175279,50.933719
1893.25,THE WHITELEY SURGERY,-1.266072,50.88262
9245.020000000002,ACORN HEALTH PARTNERSHIP,-1.114058,51.245047
9604.019999999997,PORTSDOWN GROUP PRACTICE,-1.080952,50.812876
2988.11,THE ELMS PRACTICE,-0.976476,50.789794
1738.3200000000004,ESPLANADE SURGERY,-1.158697,50.731943
882.8500000000001,GLASTONBURY HEALTH CENTRE,-2.712893,51.148733
2531.48,MAYFIELD SURGERY,-2.13456,52.982709
1148.5,BRIDGE MEDICAL,-1.506726,55.038077
288.6499999999999,WINDSOR MEDICAL CENTRE,-1.622157,53.693875
1832.4300000000005,ASHBOURNE MEDICAL PRACTICE,-1.737589,53.012862
1539.84,THE UPPINGHAM SURGERY,-0.723557,52.594972
2472.23,ABBEY MEDICAL GROUP,-1.119194,53.100674
1391.31,LOWMOOR ROAD SURGERY,-1.244634,53.100062
2285.88,BIRLEY HEALTH CENTRE,-1.396985,53.340317
2125.68,PARKFIELD MEDICAL CENTRE,-0.179588,51.695129
980.44,REDWOOD PRACTICE,-0.359614,51.461125
527.7299999999998,SUNRISE MEDICAL CENTRE,-0.382255,51.51087
2189.45,THE THORPE BAY SURGERY,0.757986,51.534599
816.67,HOLBORN MEDICAL CENTRE,-0.118539,51.522233
948.16,BRICK LANE SURGERY,-0.048612,51.657327
452.74,ABBEY COURT,0.26122,51.137755
1422.6999999999996,ELM LODGE SURGERY,-0.096232,51.451506
2005.72,HUDSON (SEYMOUR HOUSE),-0.292773,51.462401
1044.2,OPEN DOOR SURGERY,-0.155581,51.443166
3900.549999999999,THE LIGHTHOUSE GROUP PRACTICE,-1.0805049999999998,50.796551
2089.04,THE ORCHARD PARTNERSHIP,-1.865867,51.077878
3245.4500000000007,WHADDON MEDICAL CENTRE,-0.7662759999999998,52.000308
1651.1700000000005,SONNING COMMON HEALTH CTR,-0.982114,51.515603
4650.299999999998,LANDER MEDICAL PRACTICE,-5.055864,50.259982
940.36,BROSELEY MEDICAL PRACTICE,-2.481266,52.611554
451.07,BONEY HAY SURGERY,-1.926768,52.690328
1822.6,BEECH TREE MEDICAL PRACTICE,-1.252936,52.377534
1733.2499999999998,ALUM ROCK MEDICAL CENTRE,-1.850664,52.489901
565.15,GREENFIELD MEDICAL CENTRE,-1.855764,52.491684
1088.89,THE SURGERY,-2.605295,53.024859
1351.0900000000004,PARKGATE SURGERY,-2.882743,53.564772
1723.6200000000006,MARPLE MEDICAL PRACTICE,-2.064954,53.39495
170.67,WORKINGTON HEALTH LIMITED,-3.551342,54.642687
1407.29,CLOVER CITY PRACTICE,-1.46659,53.38187
402.8,WLCCG EXTENDED HOURS HUBS,-0.217218,51.522362
285.11,NEWARK ACUTE HOME VISITING SERVICE,-1.238124,52.98146
82.26999999999998,I HEART BARNSLEY OOH,-1.4569,53.543072
1403.1999999999996,ASPATRIA MEDICAL GROUP,-3.337992,54.762123
4760.52,WILLIAM BROWN CENTRE,-1.33142,54.757994
2236.0399999999995,WELLSPRING MEDICAL PRACT.,-1.564066,55.037289
1036.37,RED HOUSE MEDICAL CENTRE,-1.424063,54.925457
3175.34,COLNE VALLEY GROUP PRACTICE,-1.9282130000000002,53.602096
470.05,FAMILY DOCTORS,-1.440964,53.798248
1325.02,ROYSTON GROUP PRACTICE,-1.451018,53.600005
727.25,SOUTHEY GREEN MEDICAL CTR,-1.477666,53.419051
2509.4999999999995,IVRY STREET MEDICAL PRACTICE,1.148624,52.064021
4599.61,NORTH FULHAM SURGERY,-0.199224,51.486415
153.22000000000003,FULHAM CROSS MEDICAL CENTRE,-0.214067,51.482774
117.45000000000002,LAI CHUNG FONG QUEENS PARK HEALTH CENTRE,-0.205826,51.530911
1855.2200000000007,NEWBURY GROUP PRACTICE,0.085981,51.576435
7774.769999999998,HARDWICKE HOUSE GROUP PRACTICE,0.725792,52.0382
2437.359999999999,WHEATFIELD SURGERY,-0.495144,51.904445
528.53,BRAMPTON HEALTH CENTRE,-0.277386,51.586099
673.7999999999998,DOCKLANDS MEDICAL CENTRE,-0.021143,51.491152
1810.6700000000005,BELMONT SURGERY,0.340829,51.061952
1488.1,LONG CATLIS ROAD SURGERY,0.595579,51.348325
1184.6500000000005,ABBEY WOOD SURGERY,0.11653,51.497094
2121.82,WOOLSTONE MEDICAL CENTRE,-0.036776,51.438421
1358.98,MINET GREEN HEALTH PRACTICE,-0.105204,51.475715
1207.9100000000005,SOUTHGATE MEDICAL GROUP,-0.194559,51.102316
1428.68,NEW ADDINGTON GROUP PRACTICE,-0.018557,51.344382
881.3299999999998,BANBURY ROAD MEDICAL CENTRE,-1.263535,51.774771
3048.760000000001,THE ARMADA FAMILY PRACTICE,-2.571861,51.413438
2494.41,STAFFORD MEDICAL GROUP,-2.914755,51.35259
1994.14,BROCKWORTH SURGERY,-2.156696,51.844575
5718.6,SEVERN VALLEY MEDICAL PRACTICE,-2.235045,52.190415
1443.7500000000002,DAWLEY MEDICAL PRACTICE,-2.466781,52.664322
1907.9400000000005,LEEK HEALTH CENTRE,-2.019347,53.105691
1128.2700000000004,CHASE MEADOW HEALTH CENTRE,-1.608604,52.268838
187.29999999999995,HILL TOP PRACTICE,-2.011775,52.537791
259.0,MAGHULL HEALTH CENTRE (DR SAPRE),-2.943932,53.515597
2457.0400000000004,LIME SQUARE MEDICAL CENTRE,-2.164901,53.473649
307.88999999999993,WINDERMERE SURGERY,-2.205709,53.55956
979.42,BEESTON VILLAGE SURGERY,-1.569152,53.772415
525.26,HATTON MEDICAL PRACTICE,-0.433285,51.457879
319.4899999999999,BLURTON MEDICAL CENTRE,-2.156565,52.972002
86.34999999999998,GREAT CHAPEL STREET MEDICAL CENTRE,-0.134097,51.51508
571.0999999999998,HASTINGS AND ROTHER OOH,0.891514,51.129106
20.63,A&E GPS,-2.629091,53.55774
2079.81,BIRBECK MEDICAL GROUP,-2.742581,54.656125
1502.6899999999994,BEWICK ROAD SURGERY,-1.601653,54.956398
785.4799999999998,WENLOCK ROAD SURGERY,-1.455226,54.972635
1443.2300000000002,WINTERTON MEDICAL PRACTICE,-0.606876,53.652511
1851.82,THE OLD SCHOOL MEDICAL PRACTICE,-1.1424040000000002,53.916163
1915.76,KEIGHLEY ROAD SURGERY,-1.893907,53.754239
1317.4200000000005,MULBERRY STREET MEDICAL PRACTICE,-1.66397,53.794738
1484.4199999999996,CHATSWORTH ROAD MEDICAL CENTRE,-1.467337,53.231374
1103.66,CRICH MEDICAL PRACTICE,-1.482573,53.084327
1404.0700000000006,MEXBOROUGH HEALTH CENTRE,-1.279795,53.494237
4504.84,ST VINCENT MEDICAL CENTRE,-1.124029,53.525476
1395.6799999999996,LUDHAM AND STALHAM GREEN SURGERIES,1.534423,52.709131
2074.0,BENTHAM ROAD HEALTH CENTRE,-2.50627,53.73058399999999
0.3,HMP EASTWOOD PARK,-2.467383,51.634454
27.21,ROTHERHAM HOSPICE,-1.340784,53.424046
11.38,INVICTA HEALTH CONNECT FOLKESTONE,1.171894,51.085996
888.4799999999998,CRESWELL AND LANGWITH MEDICAL CENTRE,-1.215835,53.262654
174.43000000000004,INHEALTH NWCATS,-2.163393,53.602382
9.170000000000002,ST LUKES HOSPICE,0.456959,51.5576
79.98,UHMB COMMUNITY NMP,-2.799232,54.042726
45.24,PRIMARY CARE ACCESS SERVICE,-2.134034,53.450605
2309.74,NORWOOD MEDICAL CENTRE,-3.222974,54.119201
2366.2000000000007,BEECHWOOD GROUP PRACTICE,-3.545472,54.642376
4599.64,DENMARK STREET SURGERY,-1.552252,54.538825
2369.25,WELL CLOSE MEDICAL GROUP,-2.006127,55.77245799999999
1768.13,PALLION FAMILY PRACTICE,-1.414195,54.908604
851.51,PICTON MEDICAL CENTRE,-1.77624,53.807296
2251.580000000001,PARKSIDE MEDICAL CENTRE,-0.021998,52.981526
4852.9000000000015,ORCHARD MEDICAL PRACTICE,-1.206764,53.141121
2201.0000000000005,THE BURNS PRACTICE,-1.12309,53.520707
1040.46,WINCOBANK MEDICAL CENTRE,-1.416316,53.419405
1100.46,UEA MEDICAL CENTRE,1.241391,52.622369
697.3199999999997,THE VILLAGE SURGERY,-0.168135,51.648069
693.0800000000003,THE STREATFIELD MEDICAL CENTRE,-0.30083,51.595343
400.6500000000001,THE CHELSEA PRACTICE,-0.166915,51.486814
2067.0999999999995,ST. BARTHOLOMEWS SURGERY,0.051755,51.532409
1557.2,RYDAL,0.020102,51.608432
2706.44,GROSVENOR & ST JAMES MEDICAL CENTRE,0.264349,51.137424
844.4400000000003,KING GEORGE ROAD SURGERY,0.518518,51.348911
396.70000000000016,THE THREE ZERO SIX MEDICAL CENTRE,-0.076403,51.450741
890.7100000000002,VIRGINIA WATER MEDICAL PRACTICE,-0.568235,51.403367
735.9499999999998,NEW OTTERSHAW SURGERY,-0.526005,51.361938
1261.93,THE ALTON PRACTICE,-0.239471,51.44914
7919.760000000002,THE WILLOW GROUP,-1.143034,50.800579
1998.4300000000005,ALEXANDER HOUSE SURGERY,-0.7520019999999998,51.293749
3487.510000000001,RIDGEWAY VIEW FAMILY PRACTICE,-1.7915709999999998,51.524175
2439.300000000001,GREEN MEADOWS SURGERY,-0.677163,51.426939
1527.0300000000007,PORT VIEW SURGERY,-4.214351,50.40735
4038.4800000000014,CHURCHDOWN SURGERY,-2.171559,51.882487
2650.2500000000005,STANMORE HOUSE SURGERY,-2.231468,52.391138
1444.1699999999996,WARGRAVE HOUSE SURGERY,-2.712261,52.055418
1258.81,VENTNOR MEDICAL CENTRE,-1.203791,50.594548
2177.4300000000007,THE HALL PRACTICE,-0.561016,51.606986
1187.23,WEST VIEW SURGERY,-2.50212,51.411923
783.4099999999999,HARTLAND SURGERY,-4.482549,50.992721
2714.02,STATION DRIVE SURGERY,-2.715141,52.370132
4966.019999999999,SOLIHULL HEALTHCARE PARTNERSHIP,-1.775235,52.419642
2162.42,CONCEPT HOUSE SURGERY,-2.98492,53.449136
2821.32,ADELAIDE STREET SURGERY,-3.048397,53.817351
1560.7000000000005,LOCKWOOD GP SURGERY,-2.989833,53.850947
482.53,CAVENDISH HEALTH CENTRE,-0.148092,51.519331
3221.05,BROWNLOW GROUP PRACTICE,-2.96585,53.405021
657.3899999999999,HEATHROW MEDICAL CENTRE,-0.433924,51.49302
199.89,THE ENTERPRISE PRACTICE,-0.320613,51.601113
6.29,COMMUNITY GYNAE SERVICE,-1.555879,53.778323
1622.5899999999995,ODDFELLOWS HALL & ST CLEMENTS,0.327906,51.480703
57.24999999999999,COMMUNITY GERIATRICIAN SERVICE,-1.568473,53.81497099999999
2.77,COMMUNITY ENT SERVICE,-2.146398,52.465406
43.38000000000001,WYRE FOREST COMMUNITY NURSES,-2.244954,52.387785
960.18,CHAUCER SURGERY,-1.45237,52.515151
2166.23,THE ENDEAVOUR PRACTICE,-1.235397,54.575047
1355.65,THE LAKES MEDICAL PRACTICE,-2.742581,54.656125
2497.11,EAST PARADE SURGERY,-1.529793,53.996354
597.0599999999998,FIELDHEAD SURGERY,-1.639379,53.831787
1400.78,BASLOW HEALTH CENTRE,-1.617823,53.246144
3349.6700000000014,OSMASTON SURGERY,-1.467954,52.911084
476.23999999999984,ASQUITH SURGERY,-1.117116,52.601489
2196.1800000000007,HOLBEACH MEDICAL CENTRE,0.014430000000000002,52.804778
1119.9,YEADING MEDICAL CENTRE,-0.397019,51.533634
153.66999999999996,MAYFAIR MEDICAL CENTRE,-0.150172,51.513536
1578.6300000000006,SUN LANE,1.087469,51.071536
1778.8799999999994,LYDDEN SURGERY,1.23991,51.163193
854.0900000000001,THE CHURCH VIEW PRACTICE,0.609995,51.363412
832.93,TRIANGLE GROUP PRACTICE,-0.011071,51.457798
2543.790000000001,SELSDON PARK MEDICAL PRACTICE,-0.06457300000000002,51.342409
841.14,LAMBOURN SURGERY,-1.526933,51.504696
1898.3699999999994,BICESTER HEALTH CENTRE,-1.157239,51.896742
1339.25,FOWEY RIVER PRACTICE,-4.635394,50.337915
3631.550000000001,KNOWLE HOUSE SURGERY,-4.134098,50.40863
1665.9400000000005,HOLTS HEALTH CENTRE,-2.406966,51.931555
2094.9300000000007,CUMBERLAND HOUSE,-2.145844,52.901549
955.95,BILBROOK MEDICAL CENTRE,-2.181749,52.624775
1222.49,VALE OF RED HORSE,-1.510351,52.15797
1042.2,BALSALL COMMON & MERIDEN GROUP PRACTICE,-1.643862,52.394956
1043.15,LANCE LANE MEDICAL CENTRE,-2.911916,53.396196
727.93,DR A GUPTA BENIM MEDICAL CENTRE,-2.947804,53.419395
2444.3499999999995,DINAS LANE MEDICAL CENTRE,-2.861513,53.417388
10260.13,LANCASTER MEDICAL PRACTICE,-2.797202,54.047583
232.74,DR GWD BHIMA,-2.154239,53.611617
2719.23,RIVERSIDE MEDICAL CENTRE,-2.672299,53.748112
593.88,LITTLETOWN FAMILY MED PRACT,-2.134298,53.529137
1395.62,NEW COURT SURGERY,-2.30878,52.113538
535.85,THE BARHAM & CLAYDON SURGERY,1.109866,52.110175
2662.63,SWANWOOD PARTNERSHIP,0.519034,51.613356
307.30000000000007,NIGHTINGALE HOUSE,-0.159747,51.449354
714.7599999999999,CROWN WOOD MEDICAL CENTRE,-0.736934,51.395919
135.22,CITY REACH HEALTH SERVICES,1.288137,52.633042
1201.3200000000004,THE JUNCTION SURGERY,-1.759212,53.643662
413.68,DORKING HEALTHCARE LLP,-0.333421,51.225985
5976.2199999999975,BADGER GROUP OOH,-1.8778259999999998,52.477589
804.19,DURNFORD DERMATOLOGY CATS,-2.197033,53.554038
1942.34,GREAT BRIDGE HEALTH CENTRE,-2.02775,52.527792
4502.1100000000015,PELC REDBRIDGE OOH,0.066648,51.55684
1483.66,BCH URGENT CARE CENTRE,-2.583357,51.412858
98.69,NON MEDICAL PRESCRIBING SOUTHEND CCG,0.702782,51.583955
252.56,COMMUNITY NURSING (SOUTH TEES),-1.215564,54.570237
200.79,WEST HERTS RESPIRATORY SERVICE,-0.468578,51.750846
50.77,FITZWILLIAM HOSPITAL,-0.297549,52.576469
46.88,DGS HEALTH,0.343258,51.435153
13.53,DARLINGTON PALLIATIVE CARE,-1.567053,54.529074
716.9999999999999,GREENWOOD SURGERY,0.605168,51.653143
37.8,LEEDS INTEGRATED SEXUAL HEALTH SERVICE,-1.544048,53.80163
255.03,RAMSAY HEALTHCARE UK,-2.076674,52.457813
1912.53,EN HERTS ACUTE IN-HOURS VISITING SERVICE,-0.191727,51.782567
219.22000000000003,PARTNERSHIP STOKE,-2.109085,52.810605
3.61,MERTON CCG-CLCH (NMP),-0.199155,51.47377
3.99,DHU 111 NOTTS PHARMACIST PRESCRIBERS OOH,-1.428134,52.914593
633.29,GP SERVICES - GP HUBS,-0.175734,51.240416
1944.3700000000006,MIDDLE CHARE MEDICAL GROUP,-1.573113,54.855636
850.1599999999997,I J HEALTHCARE,-1.531354,54.88104
612.4599999999998,OAK GLEN SURGERY,-1.816352,53.854799
1815.94,WELLINGTON HOUSE,-1.634561,53.714775
2680.22,SKELMANTHORPE FAMILY DOCTORS,-1.650686,53.591604
3400.200000000001,LEIGH VIEW MEDICAL PRACTICE,-1.558358,53.728574
959.13,OAKWOOD SURGERY,-1.4290459999999998,52.941386
1262.32,THE KAKOTY PRACTICE,-1.473444,53.5464
873.1300000000001,PHOENIX PRIMARY CARE (SOUTH) LTD,-0.435422,51.918016
1632.82,NEWCASTLE GP IN MOLINEUX WIC,-1.583491,54.977507
149.55,NORTH NORFOLK HUB 2 (BIRCHWOOD),1.38334,52.820065
1504.95,GILDERSOME HEALTH CENTRE,-1.6293,53.756554
951.42,HAZELMERE MEDICAL CENTRE,-1.16453,52.57337
2502.9400000000005,BURNGREAVE SURGERY,-1.459815,53.393327
905.6299999999997,FELTWELL SURGERY,0.527056,52.48268
2830.010000000001,QUEENS PARK HEALTH CENTRE,-0.493075,52.133151
1088.7,ALBANY PRACTICE,-0.310054,51.48676
595.25,CASSIDY ROAD MEDICAL CENTRE,-0.199015,51.479154
7184.14,COLCHESTER MEDICAL PRACTICE,0.909325,51.890029
1587.7300000000007,ROWHEDGE SURGERY,0.945058,51.85767
504.63999999999993,DR VM PATEL,0.228776,51.561113
456.5300000000001,THE HEATHCOTE PRIMARY CARE CENTRE,0.062768,51.593832
1757.85,ESHER GREEN SURGERY,-0.370196,51.375782
283.4599999999999,CHILDS (THAMESIDE),-0.326599,51.427449
938.7000000000002,THE CHESSER SURGERY,-0.177303,51.374927
1697.91,MOREDON MEDICAL CENTRE,-1.8070689999999998,51.582197
2164.0399999999995,ASHFIELD MEDICAL CENTRE,-0.7382729999999998,52.019666
1725.4100000000005,BUGBROOKE MEDICAL PRACTICE,-1.005426,52.211409
2864.43,TRESCOBEAS SURGERY,-5.085333,50.15531
1882.1300000000006,BUDSHEAD MEDICAL PRACTICE,-4.150289,50.417443
1643.73,TEIGN ESTUARY MEDICAL GROUP,-3.496462,50.5456
1717.23,MITCHELDEAN SURGERY,-2.488369,51.865935
1294.82,LUSON,-3.229566,50.977398
3856.09,HARESFIELD HOUSE SURGERY,-2.202996,52.194829
195.69000000000003,HEDNESFORD MEDICAL PRACTICE,-2.000697,52.71233
3169.9899999999993,LAUREL HOUSE SURGERY,-1.692825,52.636563
1849.48,HANDSWORTH WOOD MED.CTR.,-1.928196,52.51303299999999
975.8,ROTTON PARK MEDICAL CENTRE,-1.947079,52.482162
1394.7899999999993,LONGFORD PRIMARY CARE CENTRE,-1.48555,52.449933
2448.51,TETTENHALL MEDICAL PRACTICE,-2.159502,52.600723
2901.800000000001,READESMOOR MEDICAL GROUP PRACTICE,-2.216792,53.163762
886.6599999999999,NEWTOWN SURGERY,-2.735705,53.362158
3420.9600000000005,ROPE GREEN MEDICAL CENTRE,-2.453958,53.06655
732.2699999999999,PENNY LANE SURGERY,-2.915004,53.389404
1494.5399999999993,ABINGDON FAMILY HEALTH CARE CENTRE,-2.943503,53.440571
3043.74,WINGATE MEDICAL CENTRE,-2.874647,53.488385
2798.029999999999,AINSDALE MEDICAL CENTRE,-3.03882,53.602403
1193.48,CORNERSTONE SURGERY,-2.457402,53.58815500000001
2143.9,BARLBOROUGH MEDICAL PRACTICE,-1.284471,53.289528
1508.5,VICTORIA PARK HEALTH CENTRE,-1.1192,52.619071
777.9500000000002,THE WRAGBY SURGERY,-0.301337,53.287948
3368.780000000001,SOUTH GRANGE MEDICAL GROUP PRACTICE,-1.166506,54.56995500000001
971.72,QUEEN STREET MEDICAL PRACTICE,-3.589063,54.546567
681.5000000000001,OLD FORGE SURGERY,-2.079758,54.623041
473.47999999999985,EGTON SURGERY,-0.7552379999999999,54.445555
1101.07,VESPER ROAD,-1.615337,53.827318
797.26,GLADSTONE HOUSE SURGERY,-1.307927,52.968816
1085.16,THE PRACTICE-SAYEED,-1.106589,52.63081700000001
2549.77,GLEADLESS MEDICAL CENTRE,-1.451325,53.356551
1580.22,TRAMWAYS AND MIDDLEWOOD MEDICAL CENTRES,-1.515268,53.418958
1505.9299999999994,LANGSTONE WAY SURGERY,-0.210815,51.606981
437.86000000000007,ELMTREES SURGERY,-0.335968,51.550787
4931.14,TULASI MEDICAL CENTRE,0.12448900000000002,51.561005
1429.2900000000006,THE MILLER PRACTICE,-0.092165,51.551419
2226.2000000000007,WARRIOR SQUARE SURGERY,0.562007,50.852963
1591.7700000000002,SNODLAND MEDICAL PRACTICE,0.441488,51.326053
2247.6000000000013,SUTTON VALENCE GROUP PRACTICE,0.59403,51.211195
1248.7900000000004,LEITH HILL PRACTICE,-0.322969,51.150452
3609.1499999999987,THE GROVES MEDICAL CENTRE,-0.26224,51.410048
1292.0799999999995,THE MARINE & OAKRIDGE PARTNERSHIP,-1.806532,50.722838
311.9999999999999,MALTHOUSE MEADOWS SURGERY,-2.568038,50.668698
1639.8500000000006,THE STAUNTON SURGERY,-0.978019,50.851067
2197.48,PORT ISAAC SURGERY,-4.824594,50.589808
1049.54,THE CORINTHIAN SURGERY,-2.0815,51.906706
2658.390000000001,ST JOHNS HOUSE SURGERY,-2.25911,52.18874
995.1399999999999,CASTLEFIELDS,-2.129518,52.801013
727.61,ADDERLEY GREEN SURGERY,-2.135511,52.991714
967.9599999999998,HARBURY SURGERY,-1.458027,52.236759
681.3399999999998,DR BILAS,-2.063063,52.612824
119.23,HOSP.OF THE GOOD SHEPHERD,-2.901692,53.242544
3429.030000000001,BLUNDELLSANDS SURGERY,-3.041273,53.484452
2364.49,QUEEN SQUARE MEDICAL PRACTICE,-2.800994,54.046219
324.38,DILL HALL SURGERY,-2.390844,53.754996
1870.12,WEST TIMPERLEY MEDICAL CENTRE,-2.353117,53.402699
2190.55,MARUS BRIDGE PRACTICE,-2.643772,53.529393
456.09,SUMMERLEE MEDICAL CENTRE,-0.652145,52.337022
67.99,HEALTH E1,-0.07152500000000002,51.518304
1097.9300000000003,SLAG LANE MC,-2.575634,53.47856899999999
611.9999999999999,THE GRANGE MEDICAL CENTRE,-0.262039,52.57839
67.52,CAXTON HOUSE SURGERY,-1.382415,53.575347
790.29,OUT OF HOURS CENTRE,-1.842798,54.869081
69.68,ALEX CENTRE UNREGISTERED WIC,-0.369696,51.568372
646.0500000000002,WESTCOTES MEDICAL CENTRE,-1.153587,52.63133199999999
164.50000000000003,PRIMARY HEALTHCARE DARLINGTON,-1.561958,54.528141
525.81,WEST MERTON ACCESS HUB,-0.210281,51.409967
80.0,SANDWELL HEALTH PARTNERSHIP,-2.011259,52.536236
692.2399999999999,DERBY CITY SOUTH HEALTHCARE LTD,-1.531656,52.891817
2.35,SAFECARE NETWORK,-0.647232,53.568261
675.9300000000002,REDGATE MEDICAL CENTRE,-2.987659,51.126385
1822.85,GREAT WITLEY SURGERY,-2.361004,52.291152
2414.8,MADELEY PRACTICE,-2.345126,52.999856
2253.96,GREEN RIDGE SURGERY,-1.8710349999999998,52.428433
1299.19,RIVER BROOK MEDICAL CENTRE,-1.913809,52.43303
1377.32,BUNBURY MEDICAL PRACTICE,-2.649377,53.116827
1274.99,MURDISHAW,-2.662128,53.323997
804.0899999999997,ROCK COURT SURGERY,-2.916187,53.411597
1821.8900000000006,POPLAR HOUSE SURGERY,-3.03076,53.754721
2578.3100000000004,QUEENSWAY MEDICAL CENTRE,-2.995384,53.846569
3174.7100000000014,CASTLETON HEALTH CENTRE,-2.18229,53.597034
1449.3,HAVEN HEALTH,1.327039,51.96536
1182.9799999999998,DR KK CHAN & PARTNERS,-2.489022,53.524185
101.96999999999998,DANEHOUSE MEDICAL PRACTICE,-2.238948,53.791326
1303.77,SWANSWELL MEDICAL CENTRE,-1.816529,52.432515
393.05000000000007,DR MALIK - KENT ELMS HC,0.664114,51.563831
609.8899999999998,CITY ROAD MEDICAL CENTRE,-0.091116,51.527895
1297.0099999999998,SALFORD GP OUT OF HOURS,-2.323424,53.487545
106.94,LEICESTER CITY ASSIST PRACTICE,-1.136115,52.637338
1352.38,BOTOLPH BRIDGE COMMUNITY HEALTH CENTRE,-0.261557,52.562595
543.17,SHORTSTOWN MEDICAL CENTRE,-0.432463,52.110853
3784.469999999999,MK URGENT CARE SERVICES OOH,-0.7357599999999997,52.026384
243.48999999999995,NOTTINGHAM CITYCARE,-1.155769,52.951832
2.48,EPUT PODIATRY,0.12393,51.704295
84.16000000000003,ASHTON PCC SEVEN DAY ACCESS OOH,-2.099981,53.485827
7.01,RESPIRATORY SERVICE STOKE AND NORTH,-2.109085,52.810605
486.73,LONG EATON ON DAY SERVICE,-1.272531,52.901553
1352.82,VC SKELMERSDALE UCC,-2.773401,53.549935
181.11,SOUTH CHESHIRE & VALE ROYAL PCAH,-2.531272,53.1909
4471.879999999999,THE HAWTHORNS SURGERY,-1.825965,52.538746
2008.23,PARK HOUSE MEDICAL CENTRE,-2.805295,53.42670699999999
1331.7599999999998,SOUTH KING STREET MEDICAL CENTRE,-3.047855,53.816775
1057.6299999999997,DR A CALOW'S PRACTICE,-2.503837,53.742584
1480.7599999999998,GUTTERIDGE MEDICAL CENTRE,-2.691248,53.769881
1722.5100000000002,ST MARY'S MEDICAL CENTRE,-2.108554,53.543625
3571.909999999999,CHEADLE MEDICAL PRACTICE,-2.213539,53.393745
1339.9299999999996,GREEN STREET GREEN MED CT,0.089996,51.354366
641.5600000000002,3/ST ANDREWS MEDICAL CENTRE,-2.339619,53.484875
1046.7,HORIZON HEALTH CENTRE,-2.965121,51.331294
113.12,ANN MARIE HOWES CENTRE,-1.7785380000000002,52.464805
3.54,EAR NOSE AND THROAT CLINIC,-1.597685,54.851721
756.12,BLACKFRIARS,-2.254244,53.484135
3.62,FIRST COMMUNITY HEALTH & CARE,-0.170767,51.235608
114.28,BEDSER HUB,-0.556304,51.315132
73.07,HARROW RAPID RESPONSE SERVICE,-0.294546,51.596988
4.57,AIREBOROUGH COMMUNITY CARE,-1.684881,53.866663
592.51,CALDBECK SURGERY,-3.050622,54.749864
1912.62,OXFORD STREET SURGERY,-3.5505760000000004,54.64373
137.24,WRAYSDALE HOUSE SURGERY,-3.076077,54.367247
5620.409999999997,SAVILLE MEDICAL GROUP,-1.609598,54.976095
501.08,COOK BF,-0.357512,53.780969
804.5799999999998,PEELER HOUSE SURGERY,-0.438756,53.72252
1469.4199999999996,DR INGRAM & PTRS,-1.526892,54.136451
4873.34,LINGWELL CROFT SURGERY,-1.535053,53.749986
1593.7699999999998,HOUNSFIELD SURGERY,-0.811033,53.183702
1243.76,LENSFIELD MEDICAL PRACTICE,0.124449,52.198365
2385.2599999999993,CEDAR BROOK PRACTICE,-0.41413199999999994,51.534092
34.7,THE ROYAL MEWS SURGERY,-0.145223,51.498764
682.5900000000003,ROSE VILLA SURGERY,0.506616,51.566232
2317.15,ADELAIDE MEDICAL CENTRE,-0.161257,51.543548
918.95,DR DHITAL PRACTICE,-0.003074,51.587786
570.78,HOLLINGTON SURGERY,0.872487,51.151423
3064.19,WOODLANDS HEALTH CENTRE,0.38485,51.18077
167.39,NORHEADS LANE SURGERY,0.026739,51.314542
730.74,HARTLAND WAY SURGERY,-0.045782,51.374372
1309.59,BOYATT WOOD SURGERY,-1.36001,50.977856
1243.13,GREEN PRACTICE,-0.371755,51.468263
1131.3900000000006,THE ABBOTSBURY PRACTICE,-0.397406,51.579266
5243.43,NUFFIELD HOUSE HEALTH CENTRE,0.112828,51.774439
1901.7700000000007,MARTINS OAK SURGERY,0.483675,50.91716
1917.25,THE GLEBE FAMILY PRACTICE,0.544473,51.383164
1328.3199999999995,MALLING HEALTH BLUE SUITE,0.609995,51.363412
1649.05,KNOLL MEDICAL PRACTICE,0.101068,51.375411
459.0,CLIFTON RISE FAMILY PRACTICE,-0.03143300000000001,51.476334
744.8899999999999,BLACKFRIARS MEDICAL PRACTICE,-0.105775,51.505364
2636.8899999999994,HASLEMERE HEALTH CENTRE,-0.707586,51.092107
3476.28,FARNHAM DENE MEDICAL PRACTICE,-0.777405,51.200549
1275.0700000000004,THE DORCHESTER RD SURGERY,-2.457512,50.625193
448.75,CRONDALL NEW SURGERY,-0.858386,51.237211
1229.7700000000004,ST.JAMES SURGERY,-1.989956,51.352926
605.68,CORDWALLIS ROAD SURGERY,-0.7240259999999998,51.528097
2627.92,BOTLEY MEDICAL CENTRE,-1.299442,51.753753
1007.63,ST. MARY'S SURGERY,-2.479869,51.326082
1377.5,QUEEN'S MEDICAL CENTRE,-4.057196,51.080161
4306.490000000002,BRUNEL MEDICAL PRACTICE,-3.516948,50.479349
1365.6,EXMOOR MEDICAL CENTRE,-3.544825,51.038507
831.4900000000001,CHADDESLEY SURGERY,-2.158038,52.361961
3693.0400000000013,THE MANOR PRACTICE,-1.8236169999999998,52.55816
714.7299999999997,CHARLES ROAD SURGERY,-1.850621,52.4722
2110.7500000000005,DUNCAN STREET PRIMARY CARE PARTNERSHIP,-2.126602,52.57346999999999
1733.7000000000005,DR JUDE'S PRACTICE - RIVERSIDE,-2.943016,53.398876
934.62,WESTOVER SURGERY,-5.07501,50.148927
274.27000000000004,LANGTHORNE SHARMA FAMILY PRACTICE,0.0021,51.555415
538.6500000000001,THE MANOR PARK PRACTICE,0.057339,51.55393
1433.6699999999996,WEST MEADS SURGERY,-0.701481,50.788299
706.1499999999999,TRENTHAM MEWS MEDICAL CENTRE,-2.189898,52.970452
353.93999999999994,WILLESDEN GREEN SURGERY,-0.216091,51.553773
3.26,NATIONAL SOCIETY FOR EPILEPSY,-0.551146,51.62127
859.93,THE SUMMITT PRACTICE,0.04536,51.539588
2383.2500000000005,SELDOC HEALTHCARE,-0.283378,51.412517
157.97000000000003,PARKFIELD (H) MINOR EMERGENCY,-3.00005,53.363076
216.98,PRUH URGENT CARE CENTRE,0.059146,51.366243
216.25000000000003,CANNOCK MINOR INJURIES UNIT,-2.030614,52.693241
561.71,PBORO WEEKEND HOURS GP PILOT,-0.279386,52.583921
670.7099999999998,WIDNES GP EXTRA SERVICE,-2.735705,53.362158
16.8,MALLING CLUSTER,0.277462,51.194717
1414.24,DR THORNILEY-WALKER & PARTNERS,-1.460703,54.949762
1400.6700000000005,DR U AKBAR,-1.777945,53.803569
1925.23,BROOKROYD HOUSE,-1.67818,53.707224
670.93,AIREBOROUGH FAMILY PRACTICE,-1.684881,53.866663
2649.65,BUSHLOE SURGERY,-1.116921,52.583283
2004.19,THE BURBAGE SURGERY,-1.361645,52.53009599999999
482.37,PASLEY ROAD HEALTH CENTRE (TK KHONG),-1.146741,52.591287
4321.1100000000015,NETTLEHAM MEDICAL PRACTICE,-0.476253,53.262865
481.35,HAROLD STREET MEDICAL CENTRE,-1.492871,53.393121
984.71,UNIVERSITY HEALTH SERVICE HEALTH CENTRE,-1.482709,53.380323
1080.1699999999996,LEISTON SURGERY,1.575953,52.207708
1190.4599999999996,HEATHFIELDE MEDICAL CENTRE,-0.179797,51.585238
1224.81,BRENTFIELD MEDICAL CENTRE,-0.260251,51.550588
1376.85,DR NAVIN KUMAR,0.70187,51.544989
505.13000000000005,RUSTON STREET CLINIC,-0.027306,51.536264
1144.56,SCHOOL HILL MEDICAL PRACTICE,0.012064,50.873469
2853.38,MOTE,0.545625,51.246876
2547.8499999999995,SHEPPERTON MEDICAL PRACTICE,-0.453153,51.396402
2217.880000000001,GRAYSHOTT SURGERY,-0.745626,51.110093
3099.1899999999987,THE MANOR PRACTICE,-0.234983,50.835138
1136.9900000000002,HAMPTON HILL MEDICAL CENTRE,-0.354892,51.427508
239.98,CLAPHAM JUNCTION MEDICAL PRACTICE,-0.173908,51.465969
594.6099999999999,OLD SCHOOL HOUSE SURGERY,-1.604408,51.376032
1800.88,WINSCOMBE SURGERY,-2.830537,51.315196
5942.029999999999,PEMBROKE MEDICAL GROUP,-3.560246,50.445527
247.92999999999995,ST PETER'S URGENT TREATMENT CENTRE,-0.52706,51.377832
723.0400000000003,PRIORY ROAD SURGERY,0.589253,50.860828
3129.52,SWANSCOMBE HEALTH CENTRE,0.28731,51.424657
702.25,ELTHAM PARK SURGERY,0.061023,51.4547
1535.0099999999993,JAMES O'RIORDAN MEDICAL CENTRE,-0.212686,51.385157
4245.420000000001,WISTARIA & MILFORD SURGERIES,-1.547285,50.760041
1084.2199999999998,27 BEAUMONT STREET,-1.26216,51.755081
446.53,WIDCOMBE SURGERY,-2.354321,51.376371
111.25,ST LUKES MEDICAL CENTRE,-3.517636,50.394313
1340.0599999999995,FRITHWOOD SURGERY,-2.162379,51.729707
2640.08,HILLVIEW MEDICAL CENTRE,-1.951153,52.305568
1559.2500000000007,GORDON STREET SURGERY,-1.644613,52.810998
1442.66,LONGTON MEDICAL CENTRE,-2.770123,53.417492
697.76,PRIMROSE SURGERY,-2.357311,53.456159
1512.2699999999998,DR AHMAD & PTNRS,-2.595925,53.522279
2273.79,THE OLD DAIRY HEALTH CENTRE,-0.091201,51.436586
1367.4599999999996,THE ISLAND SURGERY,0.591014,51.520226
1319.54,JS MEDICAL PRACTICE,-0.078706,51.589103
2920.84,GATEWAY PRIMARY CARE,-1.352431,53.429997
583.46,BRADFORD DERMATOLOGY SERVICE,-1.781103,53.830481
365.86,ESSINGTON MEDICAL CENTRE,-2.056915,52.63194
753.9199999999998,SUMMERFIELD GP SURG & URGENT CARE CENTRE,-1.937353,52.487686
4.87,HAVERING CCG,0.179796,51.579247
1304.41,THE WILLASTON SURGERY,-3.011643,53.292908
79.25,SOUTH KENT GROUP,1.118942,51.075872
35.55999999999999,EPUT TISSUE VIABILITY,0.12393,51.704295
3.52,SUTTON COMMUNITY SERVICES,-0.183642,51.380313
4.89,WHITTINGTON HEALTH (ISLINGTON),-0.139066,51.566482
25.81,ST MICHAELS HOSPICE,-1.518091,53.977242
2682.98,URGENT CARE CENTRE NORTHWICK PARK HOSP,-0.322037,51.575407
6.27,QVM HOSPITAL,-0.222867,51.827957
48.55,SLEAFORD EXTENDED ACCESS K2,-0.406507,52.997784
3472.22,STONELEIGH SURGERY,-2.770704,54.227277
546.82,BROWNEY HOUSE SURGERY,-1.670679,54.800313
2146.6700000000005,TOWNHEAD SURGERY,-2.276903,54.070534
730.7399999999999,HORNE STREET SURGERY,-1.871717,53.725678
1753.28,HONLEY SURGERY,-1.791936,53.602386
2511.9499999999994,GOSBERTON MEDICAL CENTRE,-0.159263,52.869915
2328.0000000000005,THE MANOR SURGERY,-1.216371,52.925036
660.8499999999998,PROSPECT MEDICAL PRACTICE,1.285656,52.643921
4510.33,THE GARDEN CITY PRACTICE,-0.209287,51.797151
1498.56,MAPESBURY MEDICAL GROUP,-0.209473,51.551496
1958.7499999999993,RIVERMEAD GATE MED.CTR.,0.472887,51.740849
1333.41,ROMAN WAY MEDICAL CENTRE,-0.10550599999999999,51.544561
813.2800000000002,CHOLMLEY GARDENS SURGERY,-0.195423,51.552261
1341.27,ESSEX LODGE,0.026685000000000004,51.527915
1447.7400000000002,GROVELANDS MEDICAL CENTRE,-0.112028,51.620685
2533.7399999999993,HIGH GLADES MEDICAL CENTRE,0.551301,50.878354
1907.17,ST JAMES' SURGERY,1.315702,51.128516
984.0200000000002,OXSHOTT MEDICAL PRACTICE,-0.360843,51.333099
2349.479999999999,BRIDGE MEDICAL CENTRE,-0.166439,51.117364
1375.65,LAVENDER HILL GROUP PRACTICE,-0.15683,51.466044
2910.910000000001,THE CRANBORNE PRACTICE,-1.9192779999999998,50.919773
3060.38,ST.MARY'S SURGERY,-1.397475,50.905746
1656.8200000000006,NEW FOREST MEDICAL GROUP,-1.576665,50.81471
2565.439999999999,SWALLOWFIELD MEDICAL PRACTICE,-0.958531,51.378289
2506.09,CHERRYMEAD SURGERY,-0.700228,51.608271
2685.61,HORFIELD HC,-2.576275,51.489998
723.3300000000002,CARNON DOWNS SURGERY,-5.091905,50.22345
782.5299999999999,WHITE HOUSE SURGERY,-1.705957,51.983554
1275.6300000000006,SPRINGMEAD SURGERY  CHARD,-2.967972,50.869562
1631.9100000000005,CHURCH STRETTON MEDICAL CENTRE,-2.806169,52.537286
1462.4300000000005,DR KS UPTON'S PRACTICE,-1.986582,52.988358
2624.28,KINGSWAY MEDICAL CENTRE,-1.289009,54.606459
2003.3000000000006,WARWICK ROAD SURGERY,-2.928541,54.893858
1796.7299999999998,PRUDHOE MEDICAL GROUP,-1.853822,54.96186
1987.15,TALBOT MEDICAL CENTRE,-1.440661,54.973054
1138.9600000000005,NOVA SCOTIA MEDICAL CNTR,-1.373051,53.747561
1428.9499999999996,ARTHUR MEDICAL CENTRE,-1.422636,53.001503
1827.67,WOODVILLE SURGERY,-1.5365030000000002,52.770685
2727.349999999999,NEWBOLD VERDON MED.PRACT.,-1.34334,52.634612
2851.1000000000013,PORTLAND MEDICAL PRACTICE,-0.539074,53.22371999999999
2654.9600000000005,TORKARD HILL MEDICAL CTRE,-1.207389,53.029901
1069.5,BAKERSFIELD MEDICAL CENTRE,-1.104957,52.960219
1464.8900000000006,HIGH STREET PRACTICE,-1.458313,53.597926
1935.69,VILLAGE SURGERY,-1.251934,53.39421
191.24,ALLENBY CLINIC,-0.376261,51.531514
7496.830000000003,DR PUZEY DR KOTHARI AND DR NANDA,0.705992,51.582107
1496.2800000000002,DR BAKER & PARTNERS,0.548167,51.570733
549.11,INGREBOURNE MEDICAL CENTRE,0.210579,51.600308
1125.7799999999997,THE ORDNANCE UNITY CENTRE FOR HEALTH,-0.039073,51.672653
919.0199999999996,CROUCH HALL ROAD SURGERY,-0.127301,51.579178
3043.24,CENTRAL SURGERY,-0.299929,51.390825
2381.04,ST PAUL'S SURGERY,-1.32139,51.065963
1151.1800000000005,SHEET STREET SURGERY,-0.605507,51.479648
3009.92,HEDENA HEALTH,-1.204547,51.76203
1592.5100000000007,BLOXHAM SURGERY,-1.372977,52.018108
1483.7099999999994,KINGTON MEDICAL PRACTICE,-3.022556,52.199361
5160.780000000002,SEVERN FIELDS MEDICAL PRACTICE,-2.721619,52.728047
1063.95,SELLY OAK HEALTH CENTRE,-1.939144,52.438251
3621.2300000000014,PEELHOUSE MEDICAL PLAZA,-2.72256,53.372135
3292.1800000000007,CUMBERLAND HOUSE SURGERY,-2.990437,53.638743
1908.55,LANE ENDS SURGERY,-2.727014,53.770173
396.57,HOLLINS GROVE SURGERY,-2.477472,53.705346
1702.1800000000005,WHITTAKER LANE MED CENTRE,-2.268645,53.528488
1437.49,WEST GORTON MEDICAL PRACTICE,-2.203859,53.46720500000001
1284.0800000000004,OLDHAM FAMILY PRACTICE,-2.116945,53.543824
927.96,SHAY LANE MEDICAL CENTRE (PATEL),-2.31556,53.372189
116.54,AT HOME SERVICE,-0.10603,51.438104
29.33,NMP CASTLE POINT AND ROCHFORD CCG,0.702782,51.583955
10.88,NON MEDICAL PRESCRIBERS,-0.8019889999999998,51.797983
1389.84,GP HUBS - GP HEALTH PARTNERS LTD,-0.266331,51.334184
0.63,HEALTH HARMONIE GYNAECOLOGY,-1.922375,52.471325
49.73,SALFORD ACUTE HOME VISITING SERVICE,-2.33763,53.484827
82.38000000000002,NORTH COTSWOLDS IMPROVED ACCESS,-2.239997,51.862659
31.97,EXTENDED ACCESS PCD TICKHILL SURGERY,-1.110773,53.43304499999999
4653.13,BIRTLEY MEDICAL GROUP,-1.576441,54.891881
3199.320000000001,THE LEEDS ROAD PRACTICE,-1.535156,53.980466
1381.5599999999995,APOLLO COURT MEDICAL CENTRE,-1.524816,53.542364
2137.27,THE LAKESIDE PRACTICE,-1.148909,53.61549599999999
1451.4299999999996,FOXHILL MEDICAL CENTRE,-1.501327,53.429911
763.44,WESTWOOD CLINIC,-0.269054,52.591395
1413.3199999999995,THEOBALD MEDICAL CENTRE,-0.285584,51.661381
1159.8600000000004,SUDBURY & ALPERTON MEDICAL CENTRE,-0.298046,51.536916
170.28,THE SURGERY,-0.184519,51.497627
3371.099999999999,CHURCHILL MEDICAL CENTRE,-0.018466,51.618226
2180.830000000001,THE CHESTERFIELD DRIVE PRACTICE,1.132012,52.07623
1846.01,COMBS FORD SURGERY,0.995999,52.180181
2808.5199999999995,CAULDWELL MEDICAL CENTRE,-0.472495,52.128265
1879.6000000000006,PRIORY MEDICAL CENTRE,-0.50567,52.167181
1708.7800000000007,HILLVIEW SURGERY,-0.318331,51.540536
349.74999999999994,DR HAFFIZ,-0.119262,51.539321
723.49,SANDRINGHAM PRACTICE,-0.067207,51.547773
303.81999999999994,ESK ROAD MEDICAL CENTRE,0.024266,51.522454
1100.88,MONTPELIER SURGERY,-0.149079,50.827148
1324.93,THE AVENUE SURGERY,-0.113425,50.844357
3652.93,REACH HEALTHCARE,0.52408,51.337756
527.27,SELLINDGE SURGERY,1.002785,51.103536
2526.4999999999995,LAKESIDE MEDICAL,0.122454,51.496518
1389.47,CAMBERLEY HEALTH CENTRE,-0.754069,51.324435
2498.130000000001,HARBOUR VIEW HEALTHCARE,-0.27437,50.833817
1359.16,NEW POND ROW SURGERY,-0.322292,50.824911
700.5300000000003,FLOOD (ESSEX HOUSE),-0.247469,51.472541
3000.5800000000013,WILSON PRACTICE,-0.966958,51.153736
890.1900000000002,WOLLASTON AND BOZEAT SURGERIES,-0.674311,52.252471
3732.68,LEAP VALLEY MEDICAL CENTRE,-2.487852,51.496541
1592.5600000000006,KINGSTEIGNTON MEDICAL PRACTICE,-3.597395,50.54898
1930.91,ST.LEVAN SURGERY,-4.177328,50.383921
4208.7,STIRCHLEY MEDICAL PRACTICE,-2.433777,52.655188
1921.99,LUDLOW - PORTCULLIS,-2.715958,52.368905
1592.4999999999993,BARTON,-1.725223,52.761751
897.5100000000001,RED LION SURGERY,-2.030614,52.693241
135.09,DADHANIA SURGERY,-1.491047,52.405815
275.2199999999999,ST JAMES MEDICAL PRACTICE1,-2.097323,52.514234
840.6499999999999,HAWTHORNS MEDICAL CENTRE,-1.967268,52.501507
331.81999999999994,BROWNLOW AT MARYBONE,-2.987806,53.411269
848.48,MORETON MEDICAL CENTRE,-3.110005,53.39886
843.85,LITTLE LEVER HEALTH CENTRE 1,-2.370624,53.55981800000001
1092.8200000000004,WOODBANK SURGERY,-2.308802,53.60507
1146.71,DRS HANIF &  BANNURU,-2.184157,53.484308
697.62,4/LOWER BROUGHTON MEDICAL PRACTICE,-2.258808,53.49359
2833.589999999999,BRINNINGTON SURGERY,-2.132367,53.427651
2719.2699999999995,CONWAY ROAD MEDICAL PRACTICE,-2.303561,53.417873
744.02,DESFORD MEDICAL CENTRE,-1.296116,52.627473
337.86,DR VIJE'S SURGERY,-1.650877,52.617569
755.26,HIGHFIELD HEALTH,-1.395746,50.932777
23.55,ALICE HOUSE HOSPICE,-1.224421,54.704049
107.61,DR R SHARMA'S PRACTICE,-0.096482,51.499125
365.76,HALF PENNY STEPS HEALTH CENTRE,-0.206044,51.526213
4253.250000000001,NORTON MEDICAL CENTRE,-1.308737,54.588737
9260.119999999992,CARLISLE HEALTHCARE,-2.930647,54.893714
368.21,PEEL PARK SURGERY,-1.731903,53.806791
1687.01,MAYBUSH MEDICAL CENTRE,-1.489249,53.670273
2838.089999999999,THE GOLDEN BROOK PRACTICE,-1.272531,52.901553
1721.36,IBSTOCK HOUSE SURGERY,-1.401818,52.684869
1701.4699999999998,RUSKINGTON SURGERY,-0.400977,53.048226
3575.4099999999994,BARNBY GATE SURGERY,-0.8049699999999999,53.074931
1344.0400000000004,DUKE MEDICAL CENTRE,-1.455657,53.378576
1006.9400000000003,FALKLAND HOUSE SURGERY,-1.514423,53.359728
2971.49,PRIORY FIELDS SURGERY,-0.179856,52.332272
1147.11,BOURN SURGERY,-0.063404,52.193155
1190.65,COACHMANS MEDICAL PRACTICE,-0.203875,51.096335
2820.7000000000007,MILTON KEYNES VILLAGE SURG,-0.697865,52.043891
1404.9400000000005,DRS DE ROSA & WILLIAMS,-2.167857,52.569265
11.86,CHILD AND FAMILY SERVICES,-1.5080049999999998,52.413401
5.93,GPSI PALLIATIVE CARE,-3.007792,53.502483
89.38000000000002,COMMUNITY PAEDIATRICIANS-SOUTHWARK,-0.081097,51.474092
534.66,INTERMEDIATE CARE-GP SERVICE,-2.130253,53.548188
295.6400000000001,BASSETLAW HEALTH PARTNERSHIP,-0.950634,53.325451
81.37,DMC COMMUNITY DERMATOLOGY SFSS,-2.98492,53.449136
11.2,NEWMEDICA GLOUCESTERSHIRE,-2.225797,51.865969
1987.1100000000006,FIELDHOUSE MEDICAL GROUP,-0.112579,53.564436
3433.75,HEREWARD MEDICAL CENTRE,-0.380913,52.768626
1394.39,SAXON CROSS SURGERY,-1.273642,52.931099
2981.8699999999994,PENISTONE GROUP PMS PRACTICE,-1.630732,53.523565
1495.9799999999998,THE NAYAR PRACTICE,-1.1933790000000002,53.480824
779.7999999999998,DR RAOLU'S PRACTICE,-1.204348,53.423549
1863.3400000000006,THE PARK SURGERY,1.7292759999999998,52.606218
1466.6800000000005,EAST BARNET HEALTH CENTRE,-0.166424,51.646339
674.7300000000004,LANFRANC MEDICAL CENTRE,-0.332746,51.561586
442.92999999999995,THE TUDOR HOUSE MEDICAL CENTRE,-0.266689,51.564495
1613.7099999999996,LABURNUM HEALTH CENTRE,0.151208,51.560662
96.03,NEW NORTH HEALTH CENTRE,-0.091592,51.537534
2064.18,HOVE MEDICAL CENTRE,-0.19539,50.845024
1488.06,PRIMECARE PMS (SOUTH STREET),-0.012448,51.476194
855.0399999999998,THE GARDENS SURGERY,-0.066803,51.46061
1621.15,FORT HOUSE SURGERY,-0.412578,51.37881
3462.820000000001,OXTED HEALTH CENTRE,9.9e-05,51.257686
2820.95,THE WRYTHE GREEN SURGERY,-0.171312,51.371749
1281.1799999999996,THE LAWN MEDICAL CENTRE,-1.7619029999999998,51.547821
1813.1100000000006,NORDEN HOUSE SURGERY,-0.882727,51.944924
445.87,ST MARY'S HEALTH CENTRE,-6.308668,49.911605
2748.320000000001,TOPSHAM SURGERY,-3.462097,50.683825
3183.28,BAMPTON SURGERY,-1.55034,51.729032
2388.2699999999995,WOODLANDS MEDICAL CENTRE,-1.258898,51.603637
4201.4000000000015,PETROC GROUP PRACTICE,-4.943163,50.430739
2870.28,TAVYSIDE HEALTH CENTRE,-4.145976,50.545824
3344.67,EAST QUAY MEDICAL CENTRE,-3.000471,51.135669
887.58,BREDON HILL SURGERY,-2.104857,52.030166
2285.4200000000005,HAGLEY SURGERY,-2.144103,52.420783
616.3900000000001,KNOCKIN MEDICAL CENTRE,-2.993042,52.79343
126.91,YARDLEY MEDICAL CENTRE,-1.828397,52.463189
2516.100000000001,PHOENIX FAMILY CARE,-1.51543,52.390005
5095.66,ASHTON MEDICAL GROUP,-2.089184,53.489361
4643.4000000000015,BRADSHAW MEDICAL CENTRE,-2.688594,53.537889
244.99000000000004,SAVILE TOWN MEDICAL CTR.,-1.625804,53.68222900000001
422.7899999999999,LIMEFIELD ROAD MEDICAL PRACTICE,-2.26047,53.506995
994.37,THE ORCHARD SURGERY,-0.324352,50.828062
76.25,THE MATTHEWMAN PRACTICE,-0.149281,51.545823
67.04,COMMUNITY PAEDIATRICIANS,-2.214271,53.470746
45.18,RICHARDSON COMMUNITY HOSPITAL,-1.9161529999999998,54.545708
126.62999999999998,LAKESIDE SURGERY,-1.310932,53.52812
126.02,BSUH DERMATOLOGY SERVICE,-0.115477,50.83046
433.35,DMC COMMUNITY DERMATOLOGY RBWF,-2.059728,52.337612
979.95,THE DANBY PRACTICE,-0.907874,54.468317
1044.4,VALLEY VIEW SURGERY,-1.731903,53.806791
3200.6999999999994,THE NORTH LEEDS MEDICAL PRACTICE,-1.534037,53.843332
2611.9,IVY GROVE SURGERY,-1.402822,53.042198
683.76,FRIAR GATE SURGERY,-1.485624,52.924816
1788.9399999999996,NAVENBY CLIFF VILLAGES SURGERY,-0.526297,53.103518
2366.69,THE LINDEN MEDICAL GROUP,-1.273642,52.931099
2017.07,ASKERN MEDICAL PRACTICE,-1.148909,53.61549599999999
2163.9499999999994,BUTE HOUSE MEDICAL CENTRE,-0.423966,51.880162
412.26,LICHFIELD GROVE SURGERY,-0.19329,51.599604
1738.6000000000006,GURU NANAK MEDICAL CENTRE,-0.387151,51.511774
1.63,WESTMINSTER SCHOOL,-0.128107,51.498762
392.2099999999999,SOUTH GREEN SURGERY,0.430504,51.613411
936.54,RICHMOND ROAD MEDICAL CENTRE,-0.065532,51.543051
2056.69,THE LAWSON PRACTICE,-0.079465,51.533775
1900.66,LEYTON HEALTHCARE 4TH FLOOR,-0.013313,51.559894
401.72,FRANCIS ROAD MEDICAL CENTRE,-0.003831,51.561975
3080.4699999999993,OLD SCHOOL SURGERY,0.100722,50.772062
801.2299999999997,UNIVERSITY MEDICAL CENTRE,1.062127,51.296198
810.6499999999997,ST STEPHENS HOUSE SURGERY,-0.305726,51.31772
794.2699999999999,PARK VIEW HEALTH PARTNERSHIP,-0.137252,50.961825
2710.27,LAMBTON ROAD MEDICAL PRACTICE,-0.231169,51.411219
2109.72,LORDSHILL HEALTH CENTRE,-1.448733,50.940999
2432.6599999999985,BYFIELD MEDICAL CENTRE,-1.242893,52.174071
371.95,CAMBRIDGE HOUSE,-2.144827,53.024433
2159.330000000001,ARBURY MEDICAL CENTRE,-1.497961,52.51662
650.79,CHURCH LANE - KHAN,-1.793962,52.487056
1643.74,SOHO ROAD PRIMARY CARE CENTRE,-1.934945,52.503094
274.85,PARK HOUSE SURGERY,-1.942965,52.54446
883.5799999999998,BEECHDALE CENTRE,-2.007339,52.600867
2058.02,HOLES LANE MEDICAL CENTRE,-2.545107,53.399828
1891.87,LACHE HEALTH CENTRE,-2.914326,53.173615
1187.1600000000005,DINGLE PARK PRACTICE,-2.972885,53.38633
2707.0200000000004,RAINBOW MEDICAL CENTRE,-2.705931,53.435389
746.3299999999998,BEECHWOOD SURGERY,-3.009057,53.871568
2089.7000000000007,HEYWOOD HEALTH,-2.239335,53.58736999999999
1606.66,THE GILL MEDICAL PRACTICE,-2.398384,53.524288
913.1500000000002,GLOUCESTER HOUSE MEDICAL CENTRE,-2.352599,53.447337
665.7300000000001,PAK HEALTH CENTRE,-1.856091,52.490749
1435.1900000000005,WALFORD STREET  TIVIDALE,-2.059752,52.513192
2051.61,LITTLE LONDON SURGERY,-1.979284,52.574984
1352.66,STRETTON MEDICAL CENTRE,-2.577017,53.339489
178.7,THE DALE MEDICAL PRACTICE,-2.154239,53.611617
840.49,WALNUT ST MED CTR (LEICESTER MED GROUP),-1.138855,52.624601
670.3899999999999,FIR TREE,-2.878691,53.44930600000001
354.51,CAMBRIDGE ACCESS SURGERY,0.138701,52.20875
1668.4399999999996,NELPCT OUT OF HOURS SERVICE,-0.096229,53.544858
81.03999999999998,ANGEL LODGE,-1.50929,53.683308
862.75,ETTINGSHALL MEDICAL CENTRE,-2.092879,52.570364
1473.7700000000002,WALK IN CENTRE (WIC),-1.784934,51.563016
12.0,NT&H COMM NURSES DN,-1.227837,54.702398
4.97,HP NMP'S NN & E CCG,-1.143101,53.130244
9.340000000000002,PRIMARY CARE OPTOMETRY,1.14971,51.79169
2.48,WARWICKSHIRE DRUG & ALCOHOL RECOVERY,-1.529997,52.283202
1290.65,RUSHEY MEAD HEALTH CENTRE,-1.103823,52.663187
3297.25,ST ANN'S ROAD SURGERY,-0.08783399999999998,51.581428
2666.439999999999,LEIGH FAMILY PRACTICE,-2.511927,53.493519
515.0899999999999,THE PRACTICE FELTHAM,-0.411086,51.446367
10.6,DAWN CLINIC,-1.7272,51.538528
95.02,THE WESTBOURNE CENTRE,-1.9230029999999998,52.466075
973.62,HENDON WAY SURGERY,-0.241873,51.579182
295.26,NHS FYLDE & WYRE CCG,-2.881037,53.789498
50.66,NT&H COMM MIDWIVES,-1.227837,54.702398
19.22,SPECIALIST NURSE,-1.517573,53.993807
2218.7200000000007,TAURUS HEALTHCARE LTD,-2.71099,52.05708
3.39,MOLESEY COMMUNITY HOSPITAL,-0.372542,51.397531
1030.2999999999997,NC GPA PLUS,-1.152649,52.954624
74.97,THE FLOWERS HUB,-1.438061,53.418053
564.6500000000002,CARTMEL SURGERY,-2.946985,54.199165
6476.779999999998,ALNWICK MEDICAL GROUP,-1.6967470000000002,55.410086
1341.32,NETHERFIELD HOUSE,-1.548435,55.063632
2618.48,PRACTICE 3  MEDICAL CENTRE  BRIDLINGTON,-0.201064,54.084715
1171.2900000000004,THE ALMONDBURY SURGERY,-1.751311,53.631868
404.5,NEWLAND SURGERY,-1.424247,53.695146
4133.34,BEACON MEDICAL PRACTICE,0.331219,53.157472
655.0400000000002,GREENFIELDS MEDICAL CENTRE (YVS RAO),-1.168583,52.966506
2425.810000000001,TREETON MEDICAL CENTRE,-1.354708,53.384994
3072.0299999999993,MEADOWGREEN HEALTH CENTRE,-1.480804,53.326831
6553.260000000001,BOROUGHBURY MEDICAL CENTRE,-0.245486,52.577858
2412.97,THE ROOKERY MEDICAL CENTRE,0.405573,52.245158
14.660000000000002,COMMUNITY MATRONS,-2.095555,52.599722
4.11,VIRGIN CARE (NORTH LINCS),-0.6524,53.592365
1149.04,IC24-THANET CCG OOH,0.891514,51.129106
527.9699999999999,MID CLUSTER IAGPS,-1.9731169999999998,50.721987
22.05,AMBER VALLEY HEALTH,-1.3726,53.082351
15.93,DMC COMMUNITY DERM BRENT,-0.306785,51.549713
642.6099999999999,SJUH GPS IN A+E,-1.520359,53.806869
3425.4999999999986,CRUDDAS PARK SURGERY,-1.630965,54.968173
787.1599999999999,THE CHESTNUTS & HALLGATE SURGERY,-0.403621,53.778985
1831.99,HAWORTH MEDICAL PRACTICE,-1.954883,53.831322
2561.1800000000007,FIELDHEAD SURGERY,-1.854229,53.641358
2614.38,CROFTON AND SHARLSTON MED PRAC,-1.427042,53.656573
4452.1799999999985,SHIRES HEALTHCARE,-1.215692,53.202513
1618.9799999999998,ORCHARD SURGERY,-1.278154,52.836522
1832.42,ST GEORGES MED PRACTICE,-1.132346,52.930754
663.1900000000002,WELBECK SURGERY,-1.147823,52.979645
2219.44,WICKHAM MARKET MEDICAL CENTRE,1.363674,52.151842
1506.6800000000005,TODDINGTON MEDICAL CENTRE,-0.530482,51.945856
997.8899999999999,THE RANDOLPH SURGERY,-0.186852,51.529819
1750.0299999999993,DR YADAVA N PRACTICE,0.334586,51.476703
2569.1900000000005,ST.PAUL'S WAY MEDICAL CTR,-0.024483,51.517862
5564.489999999999,THORNHILLS MEDICAL PRACTICE,0.440958,51.300117
1846.76,OAKLANDS HEALTH CENTRE,1.08253,51.069106
732.9799999999998,HEXTABLE SURGERY,0.182972,51.409182
4219.67,LONGCROFT CLINIC,-0.192332,51.325314
1313.27,THE ROEHAMPTON SURGERY,-0.242431,51.451154
2843.3900000000012,WYKE REGIS & LANEHOUSE MEDICAL PRACTICE,-2.475127,50.594634
610.3399999999998,WHITCHURCH SURGERY,-0.8426209999999998,51.882174
997.16,CRICK MEDICAL PRACTICE,-1.135861,52.343212
2768.840000000001,KINGSWOOD HEALTH CENTRE,-2.499974,51.462895
1312.05,THE VILLAGE SURGERY,-2.219972,53.033945
2505.310000000001,BIDDULPH VALLEY SURGERY,-2.178498,53.116111
314.59,RIVERSIDE SURGERY,-1.699518,52.632337
1734.85,THREE VILLAGES MEDICAL PRACTICE,-2.146398,52.465406
1259.75,STONE CROSS MEDICAL CENTRE,-1.982689,52.545444
3690.0800000000013,STOCKTON HEATH MED.CENTRE,-2.582161,53.37195
2094.39,THE VILLAGE SURGERIES GROUP,-2.771265,53.124246
1578.43,ILEX VIEW MEDICAL PRACTICE,-2.280663,53.70081
1854.27,SHIFA SURGERY,-2.475999,53.757295
2261.7499999999995,CHORLTON FAMILY PRACTICE,-2.279717,53.443773
1441.92,OLDHAM MEDICAL SERVICES,-2.111235,53.52535699999999
1241.27,MELROSE SURGERY,-0.9598620000000002,51.451692
141.66000000000003,DR R KAPUR & PARTNERS,-1.119092,52.631036
1235.16,LEADGATE SURGERY,-1.805988,54.860562
2765.03,ACLE MEDICAL PARTNERSHIP,1.548667,52.640969
996.54,PEEL CROFT,-1.6339549999999998,52.799271
2593.55,MARTONSIDE MEDICAL CENTRE,-1.220329,54.553175
1093.89,ROCKLIFFE COURT SURGERY,-1.544074,54.483444
2292.73,BEDLINGTONSHIRE MED.GROUP,-1.598682,55.1322
1578.64,WESTBOURNE SURGERY,-1.8061,53.650937
1772.84,MIDDLESTOWN,-1.600562,53.650545
424.54,DR WEBB AND PARTNERS,-1.308041,52.968251
2710.75,GOYT VALLEY MEDICAL PRACTICE,-1.983113,53.3305
448.35999999999984,CASTLE STREET MEDICAL CENTRE,-1.293753,53.229627
967.63,SILVERDALE MEDICAL CENTRE,-1.090548,52.672318
2264.8,HOLT MEDICAL PRACTICE,1.116042,52.914476
1931.6700000000005,HOWARD HOUSE SURGERY,1.349626,51.96149
5528.65,PARKBURY HOUSE SURGERY,-0.334063,51.756766
1075.4299999999996,UXENDON CRESCENT SURGERY,-0.292809,51.572063
555.5099999999999,STERNDALE SURGERY,-0.221441,51.498326
816.13,AEGIS MEDICAL CENTRE,0.467525,51.57556
1262.48,AMWELL GROUP PRACTICE,-0.11081700000000001,51.528043
2137.4700000000007,MEOPHAM MEDICAL CENTRE,0.359744,51.368901
1803.54,WESTERHAM PRACTICE,0.070437,51.266465
1818.82,FORGE CLOSE SURGERY,0.016555,51.377137
1889.32,STEYNING HEALTH CENTRE,-0.329972,50.890666
1476.71,LAVANT ROAD SURGERY,-0.781051,50.853385
885.5499999999998,THORNTON & VALLEY PARK SURGERY,-0.120709,51.388871
1462.44,JOHNSON (SHEEN LANE),-0.267239,51.465848
621.62,BEGG PRACTICE,-0.179391,51.459968
978.75,MOORDOWN MEDICAL CENTRE,-1.874485,50.756212
752.0200000000002,LITTLEDOWN SURGERY,-1.833439,50.741638
2031.29,EMMER GREEN SURGERY,-0.972861,51.483584
2312.15,WOLVERTON HEALTH CENTRE,-0.814934,52.054197
5866.589999999997,ST THOMAS MEDICAL GROUP,-3.54518,50.714472
1306.4899999999993,YOXALL,-1.7931740000000003,52.767984
758.76,GREET MEDICAL PRACTICE,-1.857778,52.453195
457.55,PEDMORE MEDICAL PRACTICE,-2.118211,52.457029
3084.390000000001,BOSWORTH MEDICAL CENTRE,-1.7536330000000002,52.480569
3366.9,THE PARK MEDICAL PRACTICE,-2.739045,53.77018
296.9700000000001,CROSSWAYS PRACTICE,-3.023992,53.484655
1015.22,THE OLD DISPENSARY,-1.987226,50.803427
764.3700000000001,STROUD GREEN MEDICAL CENTRE,-0.114328,51.570059
0.81,GPSI ENT SERVICE ROMAN GATE HUNTS,-0.173105,52.317665
1736.1499999999994,CBS OOH,-1.233579,53.134573
560.4,EASTBOURNE  HAILSHAM & SEAFORD OOH,0.891514,51.129106
9.38,INTERMEDIATE CARE (THE PEELE),-2.259671,53.385779
14.37,LCW HOUNSLOW CCG OOH,-0.217218,51.522362
44.71,HERTFORDSHIRE COMMUNITY SEXUAL HEALTH,-0.201186,51.899822
17.670000000000005,DERMATOLOGY-MERTON CCG,-0.210281,51.409967
2478.3699999999994,WEST SOMERSET HEALTHCARE,-3.3186760000000004,51.161419
2426.609999999999,WEM AND PREES MEDICAL PRACTICE,-2.722566,52.859338
793.22,ALL SAINTS SURGERY,-1.644121,52.794285
6228.909999999999,CENTRAL SURGERY,-1.265473,52.371743
2936.3,OMNIA PRACTICE,-1.839082,52.475709
424.8,SCHOOLACRE ROAD SURGERY,-1.785797,52.497659
1900.1,DORRIDGE SURGERY,-1.752074,52.372757
1529.7399999999993,MORETON CROSS GROUP PRACTICE,-3.111975,53.403551
2411.95,WITTON MEDICAL CENTRE,-2.507553,53.740232
376.6,WALMERSLEY ROAD MEDICAL PRACTICE,-2.289525,53.599849
776.6200000000001,WEST COMMON LANE TEACHING PRACTICE,-0.682441,53.57473100000001
192.21000000000004,QUEENS ROAD SURGERY,-1.474524,52.522119
1334.96,BEVAN HEALTHCARE CIC,-1.753352,53.795581
1490.64,RIVERSIDE MEDICAL PRACTICE,-1.315584,54.56887
48.23,MEDICUS HEALTH PARTNERS-ENFIELD ISLAND,-0.016992,51.668586
5.0,WORTLEY BECK CHILDRENS SERVICE,-1.601117,53.782448
175.86,MERSEYCARE NHS TRUST,-2.826417,53.424035
1.49,JOSEPH COWEN HEALTH CARE CENTRE,-1.585714,54.975773
101.93,WARRINGTON CARE HOMES,-2.527537,53.414117
0.79,WHANTS COMM ENT,-0.08430999999999998,51.500087
1755.1600000000005,RISING BROOK,-2.118782,52.787133
174.90000000000003,BLOOMSBURY SURGERY,-1.871892,52.49324300000001
638.9200000000002,ST JAMES MEDICAL PRACTICE2,-2.097323,52.514234
173.72000000000003,KHAN MEDICAL PRACTICE,-2.000799,52.613174
249.63,LINGHOLME HEALTH CENTRE,-2.744752,53.457769
4004.5000000000014,PEEL HOUSE MEDICAL PRACTICE,-2.365995,53.75089200000001
755.23,ASHURST PRIMARY CARE,-2.772723,53.563208
3176.99,RED BANK GROUP PRACTICE,-2.323706,53.560143
1430.5299999999993,MARPLE BRIDGE SURGERY,-2.053323,53.400594
2208.65,GRASMERE SURGERY,-2.511455,53.503236
888.5499999999998,GRAVESEND MEDICAL CENTRE,0.369986,51.443932
2825.0199999999986,PEASE WAY MEDICAL CENTRE,-1.576495,54.618581
476.85999999999984,ELSDON AVENUE SURGERY,-1.525885,55.07062
1515.4200000000005,DR WICKREMESINGHE SSG,-0.123521,51.469491
10115.01,TELDOC,-2.435206,52.672614
3259.3199999999993,HAROLD WOOD WIC,0.225699,51.593184
1.09,HOUNSLOW CCG - HRCH (NMP),-0.326599,51.427449
1355.08,CROSLAND MOOR SURGERY,-1.809637,53.63841
0.79,SW INTEGRATED TEAM WORCESTER,-2.178135,52.192339
54.99999999999999,SOUTH LAKES PRIMARY CARE SERVICES,-2.737133,54.312706
291.66,CONSULTANT LED DERMATOLOGY SERVICE,-1.922375,52.471325
7.050000000000001,CITY & HACKNEY COMMUNITY ENT SERVICE,-0.08430999999999998,51.500087
64.72000000000001,GP EXTENDED ACCESS - HARROGATE,-1.529793,53.996354
1342.63,THE ROSEBERRY PRACTICE,-1.292215,54.611726
4596.509999999998,ST ANDREW'S MEDICAL PRACTICE,-1.598213,54.699634
2665.02,TANFIELD VIEW MEDICAL GROUP,-1.701373,54.869939
256.06,DR MITCHELL,-0.503581,53.72075
2879.6900000000014,BEECH HOUSE SURGERY,-1.465892,54.010836
2947.2500000000005,MANOR PARK SURGERY,-1.628914,53.814076
1292.8300000000004,PARKSIDE SURGERY,-1.391868,53.097732
2508.9600000000005,SPINNEY HILL MEDICAL CENTRE,-1.109212,52.637381
367.44,SPRINGFIELD MEDICAL CENTRE,-1.195502,53.003599
1384.0099999999993,PARKGATE MEDICAL CENTRE,-1.342798,53.455454
1727.3000000000004,BURWELL SURGERY,0.331841,52.273327
1724.5600000000004,MARTLESHAM SURGERY,1.272068,52.061314
409.67,THE AVENUE SURGERY,-0.319031,51.518389
1018.51,THE LILYVILLE SURGERY,-0.199155,51.47377
1376.29,WEST LONDON MEDICAL CENTRE,-0.454699,51.525731
2952.3499999999995,ST.JAMES SURGERY,1.147433,51.787326
707.7000000000002,WITHAM HEALTH CENTRE,0.642876,51.800559
596.3299999999998,QUEENS AVENUE PRACTICE,-0.147916,51.591852
2593.7900000000004,SANDWICH MEDICAL PRACTICE,1.337364,51.274071
591.8200000000002,DR RHK SINHA'S PRACTICE,-0.103058,51.482668
412.3,THE ADDISCOMBE SURGERY,-0.061851,51.376293
1909.7,ADELAIDE MEDICAL CENTRE,-1.475274,51.208539
3792.299999999999,THE CAMBRIDGE PRACTICE,-0.76565,51.254364
1159.7000000000005,COLVILLE HEALTH CENTRE,-0.206231,51.515837
1063.18,BRICKFIELDS SURGERY,0.605168,51.653143
754.3499999999997,TYNEMOUTH MEDICAL PRACTICE,-0.068331,51.586253
4200.199999999999,TRINITY MEDICAL CENTRE,-0.172008,50.831228
2706.29,THE CEDARS SURGERY,1.403174,51.217619
974.05,THE KINGS FAMILY PRACTICE,0.534548,51.377821
1618.59,FOUNTAIN PRACTICE,-0.252307,51.350378
913.06,ST ALBANS MEDICAL CENTRE,-0.302479,51.42195
2375.2100000000005,ORCHID HOUSE SURGERY,-1.894499,50.801788
3618.47,THE HADLEIGH PRACTICE,-1.993525,50.761018
4406.87,THREE CHEQUERS MEDICAL PRACTICE,-1.794625,51.071924
3588.53,WEAVERS MEDICAL,-0.733538,52.401531
1579.9400000000005,NUFFIELD HEALTH CENTRE,-1.486793,51.786441
2511.05,BARTON SURGERY,-3.473818,50.579848
2566.93,BIDEFORD MEDICAL CENTRE,-4.211785,51.017201
3426.78,CORBETT MEDICAL PRACTICE,-2.148792,52.263269
4602.16,THE WESTGATE PRACTICE,-1.821176,52.683537
695.3600000000001,COBRIDGE SURGERY,-2.187008,53.035377
519.3800000000001,BURBURY MEDICAL CENTRE,-1.9103740000000002,52.502215
734.5200000000002,PLECK HEALTH CENTRE,-1.9980380000000002,52.574248
272.23,CORNERSTONE SURGERY,-2.724149,53.454211
434.16999999999985,HIGHER HEYS SURGERY,-2.394094,53.740865
2750.7899999999986,ALBION MEDICAL PRACTICE,-2.088476,53.48960400000001
3110.0799999999995,DELAMERE MEDICAL PRACTICE,-2.307365,53.450887
841.16,240 WEXHAM ROAD,-0.57838,51.516902
1543.8299999999995,LONGFIELD MEDICAL PRACTICE,-2.28357,53.533828
5137.520000000001,THISTLEMOOR MEDICAL CENTRE,-0.254566,52.595274
389.15,PALACCI (CASTELNAU),-0.238274,51.476873
914.8900000000001,CANTERBURY HEALTH CENTRE,1.082981,51.274249
24.56,GP EXTENDED HOURS,-2.597522,53.389256
474.5199999999999,BANBURY HEALTH CENTRE,-1.334014,52.062032
679.3499999999998,BRERETON SURGERY,-1.924317,52.747482
87.72,THE LAWNS SURGERY,-0.502907,50.807746
1422.63,OAK TREE HEALTH CENTRE,-1.2409629999999998,51.614986
1540.19,THE TRINITY MEDICAL PRACTICE,0.760305,51.684982
7.39,DERMATOLOGY CLINIC,-2.486748,53.750552
663.2399999999999,SOHO HEALTH CENTRE,-1.934945,52.503094
20.03,BARNET COPD SERVICE,-0.271242,51.606493
253.34,BECKENHAM BEACON URGENT CARE CENTRE,-0.033209,51.405232
250.45,HILLINGDON COMMUNITY DERMATOLOGY,-0.08430999999999998,51.500087
1245.9900000000002,BRIERLEY MEDICAL CENTRE,-1.382484,53.594188
323.36999999999983,NORWICH IMPROVED ACCESS HUB,1.319958,52.632405
1.13,BRAMLEY COMMUNITY CARE BEDS,-1.623032,53.80781999999999
1229.8099999999995,METRO INTERCHANGE SURGERY,-1.602943,54.961848
3328.71,BRIDGE VIEW MEDICAL GROUP,-1.401824,54.919455
1414.0,QUAKERS LANE SURGERY,-1.741713,54.406363
4084.090000000001,HOLLYNS HEALTH & WELLBEING - CLAYTON,-1.81454,53.779166
1438.6600000000005,BRIDGE STREET MEDICAL PRACTICE,-1.20716,52.774841
2302.69,CAYTHORPE & ANCASTER MEDICAL PRACTICE,-0.536327,52.981851
1322.28,PARSON DROVE SURGERY,0.050459,52.660947
1968.67,PRIORS FIELD SURGERY,0.124169,52.388951
2585.76,DAVENPORT HOUSE SURGERY,-0.354549,51.816177
3505.589999999999,MILLWAY MEDICAL PRACTICE,-0.24359099999999997,51.614985
994.47,TEMPLE FORTUNE MEDICAL GROUP,-0.197845,51.581101
77.97999999999998,MOULSHAM LODGE SURGERY,0.475137,51.716565
327.9100000000001,WARRIOR SQUARE SURGERY,0.716503,51.539534
476.22,BRAYFORD SQUARE SURGERY,-0.050404,51.514375
1131.78,YORK ROAD SURGERY,0.065859,51.559165
4916.55,WEST MALLING GROUP PRACTICE,0.407707,51.293351
1463.7400000000002,ELMDENE SURGERY,0.263153,51.446098
2059.96,MOAT HOUSE SURGERY,-0.146361,51.259819
570.7399999999999,ALEXANDRA SURGERY,-0.205887,51.422912
1820.07,DENHAM MEDICAL CENTRE,-0.502236,51.584564
1600.9799999999993,CHEW MEDICAL PRACTICE,-2.629195,51.35619
1645.5000000000007,ST.GEORGE'S SURGERY,-2.0815,51.906706
347.2600000000001,OLDHAM URGENT TREATMENT GTD HEALTHCARE,-2.121831,53.553248
2642.47,CHARING SURGERY,0.791374,51.20971
1778.8099999999995,THAMES AVE SURGERY,0.603057,51.36344
6490.880000000003,CANTERBURY MEDICAL PRACTICE,1.128982,51.245539
317.0200000000001,TRAFALGAR SURGERY,-0.074414,51.485672
1095.9599999999996,THE ORCHARD PRACTICE,-0.303542,51.369116
2358.4300000000007,BALHAM PARK SURGERY,-0.155715,51.440487
1070.61,UNIVERSITY HEALTH SERVICE,-1.395714,50.934099
1176.48,LINDEN MEDICAL CENTRE,-0.737415,51.530813
1157.6299999999997,OBSERVATORY MEDICAL PRACTICE,-1.265958,51.760293
998.51,CROPREDY SURGERY,-1.320027,52.116731
5167.710000000001,HEART OF BATH,-2.373947,51.376364
697.41,BIRCHWOOD MEDICAL PRACTICE,-2.547938,51.446246
1198.02,LOSTWITHIEL SURGERY,-4.668763,50.407892
1218.45,ST SAVIOURS SURGERY,-2.308488,52.130324
3433.2700000000004,WERRINGTON VILLAGE SURGERY,-2.098023,53.021659
1337.38,WEST HEATH SURGERY,-1.96202,52.401797
518.04,WEST PARK SURGERY,-2.141256,52.587783
466.5199999999999,THE MARSHSIDE SURGERY,-2.963125,53.67143299999999
1074.2200000000003,MERSEYBANK SURGERY,-2.263012,53.42276
1608.0099999999998,THE GROVE ROAD PRACTICE,-0.202341,51.358201
486.34,MOOR PARK MEDICAL PRACTICE,-1.7218490000000002,53.797834
776.58,UPTON ROCKS PRIMARY CARE,-2.754371,53.373367
2424.080000000001,HANLEY PRIMARY CARE CENTRE,-0.12083699999999999,51.567951
1125.1,LEYLAND SURGERY,-2.709316,53.689645
78.40999999999998,COMMUNITY NURSING,-0.670796,53.57972
16.38,HP NMP'S RUSH CCG,-1.143101,53.130244
25.44,THE PRACTICE OPTHALMOLOGY CLINIC,-0.574826,51.671154
4.96,COMMUNITY NURSING,-2.372621,51.358169
35.5,YORKSHIRE SMOKEFREE,-1.018306,53.503028
973.9300000000003,WELLSBOURNE HEALTHCARE CIC,-0.107386,50.825445
901.68,CHEVIOT MEDICAL GROUP,-2.01842,55.546525
3623.950000000001,THE CENTRAL SURGERY BARTON,-0.439445,53.684236
454.72999999999985,DEARNE VALLEY HEALTH CENTRE,-1.626482,53.588349
2195.14,MICKLEOVER MEDICAL CENTRE,-1.54633,52.907111
1845.1700000000005,THE UNIV OF NOTTINGHAM HEALTH SERV,-1.195942,52.942177
1036.2000000000003,LISTER HOUSE SURGERY,-0.4515,51.89192
951.0399999999998,THE ELMS SURGERY,-0.404224,51.661642
1329.4299999999996,HOUNSLOW MEDICAL CENTRE,-0.37684,51.469395
737.86,P A PATEL SURGERY,0.582273,51.56978
284.04,SANCTA MARIA MEDICAL CENTRE,0.284011,51.507882
3817.39,SEAFORD MEDICAL PRACTICE,0.099275,50.772678
5062.82,BUXTED MEDICAL CENTRE,0.132095,50.989406
246.21,NEW INN SURGERY,-0.545657,51.257698
781.3800000000001,THE WHITEHORSE PRACTICE,-0.097391,51.385869
2684.78,THE HEALTH CENTRE,-0.19711,51.363031
2793.1,WEST END ROAD SURGERY,-1.359281,50.916702
1087.9000000000003,TOWER HOUSE SURGERY,-0.770004,51.636372
2656.5000000000005,CHURCH STREET PRACTICE,-1.425847,51.598763
1479.7199999999998,CLINTON ROAD SURGERY,-5.224966,50.23093
2205.2600000000007,PINHOE SURGERY,-3.469622,50.737528
3420.360000000001,ROSEBANK HEALTH,-2.242194,51.852611
1728.9099999999994,MAPLE VIEW MEDICAL PRACTICE,-1.905693,52.31659
1601.73,PRESCOTT SURGERY,-2.852689,52.784345
373.21,BLOOMSBURY HEALTH CENTRE,-1.876618,52.493743
1870.46,HEATON ROAD SURGERY,-1.579814,54.978269
2140.7400000000007,49 MARINE AVENUE SURGERY,-1.451082,55.046268
1671.7200000000007,HOUGHTON MEDICAL GROUP ,-1.469175,54.842322
1535.1000000000006,HOWDEN MEDICAL PRACTICE,-0.8694039999999998,53.744175
469.92,HANCOCKS ME,-0.41296400000000005,53.782123
1745.0400000000006,THE WILSDEN MEDICAL PRACTICE,-1.86138,53.818377
246.76000000000005,COLSTERWORTH SURGERY,-0.619356,52.806388
1307.75,LUNDWOOD MEDICAL CENTRE PMS PRACTICE,-1.438538,53.557711
559.4399999999998,GREASBROUGH MEDICAL CENTRE,-1.372776,53.452893
3792.82,WELLSIDE SURGERY,-0.28478,52.440324
1179.7900000000004,CLARE GUILDHALL SURGERY,0.580469,52.078259
1409.36,LATTIMORE & VILLAGE SURGERY,-0.298547,51.726244
144.84000000000003,SOMERSET MEDICAL CENTRE,-0.371127,51.522244
3625.24,CENTRAL UXBRIDGE SURGERY,-0.475739,51.546229
1265.35,WEST MERSEA SURGERY,0.9193420000000002,51.778349
2850.17,HIGHLANDS SURGERY,0.637339,51.548005
4536.710000000001,BALLARDS WALK SURGERY,0.441841,51.573232
2198.2000000000007,DOWNLANDS MEDICAL CENTRE,0.244085,50.822919
2748.9299999999994,OTFORD MEDICAL PRACTICE,0.191446,51.31358
609.6199999999999,THE HALFWAY SURGERY,0.524157,51.380429
2110.8600000000006,BURNEY STREET PMS,-0.009168,51.479034
1111.9499999999996,ELIZABETH HOUSE MEDICAL PRACTICE,-0.050005,51.308093
615.9799999999998,ADDINGTON MEDICAL PRACTICE,-0.018557,51.344382
155.86999999999995,SARAJLIC (STAINES ROAD),-0.357923,51.439672
4753.6,ROYAL CRESCENT SURGERY,-2.452679,50.616587
1939.5400000000006,TWYFORD SURGERY,-1.314229,51.019421
133.9,ABBEY MEDICAL CENTRE,-0.982406,51.453949
968.48,ST.BARTHOLOMEWS MEDICAL CENTRE,-1.232108,51.747668
5194.06,THE DOWNEND HEALTH GROUP,-2.505301,51.485109
2803.49,IDE LANE SURGERY,-3.534972,50.699471
1288.8099999999995,THE ARROW SURGERY,-1.861382,52.218546
1929.93,DR SN CLAY AND PARTNERS,-1.832005,52.528641
556.32,WILLENHAL OAK MEDICAL CENTRE,-1.463131,52.388988
1825.98,WORDSLEY GREEN HEALTH CENTRE,-2.164692,52.480602
2758.890000000001,THE OVER-WYRE MED.CTR.,-2.976492,53.928203
1069.8999999999996,FISHERGATE HILL SURGERY,-2.714363,53.75445500000001
688.4100000000002,THE SINGH MEDICAL PRACTICE,-2.213622,53.512042
2406.85,PARK VIEW GROUP PRACTICE,-2.160577,53.445476
1178.64,FAMILY SURGERY,-2.346055,53.396194
142.70000000000005,STROKE PATHWAY AND REHABILITATION CENTRE,-1.461102,53.37116700000001
1.34,NWR COMMUNITY SERVICES,-1.014748,51.449145
151.54,URGENT CARE,0.475497,50.850706
536.44,CRANBROOK MEDICAL PRACTICE,-3.416198,50.746596
310.9600000000001,GOSPORT PRIMARY CARE ACCESS CENTRE,-1.148081,50.793062
227.55,COMMUNITY PALLIATIVE CARE MEDICAL TEAM,-2.777861,53.433387
4671.6399999999985,WHITLEY BAY HEALTH CENTRE,-1.43996,55.04141
3125.4800000000005,BLACKBURN RD.MEDICAL CTR.,-1.664718,53.731348
4511.479999999999,MARKET HARBOROUGH MED.CTR,-0.924843,52.477084
1553.3,COMMUNITY HEALTH CENTRE (ZS OSAMA),-1.113421,52.632387
3155.75,TRAMWAYS MEDICAL CENTRE (O'CONNELL),-1.503023,53.402044
3488.0199999999986,SAFFRON HEALTH PARTNERSHIP,-0.264459,52.084232
1699.7799999999993,GLADSTONE MEDICAL CENTRE,-0.24612,51.558731
974.3599999999999,ST MARTINS MEDICAL CENTRE,-0.424566,51.577646
668.7800000000002,ABRIDGE SURGERY,0.12458,51.653631
526.96,ELSDALE STREET SURGERY,-0.049094,51.543033
2424.4900000000007,STOPSLEY VILLAGE PRACTICE,-0.394147,51.901132
3141.67,SHEFFORD HEALTH CENTRE,-0.321643,52.034788
835.2299999999998,VALE DRIVE MEDICAL PRACTICE,-0.194727,51.648828
1133.4899999999998,THE FRYENT WAY SURGERY,-0.280565,51.582963
1575.0499999999995,BELMONT MEDICAL CENTRE,-0.478036,51.548264
1099.37,PORTLAND ROAD PRACTICE,-0.208019,51.507366
6091.159999999999,AUDLEY MILLS SURGERY,0.607129,51.584978
886.2700000000002,STRATFORD HEALTH CENTRE,0.004714,51.544651
762.3199999999998,THE STROUDLEY WLK HTH CTR,-0.017533,51.527214
1216.92,ST JOHN'S MEDICAL PRACTICE,0.195249,51.285009
2696.19,BEXLEY GROUP PRACTICE,0.10965599999999999,51.465832
676.14,DERRY DOWNS SURGERY,0.116651,51.385174
2285.01,UPPER NORWOOD GROUP PRACTICE,-0.08482,51.413308
1482.5700000000004,THE MOORINGS MEDICAL PRACTICE,-0.095892,51.322229
957.88,THE TOLLERFORD PRACTICE,-2.571586,50.778924
3670.410000000001,BLACKTHORN HEALTH CENTRE,-1.327194,50.876037
477.86000000000007,JUBILEE FIELD SURGERY,-2.191875,51.484091
1866.2200000000007,DANES CAMP MEDICAL CENTRE,-0.904374,52.205152
1781.4199999999994,THORNBURY HEALTH CENTRE - BURNEY,-2.517723,51.612861
1650.3399999999995,ELM HAYES SURGERY,-2.492756,51.300546
1424.2700000000007,CULVERHAY SURGERY,-2.348649,51.638921
2976.48,SHAWBIRCH MEDICAL CENTRE,-2.531858,52.718121
3289.840000000002,THE DOVE MEDICAL PRACTICE,-1.864605,52.535155
3011.8499999999995,MOSS GROVE SURGERY,-2.1699,52.498674
2706.4300000000007,WARLEY MEDICAL CENTRE,-2.006757,52.468122
1921.72,SPRINGFIELDS MEDICAL CENTRE,-2.597522,53.389256
2229.7599999999993,WEAVER VALE PRACTICE,-2.696866,53.325561
2668.340000000001,GLOVERS LANE SURGERY,-2.971961,53.488314
1643.4399999999996,OLIVE MEDICAL CENTRE,-2.484193,53.752309
1054.53,HALLIWELL SURGERY 1,-2.431738,53.588322
1892.0700000000006,HEATON MERSEY MED.PRACT.,-2.205118,53.412519
777.95,VILLAGE SURGERY,-0.255874,51.399503
430.05000000000007,SOMERS TOWN MEDICAL CENTRE,-0.130607,51.529916
292.29,FITZMAURICE (KEW),-0.283117,51.475875
1385.7900000000004,WOOTTON VALE HEALTHY LIVING CENTRE,-0.527951,52.093688
1450.7599999999998,ST LUKE'S HEALTH CENTRE,0.7293039999999998,51.551
5547.27,THE MEDICAL GROUP,-1.628911,54.748296
2727.83,GLENPARK MEDICAL CENTRE,-1.640096,54.953229
422.31000000000006,DR KHALIQ,-1.799612,53.663276
2739.2699999999995,ROBIN LANE HEALTH AND WELLBEING CENTRE,-1.661311,53.79500899999999
1075.1700000000003,LAUREL BANK SURGERY,-1.587333,53.816942
1496.3299999999995,HUGGLESCOTE SURGERY,-1.365684,52.71103
1014.55,HEALTH CARE COMPLEX  KIRKBY,-1.244634,53.100062
1865.41,RED HOUSE SURGERY,0.129161,52.214906
562.6500000000001,KINGS HEAD MEDICAL PRACTICE,-0.011448,51.635688
107.75,BRIMPTON HOUSE,0.699534,51.835776
901.73,THE AZAD PRACTICE,0.044868,51.531234
1423.19,NEWHOLME SURGERY,-2.74261,53.456686
645.23,BRIGHTON STATION WALK-IN,-0.141323,50.827937
54.67999999999999,SW INTEGRATED TEAM MALVERN,-2.178135,52.192339
28.7,CCCT 2,-2.019013,53.955694
12.63,COMMUNITY NURSES,-2.500977,51.462504
20.57,FELIXSTOWE HOSPITAL,1.35594,51.963766
1451.75,LUNESDALE SURGERY,-2.602213,54.200573
3528.240000000001,COQUET MEDICAL GROUP,-1.580504,55.332599
506.5799999999999,THE GLENDALE SURGERY,-2.01842,55.546525
1188.1100000000004,ALLERTON MEDICAL CENTRE,-1.533879,53.826921
1011.6000000000003,SPILSBY SURGERY,0.098963,53.173049
938.08,BRIDGEWAY PRACTICE,-1.147343,52.943574
2273.77,THORNE MOOR MEDICAL PRACTICE,-0.966348,53.613648
2126.140000000001,MANOR AND PARK GROUP PRACTICE,-1.42716,53.373705
800.9699999999997,SOLE BAY H/C,1.6664740000000002,52.336325
936.6499999999999,DR PS BATH'S PRACTICE,-0.394147,51.901132
871.72,WATERSIDE MEDICAL CENTRE,-0.363984,51.502165
1104.7800000000002,MELBOURNE HOUSE SURGERY,0.451756,51.749214
5479.579999999999,LITTLE WALTHAM & GT NOTLEY SURGERY,0.477622,51.787396
1803.7200000000007,AMPTHILL PRACTICE,-0.137293,51.5346
850.18,THE NORTH LONDON HEALTH CENTRE,-0.11243199999999999,51.617571
1360.5500000000004,THE WILLOWS PRACTICE,0.104416,51.60776
2221.140000000001,ST.PETER'S MEDICAL CENTRE,-0.135237,50.831002
3242.1000000000013,HIGHPARKS MEDICAL PRACTICE,0.496762,51.434213
2203.05,YALDING,0.429804,51.221188
1091.33,CRAWLEY DOWN HEALTH CENTRE,-0.07762099999999998,51.122557
564.3499999999998,BIRDHURST MEDICAL PRACTICE,-0.092613,51.365279
3134.67,FORESTSIDE MEDICAL PRACTICE,-1.416173,50.851823
534.5799999999999,BENTLEY VILLAGE SURGERY,-0.87992,51.189933
2249.3899999999994,DR KUMAR & PARTNER STUDFALL MEDICAL CTR,-0.704816,52.495882
1844.28,CASTLE PLACE PRACTICE,-3.492865,50.908884
1714.2000000000005,COTSWOLD MEDICAL PRACTICE,-1.75678,51.886317
2927.5699999999993,GLASTONBURY SURGERY,-2.721853,51.148462
2219.4,NUNWELL SURGERY,-2.507177,52.187931
1719.8599999999994,CLEOBURY MORTIMER SURGERY,-2.485608,52.377502
1713.5300000000002,MEDINA HEALTHCARE,-1.298686,50.697239
