total_cost,name,longitude,latitude
471.46,GREENFORD ROAD MED.CTR.,-0.345702,51.537697
524.89,THE OAKLAND MEDICAL CENTRE,-0.45129300000000006,51.546055
240.28,QUEENS WALK MEDICAL CENTRE,-0.393155,51.562716
221.39,THE ABINGDON HEALTH CENTRE,-0.197138,51.496085
662.2899999999998,THE ARDLEIGH SURGERY,0.985096,51.927073
1001.95,ADDISON HOUSE - HAQUE PRACTICE,0.088979,51.770891
684.4300000000002,ST PETER'S STREET MEDICAL PRACTICE,-0.100772,51.535597
180.53,ABERFELDY PRACTICE,-0.004927,51.514483
1299.9899999999998,STONE CROSS SURGERY,0.289944,50.816757
574.38,ELTHAM PALACE PMS,0.053714,51.449946
562.2500000000001,BROCKBANK (PARK ROAD),-0.334596,51.423912
1234.45,CHAWTON PARK SURGERY,-0.989411,51.139814
650.94,STOKENCHURCH MEDICAL CTRE,-0.904033,51.660479
455.59,MARSHALLS ROAD SURGERY,-0.539225,52.344743
296.76,HOLLINSWOOD SURGERY,-2.437453,52.673936
383.55,ABBOTS BROMLEY SURGERY,-1.880966,52.819974
1527.9,DARWIN MEDICAL CENTRE,-1.831505,52.694061
912.0,THE OAKS MEDICAL CENTRE,-1.895827,52.552454
220.3,VICTORIA ROAD MEDICAL CTR,-1.887197,52.501868
849.2799999999999,ST JOHN'S MEDICAL CENTRE,-1.932532,52.626307
373.23,NEWBRIDGE SURGERY,-2.155299,52.5936
1128.9899999999998,THE CORNERSTONE PRACTICE,-2.4524,53.739201
356.57,TOWNSIDE SURGERY,-2.29898,53.59031
283.35,GOODMAYES MEDICAL CENTRE,0.10990599999999999,51.567626
138.76,PARK GRANGE MEDICAL CENTRE,-1.775929,53.789415
325.13,ST.GEORGES MEDICAL CENTRE,-0.24612,51.558731
416.19999999999993,HETHERINGTON AT THE PAVILION,-0.116397,51.461633
455.37,OAKWOOD MEDICAL CENTRE,-0.134269,51.646534
582.0399999999998,SOUTH HERMITAGE SURGERY,-2.752497,52.699728
5.6000000000000005,SMGPF,-2.237795,53.434307
1.63,DCHS DERBY CITY,-1.441882,53.221288
308.16,REDBURN PARK MEDICAL CENTRE,-1.474775,55.00092
189.22,CASTLETOWN MEDICAL CENTRE,-1.450848,54.913341
281.74,ALDBROUGH ST JOHN SURGERY,-1.684645,54.496518
207.89,EAST PARADE MEDICAL PRACTICE,-1.061835,53.965993
138.5,BARKEREND HC - EL ELIWI,-1.7218490000000002,53.797834
1612.9800000000002,SHAFTESBURY MEDICAL CTR.,-1.497858,53.800234
577.6800000000002,GROBY ROAD MEDICAL CENTRE (ID PATCHETT),-1.150468,52.644337
582.85,ROSEMEAD DRIVE SURGERY,-1.083088,52.5934
53.97,AR-RAZI MEDICAL CENTRE,-1.101204,52.623926
452.45,BRANSTON & HEIGHINGTON FAMILY PRACTICE,-0.467988,53.195831
1230.61,FOUNTAIN MEDICAL CENTRE,-0.8043829999999998,53.07286
511.68,OAKENHALL MEDICAL PRACT,-1.199437,53.03661700000001
469.55000000000007,SCAWSBY HEALTH CENTRE PRACTICE,-1.167843,53.53678299999999
1655.3000000000004,ST. GEORGE'S MEDICAL CENTRE,0.298817,52.458085
507.37000000000006,LAWNS PRACTICE,1.109092,52.378889
1212.91,CENTRAL SURGERY,0.147747,51.812546
413.46,CHURCH END MEDICAL CENTRE,-0.253241,51.54757
696.5200000000002,BRENTFORD GROUP PRACTICE,-0.310054,51.48676
479.18,THE DEVONSHIRE LODGE PRACTICE,-0.397406,51.579266
174.78999999999996,THE HOXTON SURGERY,-0.086829,51.533527
367.26,LL MEDICAL CARE LTD,0.0021,51.555415
2040.31,JUBILEE MEDICAL CENTRE,0.300332,51.3978
536.97,LAMBETH WALK GROUP PRACTICE,-0.11259100000000001,51.495609
366.32,STANWELL ROAD SURGERY,-0.470567,51.438013
2836.680000000001,THE ADAM PRACTICE,-2.07822,50.757881
340.21,SOUTHMEAD SURGERY,-0.616953,51.552538
311.61999999999995,CLIFTON HAMPDEN SURGERY,-1.211451,51.658625
443.07000000000005,GROOMBRIDGE AND HARTFIELD MED GRP,0.184416,51.113952
690.87,POND TAIL SURGERY,-0.066728,51.246436
880.1,THE WALL HOUSE SURGERY,-0.208192,51.241304
256.03000000000003,THE HALING PARK PARTNERSHIP,-0.098109,51.357113
786.05,THE PRINCE OF WALES SURGERY,-2.457579,50.713502
776.6899999999998,BRANKSOMEWOOD H/CARE CTR,-0.8448069999999998,51.281888
261.69,THE GROVE SURGERY,-0.735114,52.023651
854.25,PROBUS SURGERY,-4.948542,50.290121
1498.59,ABBEY SURGERY,-4.150401,50.546904
792.38,WHITEACRES MEDICAL CENTRE,-2.300547,52.124716
329.1,WOODSIDE MEDICAL PRACTICE,-2.466175,52.637949
586.69,LYME VALLEY MEDICAL CENTRE,-2.22375,53.006305
548.26,AUDLEM MEDICAL PRACTICE,-2.508717,52.989615
408.99,KENNETH MACRAE MED CENTRE,-2.786435,53.49903
1249.9,BODEY MEDICAL CENTRE,-2.214798,53.440636
774.4399999999998,WOODLANDS MEDICAL PRACTICE,-2.31213,53.406624
187.7,DR PAL,-2.595495,53.47988
383.51,BATH ROAD SURGERY,-0.37684,51.469395
382.09,CHAPEL ROW SURGERY,-1.17086,51.425877
230.88,WOODLANDS MEDICAL PRACTICE,-0.170943,51.592914
0.23,NORTH LINCOLNSHIRE OOH,-0.667599,53.587582
80.47,EPUT COMMUNITY CARDIOLOGY,0.12393,51.704295
38.08,SOUTH YORK HEART FAILURE NURSES,-1.082907,53.951837
1.0,NCH&C COMMUNITY NURSES (WEST),0.410147,52.749129
0.5,HEALTHBRIDGE DIRECT,0.020102,51.608432
1.51,AQP ANTICOAG RIDGACRE MEDICAL CENTRE,-1.9901099999999998,52.460912
6.220000000000001,TAMESIDE & GLOSSOP IC NHS FT,-2.071433,53.49153
4.5,DMC COMMUNITY DERMATOLOGY SERVICE,1.087083,51.266589
392.55,CRAMLINGTON MEDICAL GROUP,-1.591516,55.084481
1119.97,KINGSTON MEDICAL GROUP,-0.349365,53.756137
196.33,WESTFIELD MEDICAL CENTRE,-1.531703,53.817673
626.12,VERNON STREET MEDICAL CTR,-1.49039,52.924019
675.7799999999999,STUBLEY MEDICAL CENTRE,-1.488541,53.304986
1594.67,BRIDGE COTTAGE SURGERY,-0.215995,51.830002
658.79,GRANGE STREET SURGERY,-0.335878,51.757298
318.18,CHICHELE ROAD SURGERY,-0.216241,51.55483
439.19999999999993,SHIRLAND ROAD MEDICAL CENTRE,-0.203904,51.5292
911.47,DR KRISHNAN & PTNR - KENT ELMS HC,0.664114,51.563831
475.03,CRANHAM HEALTH CENTRE,0.265291,51.568865
587.25,ST PETER'S SURGERY,1.41893,51.362936
539.9100000000001,LEWISHAM MEDICAL CENTRE,0.004522,51.458513
261.39,STEWKLEY ROAD SURGERY,-0.71666,51.898041
142.45999999999995,SIBFORD SURGERY,-1.479244,52.037614
1382.91,NEW COURT SURGERY,-2.958059,51.345794
1674.23,AXMINSTER MEDICAL PRACTICE,-2.999226,50.780899
1752.49,COLERIDGE MEDICAL CENTRE,-3.2835660000000004,50.751704
723.76,LYDNEY PRACTICE,-2.529867,51.727913
872.2600000000001,PRICES MILL SURGERY,-2.224938,51.693801
1077.01,ST. JOHNS SURGERY,-2.059728,52.337612
983.87,THE ALDERGATE MED.PRACT.,-1.695644,52.639079
827.7600000000001,YARDLEY WOOD HEALTH CENTRE,-1.859168,52.418648
638.37,MONTAGUE MEDICAL PRACTICE,-0.872899,53.707031
812.06,EASTGATE MEDICAL GROUP,-1.462815,54.006795
442.49,HORTON BANK PRACTICE,-1.806018,53.774478
880.3700000000001,MARSH MEDICAL PRACTICE,0.143689,53.445069
1351.3200000000004,HUDDERSFIELD ROAD SURGERY,-1.485631,53.558165
1659.3200000000004,SWALLOWNEST HEALTH CENTRE,-1.317097,53.362997
995.1799999999998,SHERINGHAM MEDICAL PRACTICE,1.214777,52.939688
1099.7399999999998,KNEBWORTH & MARYMEAD MEDICAL PRACTICE,-0.184972,51.866323
266.76,THE HODFORD ROAD PRACTICE,-0.199318,51.569038
575.12,HAZELDENE MEDICAL CENTRE,-0.275394,51.547592
312.4600000000001,CLOISTER ROAD SURGERY,-0.265589,51.521352
567.06,ABBEY ROAD MEDICAL PRACTICE,0.005881,51.534784
272.38,BOUNDARY HOUSE SURGERY,-0.054245,51.632475
877.69,MANOR PARK MEDICAL CENTRE,0.24261,50.819107
870.68,CHURCH LANE HEALTH CENTRE,0.941162,50.984187
2132.8699999999994,BETHESDA MEDICAL CENTRE,1.414787,51.390277
784.7899999999998,WOODLANDS SURGERY,0.088913,51.439755
833.9299999999998,LILLIPUT SURGERY,-1.954229,50.711523
1867.02,WESTBURY GROUP PRACTICE,-2.203558,51.252792
1039.26,PENRYN SURGERY,-5.10336,50.167504
672.3700000000001,CROWN MEDICAL CENTRE,-3.080969,51.029111
1445.82,BARN CLOSE SURGERY,-1.859248,52.03627
252.48,HIGHLEY MEDICAL CENTRE,-2.392978,52.456165
224.57,ALVELEY MEDICAL PRACTICE,-2.353309,52.454738
295.76,WOLSTON SURGERY,-1.392727,52.376806
407.36,BALLIOL ROAD SURGERY,-1.471449,52.415924
410.61,NEWTON MEDICAL CENTRE,-2.638386,53.457172
634.4500000000002,GREASBY GROUP PRACTICE,-3.121417,53.377628
399.8,LOSTOCK HALL MEDICAL CTR.,-2.688037,53.727502
530.16,KNOWSLEY MEDICAL CENTRE,-2.300551,53.588497
698.84,TIMPERLEY HEALTH CENTRE (WESTWOOD),-2.323566,53.397228
0.93,WELLINGBOROUGH EXTENDED ACCESS,-0.695567,52.303398
11.34,ST JOSEPH'S HOSPICE  HACKNEY,-0.056255,51.537053
420.05,PENINSULA MEDICAL PRACTICE,-2.915665,54.18795600000001
422.61,ROSEWORTH SURGERY,-1.61867,55.001366
1779.09,GREENGATES MEDICAL GROUP,-0.418494,53.844343
1192.99,HEBDEN BRIDGE GROUP PRACTICE,-2.010942,53.744036
689.31,LIMES MEDICAL CENTRE,-1.387885,53.098493
581.5,CHURCHSIDE MEDICAL PRACTICE,-1.203539,53.146592
556.04,SELSTON SURGERY,-1.299871,53.070196
1290.88,CRYSTAL PEAKS MEDICAL CENTRE,-1.354473,53.342881
984.23,LINCOLN HOUSE SURGERY,-0.469093,51.737355
828.4400000000002,STOCKWELL LODGE MED.CTR.,-0.055287,51.713792
259.46000000000004,SOUTHEND MEDICAL CENTRE,0.708516,51.540069
233.09000000000003,DR DEVARAJA VC PRACTICE,0.44359,51.520015
699.1,DR PM PATEL,0.219281,51.55632
205.41,THE MITCHISON ROAD SURGERY,-0.087357,51.544992
402.61,FOUNTAYNE ROAD HEALTH CENTRE,-0.065145,51.56442
1077.33,FRAMLINGHAM SURGERY,1.334192,52.227216
123.2,ARCHWAY SURGERY,-0.532167,51.72275
261.00000000000006,CHURCH LANE SURGERY,-0.262165,51.574931
129.51,CHISWICK FAMILY DRS PRACTICE,-0.259879,51.493563
219.99,ACRE SURGERY,-0.411552,51.604465
153.47,CHOWDHURY,0.233898,51.592339
370.54,CUMBERLAND MEDICAL CENTRE,0.026047,51.519716
556.23,ILFORD MEDICAL CENTRE,0.07431899999999998,51.556823
1165.9000000000005,RYE MEDICAL CENTRE,0.730363,50.961944
238.38,MAIDSTONE RD CHATHAM SURGERY,0.516708,51.361226
354.92,VASSALL MEDICAL CENTRE,-0.10851199999999998,51.477558
928.4000000000002,WITLEY SURGERY,-0.650163,51.156457
724.8500000000001,FARMHOUSE SURGERY,-1.7595,50.736437
642.9400000000002,JENNER HOUSE SURGERY,-0.7745189999999998,51.294302
430.9000000000001,LONG BARN LANE SURGERY,-0.967033,51.436181
1550.0,WESTONGROVE PARTNERSHIP,-0.74378,51.76588
633.9800000000001,MILBORNE PORT SURGERY,-2.471962,50.967502
572.26,OMBERSLEY MEDICAL CENTRE,-2.229023,52.276554
1166.1699999999996,FURLONG MEDICAL CENTRE,-2.208139,53.063325
828.4,NORFOLK STREET SURGERY,-2.182794,53.01602
353.1400000000001,PARADISE MEDICAL CENTRE,-1.494835,52.426778
668.9499999999998,MAYFIELD MEDICAL CENTRE,-2.093284,52.583046
655.82,LEVENSHULME MEDICAL PRACTICE,-2.188524,53.446352
533.8299999999999,HEALD GREEN HEALTH CENTRE 2,-2.229276,53.369878
395.18,SMITH (RICHMOND LOCK),-0.322897,51.464517
302.12,CHILLINGTON HEALTH CENTRE,-3.693645,50.272623
246.83,JUBILEE GARDENS MEDICAL CENTRE,-0.368739,51.521097
420.32,BLACKHEATH MED CTR,-3.104694,53.412239
194.89,AMBAR MEDICAL CENTRE,-1.991354,52.575093
192.17,GOLDINGTON ROAD SURGERY,-0.456174,52.140172
307.2800000000001,DMC ST MARYS ISLAND SURGERY,0.538105,51.406776
328.14,POPLAR PRIMARY CARE CENTRE,-1.890326,52.43631
1796.1,THORNABY & BARWICK MEDICAL GROUP,-1.292128,54.538149
1236.2,BRAMPTON MEDICAL PRACTICE,-2.734846,54.94237
519.5400000000001,RISEDALE SURGERY,-3.224778,54.109942
827.63,ROWLANDS GILL MEDICAL CENTRE,-1.742896,54.91936
805.83,THE SUTTON MANOR SURGERY,-0.315294,53.785759
633.9000000000002,PLANE TREES GROUP PRACTICE,-1.894437,53.730448
992.52,THORNTON MEDICAL CENTRE,-1.576209,53.791908
1292.63,JESSOP MEDICAL PRACTICE,-1.372226,53.074348
1336.6700000000005,THE PARK MEDICAL PRACTICE,-1.432644,52.928801
563.6800000000002,BRAILSFORD & HULLAND MEDICAL PRACTICE,-1.624927,52.96943
1036.79,MERRIDALE MEDICAL CENTRE (RP TEW),-1.160752,52.620146
634.25,THE MAYFLOWER MEDICAL PRACTICE,-1.01945,53.431872
1368.8,BASLOW RD  SHOREHAM ST & YORK RD SRGIES,-1.531066,53.316325
818.5700000000002,OVER SURGERY,0.012018,52.314809
757.84,DR TUN & PARTNERS,-2.583571,53.532102
767.8099999999998,ST.ANTHONY'S HEALTH CENTRE,-1.55655,54.966674
672.6699999999998,MANOR DRIVE MEDICAL CENTRE,-0.24836599999999998,51.380785
13.14,WESTCALL OOH,-0.8315749999999998,51.410524
9.4,NELFT SOUTH WEST ESSEX CS,0.496195,51.591456
2.22,HILLINGDON UCC,-0.461175,51.526077
7.53,EAST STAFFS IMPROVING LIVES,-1.6480290000000002,52.798809
838.45,BISHOPS CLOSE MEDICAL PRACTICE,-1.599142,54.699817
1335.7400000000002,CLEE MEDICAL CENTRE,-0.041433,53.566223
1183.91,WIBSEY & QUEENSBURY MED P,-1.779715,53.767225
221.77,SOUTHOWRAM SURGERY,-1.831696,53.712293
319.37,WHITWICK HEALTH CENTRE,-1.3606790000000002,52.742576
1039.7000000000003,MARKET SURGERY,-1.345958,53.502635
327.13,BALDWINS LANE SURGERY,-0.448705,51.654076
654.6800000000002,DERWENT CRESCENT MEDICAL CENTRE,-0.175285,51.622908
956.82,THE STANMORE MEDICAL CENTRE,-0.304021,51.60154
593.38,NEASDEN MEDICAL CENTRE,-0.247382,51.559667
136.95,BROOK GREEN SURGERY,-0.218145,51.495291
1224.16,ABBEY FIELD MEDICAL CENTRE,0.898575,51.877487
212.54,JOHN SMITH MEDICAL CENTRE,0.112125,51.538899
641.9599999999998,TOTTENHAM HEALTH CENTRE,-0.068474,51.604755
215.99,DR MOHAMMED GREEN MAN MEDICAL CENTRE,0.015000999999999999,51.571506
550.1299999999999,FAIRFIELD PMS,0.038949,51.483908
270.15000000000003,PARKSIDE MEDICAL CENTRE,-0.092642,51.475826
411.91,NORK CLINIC,-0.215842,51.326429
424.75,QUEENHILL MEDICAL PRACTICE,-0.066791,51.34499
385.36,GRAND DRIVE SURGERY,-0.228811,51.402155
1828.1500000000005,THE BOSMERE MEDICAL PRACTICE,-0.990581,50.850232
1312.9700000000005,BURNHAM HEALTH CENTRE,-0.662137,51.5349
520.04,THE LONG BUCKBY PRACTICE,-1.08255,52.30049
2147.4500000000007,ASPEN MEDICAL PRACTICE,-2.225797,51.865969
728.52,GLOUCESTER CITY HEALTH CENTRE,-2.245328,51.860355
1474.4100000000005,ABBEY HOUSE MEDICAL PRACTICE,-1.160725,52.260319
778.72,NORTON BROOK MEDICAL CENTRE,-3.782122,50.288739
167.89,SOMERSET BRIDGE MEDICAL CENTRE,-2.995883,51.115105
667.86,TRENT VALE MEDICAL PRACTICE,-2.201785,52.987386
177.69,BROOKSIDE SURGERY,-1.399088,52.35048
509.8,NORTHWAY MEDICAL CENTRE,-2.130997,52.54810500000001
773.17,MARTON MEDICAL PRACTICE,-3.034524,53.812843
533.23,CORNISHWAY GROUP PRACTICE,-2.265017,53.379925
1257.51,BRAMHALL HEALTH CENTRE,-2.162929,53.36001
914.83,MAYNARD COURT SURGERY,0.020165,51.685605
251.25,AYLESBURY SURGERY,-1.876053,52.542854
149.05,NEVILLE ROAD SURGERY,-0.443036,51.906419
0.76,UNIV HOSP NORTH DURHAM OOH,-1.593834,54.788497
71.41,BOWLING GREEN STREET SURGERY,-1.133096,52.63304599999999
757.2600000000001,BCHC MEDICINES MANAGEMENT,-1.9537779999999998,52.398207
1089.28,YARM MEDICAL PRACTICE,-1.355519,54.50530500000001
352.0899999999999,BENSHAM FAMILY PRACTICE,-1.617038,54.952781
624.1400000000001,BURTON CROFT SURGERY,-1.57692,53.820807
164.39,EASTMOOR HEALTH CENTRE,-1.476864,53.690004
225.66000000000003,HARTINGTON SURGERY,-1.810816,53.142488
318.1,THE PRACTICE BEAUMONT LEYS,-1.15392,52.662296
720.7899999999998,TASBURGH LODGE SURGERY,-0.21375,53.151242
1259.2500000000002,SOTHALL & BEIGHTON HEALTH CENTRES,-1.340221,53.337895
163.51999999999995,KINGSWAY SURGERY,-0.437208,51.517478
354.26,FIVE ELMS MEDICAL PRACTICE,0.14235,51.553315
179.26,SPUR ROAD SURGERY,-0.086621,51.586597
712.9300000000002,THE MEADS SURGERY,0.091624,50.969686
356.9100000000001,ALBION STREET SURGERY,-0.133965,50.827627
648.86,BELLEGROVE SURGERY,0.09579,51.464561
661.73,SOUTH VIEW PARTNERSHIP,0.026125,51.405111
778.86,CORNERWAYS SURGERY,-0.404519,50.81566
537.2300000000001,CHEAM GP CENTRE,-0.225239,51.368621
280.14,WALLINGTON MEDICAL CENTRE,-0.129285,51.357345
799.86,THE BANKS & BEARWOOD MEDICAL CENTRE,-1.9292169999999997,50.768326
368.25,MERE SURGERY,-2.265342,51.089873
173.44,RAGSTONE ROAD SURGERY,-0.601832,51.503747
542.4300000000001,COMBE DOWN SURGERY,-2.345599,51.361003
922.44,WADEBRIDGE & CAMEL ESTUARY PRACTICE,-4.835729,50.514816
495.68,NORTH PETHERTON SURGERY,-3.013922,51.09139
227.16,HANDSWORTH MEDICAL PRACT.,-1.941212,52.505377
699.7499999999999,EVE HILL MEDICAL PRACTICE,-2.096805,52.512922
250.25000000000003,BEARWOOD MEDICAL CENTRE,-1.97344,52.476903
1256.52,THE GROUP PRACTICE ALFRED SQUIRE ROAD,-2.080754,52.599417
761.14,WEST DERBY MEDICAL CENTRE,-2.895944,53.431273
155.46999999999997,BEEHIVE SURGERY,-2.419172,53.564161
306.2399999999999,QUEENS MEDICAL CENTRE,-2.235847,53.50081899999999
723.0999999999998,LANGWORTHY MEDICAL PRACTICE,-2.294771,53.489371
181.85,LEY HILL SURGERY,-1.983266,52.421346
544.42,THE CHEYLESMORE SURGERY,-1.503924,52.391324
61.66,DR. B. K. PRASHARA,-2.114816,52.456326
1074.46,ST PETER'S SURGERY,-1.984855,52.594537
602.0,ORMSKIRK HOUSE SURGERY,-2.74261,53.456686
542.41,MANOR HEALTH CTR,-3.044493,53.421061
1066.75,THE PENDLE MEDICAL PARTNERSHIP,-2.144307,53.915882
601.23,3/SPRINGFIELD HOUSE MEDICAL PRACTICE,-2.362019,53.480252
962.45,PENNINE MEDICAL CENTRE,-2.040966,53.515337
191.69,THE CROSSROADS SURGERY,-2.770123,53.417492
251.01,CRESCENT SURGERY,0.106446,51.389854
420.33,GREEN CEDARS MEDICAL CENTRE,-0.073642,51.616071
179.25,THE KINGSWAY PRACTICE,-2.135588,53.612168
585.16,WHITE HORSE SURGERY,0.343258,51.435153
10.34,THE ENFIELD PAIN CLINICS,-0.076772,51.66253
2.84,LAS S.E. LONDON IUC CAS,-0.10903099999999999,51.500174
13.58,WEST KENT GROUP,1.118942,51.075872
142.29,CHAPELFORD PRIMARY CARE CENTRE,-2.633066,53.39615799999999
6.43,BRAMHOPE DERMATOLOGY COMMUNITY CLINIC,-1.61581,53.881903
222.73,BHF LUNDWOOD SURGERY,-1.438538,53.557711
0.5,SOTON COMMUNITY ENT SERVICE WESTON LANE,-1.370694,50.888213
1177.85,DALTON SURGERY,-3.179816,54.155917
594.35,THE SELE MEDICAL PRACTICE,-2.095702,54.970372
847.5299999999999,WOODLANDS PARK HEALTH CTR,-1.628825,55.04614
474.25999999999993,CONCORD MEDICAL PRACTICE,-1.524864,54.913411
757.2099999999998,MARKET WEIGHTON GROUP PRACTICE,-0.674786,53.864903
405.73,RAJ MEDICAL CENTRE,-0.113968,53.550655
875.19,MAYFORD HOUSE SURGERY,-1.446534,54.328376
1090.32,OAKWOOD LANE MEDICAL PRACTICE,-1.493931,53.819982
2142.66,HEALTH CARE FIRST PARTNERSHIP,-1.393615,53.736872
883.0800000000002,HAVEN MEDICAL CENTRE,-1.416874,52.891498
569.2900000000002,COUNTESTHORPE HEALTH CENTRE,-1.136767,52.554536
1697.7699999999993,CASTLE HEALTHCARE PRACTICE,-1.144908,52.930476
1314.2199999999998,BROOM LANE MEDICAL CENTRE,-1.332311,53.417383
489.49,CADDINGTON SURGERY,-0.458179,51.864502
646.3200000000002,ANNANDALE MEDICAL CENTRE,-0.17421099999999998,51.698571
8.099999999999998,DMC COMMUNITY DERMATOLOGY BHR,0.223136,51.563496
460.58,WEST ROAD MEDICAL CENTRE,-1.656263,54.976209
230.28,IMEARY STREET PRACTICE,-1.424863,54.98753000000001
157.55,THE KILLINGHOLME SURGERY,-0.260335,53.62990799999999
710.3000000000002,DR SINHA & PARTNERS,0.100204,53.030138
370.79,THE HEALTH CARE SURGERY,-1.487911,53.42172
677.8499999999998,COMBERTON SURGERY,0.018614,52.189811
542.67,TRINITY & BOWTHORPE MEDICAL PRACTICE,1.280248,52.624411
642.35,THE LIMES SURGERY,-0.010842,51.759413
552.08,SHEPHALL HEALTH CENTRE,-0.167642,51.890799
177.86,WAKEMANS HILL SURGERY,-0.254209,51.587088
126.24,WESTBOURNE GROVE MEDICAL CENTRE,-0.200361,51.514211
886.4499999999998,FOREST PRACTICE,0.07523499999999998,51.654789
203.88,PRASAD,0.210579,51.600308
753.88,HARROW ROAD GP CENTRE,0.012856,51.559538
534.17,SEVEN DIALS MEDICAL CENTRE,-0.147743,50.829681
863.6,NORTHDOWN SURGERY,1.368001,51.379866
246.13,MILTON REGIS SURGERY,0.7321839999999998,51.349193
725.91,BARCROFT MEDICAL CENTRE,-1.780526,51.172939
360.49,BURBAGE SURGERY,-1.669545,51.348496
1690.9699999999998,THE SWAN PRACTICE,-0.985664,52.001593
1453.37,PIONEER MEDICAL GROUP,-2.617628,51.510306
465.5999999999999,THE CREST FAMILY PRACTICE,-2.596274,51.428746
150.48000000000005,WORTHEN MEDICAL PRACTICE,-3.000165,52.635224
552.22,NESTON MEDICAL CENTRE,-3.064349,53.291818
299.3400000000001,KIRKDALE MEDICAL CENTRE,-2.973842,53.433523
413.44999999999993,WITHNELL HEALTH CENTRE,-2.556663,53.692491
1505.03,DARWEN HEALTHLINK,-2.471427,53.695744
869.66,ST.MARY'S HEALTH CENTRE,-2.729589,53.747433
421.96,DAVID MEDICAL CENTRE,-2.268652,53.43186
552.6299999999999,DR ABBAS,-0.841253,52.26834
472.88,FACCINI HOUSE SURGERY,-0.189379,51.389682
615.53,EDLESBOROUGH SURGERY,-0.588625,51.868423
572.08,DR GS KALKAT'S PRACTICE,0.103861,51.527941
344.56000000000006,JRB HEALTHCARE BEECHDALE SURGERY,-1.198142,52.961504
123.01,THE LYNWOOD SURGERY,-0.29964,51.528594
311.63999999999993,CHURCH VIEW MEDICAL CENTRE,-2.960328,50.935622
1070.4,WOODLANDS FAMILY MEDICAL CENTRE,-1.321204,54.561215
192.77,ASKAM SURGERY,-3.210918,54.183705
1463.28,FERRYHILL AND CHILTON MEDICAL PRACTICE,-1.556828,54.689838
548.7700000000002,COLLIERY COURT MEDICAL GROUP,-1.460703,54.949762
411.81,GRANGE PARK SURGERY,-1.7481080000000002,53.912695
950.05,THE COUNTY PRACTICE,-1.069884,52.70073000000001
1107.4199999999996,BEECHFIELD MEDICAL CENTRE,-0.145012,52.787253
633.64,GRIMETHORPE SURGERY,-1.378978,53.573614
613.7000000000002,THE OAKWOOD SURGERY,-1.073937,53.506609
476.96,PAPWORTH SURGERY,-0.11749200000000001,52.252071
663.13,ORCHARD SURGERY,0.944176,52.678309
828.68,DR JK MARSDEN'S PRACTICE,-0.436528,51.894968
802.15,MALTINGS SURGERY,-0.337918,51.751851
505.04,HANWELL HEALTH CENTRE (NAISH),-0.334375,51.510263
805.5699999999998,WHITLEY HOUSE SURGERY,0.455723,51.726539
1045.0400000000004,WEST ROAD SURGERY,0.70187,51.544989
301.50000000000006,JOYDENS WOOD MEDICAL CENTRE,0.166397,51.42449
1472.4399999999996,TRAFALGAR MEDICAL GROUP PRACTICE,-1.092485,50.785331
682.97,EASTFIELD HOUSE SURGERY,-1.323251,51.395555
616.48,RECTORY MEADOW SURGERY,-0.6175,51.669079
919.33,TUDOR LODGE SURGERY,-2.975378,51.332396
781.0200000000002,PRAZE-AN-BEEBLE SURGERY,-5.309264,50.173753
1005.1799999999997,CAMBRIAN MEDICAL PRACTICE,-3.047774,52.86281
368.64,PENN SURGERY,-2.145001,52.568567
611.1,FIRDALE MEDICAL CENTRE,-2.537387,53.253804
820.81,HALL GREEN SURGERY,-2.741349,53.540745
146.4,SARAF MEDICAL PRACTICE,-2.076954,53.561455
191.36,LATIMER HEALTH CENTRE,-0.049503,51.54659
582.7499999999999,DELL MEDICAL CENTRE,0.328114,51.480258
235.3,KIRKSTALL LANE MEDICAL CENTRE,-1.587333,53.816942
1104.7400000000002,WHITCHURCH SURGERY,-1.340372,51.230256
312.34,DR NEWMAN,-1.975441,50.719722
246.85,THE TRINITY MEDICAL CENTRE,0.085815,51.478803
7.76,CARE UK OOH,1.210633,52.034014
1.28,IC24 LTD (HWLH OOH),0.891514,51.129106
13.489999999999998,BURNLEY LOCALITY NMPS,-2.238948,53.791326
1.71,SOUTH EAST HUB 1,-0.10851199999999998,51.477558
403.35,KIRKBY COMMUNITY PRIMARY CARE CENTRE (3),-1.248741,53.10176
676.78,BERKLEY PRACTICE,-2.024533,52.58916
832.2700000000002,BELLE VALE HEALTH CENTRE,-2.859752,53.392035
387.67,ELIZABETH STREET SURGERY,-3.043658,53.820839
507.51,RAMSBOTTOM MEDICAL PRACTICE,-2.319287,53.64878
356.39,THE WHITSWOOD PRACTICE,-2.253502,53.455769
906.59,WOODLANDS MEDICAL PRACTICE,-2.142182,53.545559
646.6900000000002,BROOKS BAR MEDICAL CENTRE,-2.261969,53.461412
408.92,BROOK HOUSE SURGERY,-1.445882,50.921794
269.73,ASHVILLE SURGERY,-0.201145,51.476255
317.31,THE VILLAGE MEDICAL CTR,-0.512653,52.128152
1.93,DR HANTSDOC N OOH,-1.109918,51.280633
2.19,GP COLLABORATIVE OOH,-1.455965,53.409821
221.26,ST NEOTS HEALTH CENTRE,-0.267116,52.228966
2.83,HMR BARDOC OOH,-2.288591,53.59553
3.73,HOLYWELL AT LANGLEY HOUSE HCT,-0.391206,51.683651
0.93,VC WEST LANCS COMMUNITY NURSING,-2.840112,53.602357
1527.1799999999996,PRIORY MEDICAL CENTRE,-1.588641,52.285051
50.45,MODALITY ANN JONES FAMILY HEALTH CENTRE,-1.871333,52.462659
292.3400000000001,BALDWINS LANE SURGERY,-1.846405,52.414514
227.85,TUDOR PRACTICE STOCKLAND GREEN,-1.857329,52.52388199999999
740.4800000000001,CENTRAL SURGERY,-2.74261,53.456686
1625.09,ASH TREES SURGERY,-2.769484,54.129481
245.53000000000003,FAMILY PRACTICE,-2.486748,53.750552
216.13,MONARCH MEDICAL CENTRE,-2.316823,53.564198
784.2,LEESBROOK SURGERY,-2.07266,53.53879
460.77,WALTON SURGERY,1.335453,51.973564
253.97,LINCOLN GREEN MEDICAL CENTRE,-1.525196,53.802098
295.91,PARKGATE SURGERY,-1.548606,54.523273
232.43,DALTON TM,-2.643772,53.529393
225.45,POLLARD ROW SURGERY,-0.064328,51.528266
2.94,HARROGATE OOH,-1.517573,53.993807
0.23,EXTENDED HOURS SERVICE,-2.9023,53.211542
60.98,WIRRAL HEART SUPPORT,-3.026531,53.380029
0.93,RUSHCLIFFE URGENT CARE SERVICE,-1.100495,52.924252
0.23,RUNCORN URGENT CARE CENTRE WIC,-2.694681,53.323266
1.51,PML NEIGHBOURHOOD HUB (BANBURY),-1.349027,52.057771
513.1999999999999,BALDERTON SURGERY,-0.7864679999999998,53.052881
372.26,ULVERSTON COMMUNITY HEALTH CENTRE,-3.097833,54.198882
839.01,NORTH ROAD SUITE RAVENSTHORPE HEALTH CTR,-1.661589,53.677829
701.9300000000002,CASTLE MEAD MEDICAL CENTRE,-1.367743,52.541052
624.9500000000002,RADCLIFFE-ON-TRENT. HEALTH CENTRE,-1.03822,52.946139
636.46,RISE PARK SURGERY,-1.174951,53.011477
476.61,MANCHESTER ROAD SURGERY,-1.521086,53.380573
819.0300000000002,CHERRY HINTON MEDICAL CENTRE,0.177635,52.187459
859.23,THE MEDICI MEDICAL PRACTICE,-0.418382,51.874494
581.65,PENSHURST GARDENS SURGERY,-0.272812,51.616129
451.14,ELLIS PRACTICE,-0.276552,51.563894
111.41,ORCHARD END,0.539532,51.091415
746.4299999999998,NEW ELTHAM AND BLACKFEN MEDICAL CENTRE,0.074199,51.434495
639.57,THE GROVE MEDICAL CENTRE,-2.513702,50.953273
1304.9900000000002,BISHOPS WALTHAM SURGERY,-1.212149,50.95528
754.98,THE WILLESDEN MEDICAL CENTRE,-0.233873,51.547532
407.12,EASTMEAD AVENUE SURGERY,-0.36274,51.531443
143.2,KINCORA DOCTORS SURGERY,-0.412216,51.511666
302.92999999999995,DR M GOYAL'S PRACTICE,0.156711,51.540066
937.58,TOLLGATE MEDICAL CENTRE,0.056362,51.515573
705.57,HETHERINGTON GROUP PRACTICE,-0.12823,51.460932
144.47000000000003,SELHURST MEDICAL PRACTICE,-0.088969,51.390012
710.29,THE WATERFIELD PRACTICE,-0.733923,51.409204
247.03,JERICHO HEALTH CENTRE,-1.265958,51.760293
502.82,PONTESBURY MEDICAL PRAC,-2.887922,52.650521
712.26,TUTBURY HEALTH CENTRE,-1.686361,52.858454
524.3600000000001,TEAN SURGERY,-1.988036,52.954415
365.9500000000001,WAKE GREEN SURGERY,-1.883357,52.446103
490.58,THORNLEY STREET MEDICAL CENTRE,-2.125789,52.58843
497.4,MEREPARK MEDICAL CENTRE,-2.300747,53.093285
720.9300000000003,RAINHILL VILLAGE SURGERY,-2.763813,53.41631
306.53,MILE LANE HEALTH CENTRE,-2.335248,53.587814
216.69000000000003,NEW ISLINGTON MEDICAL CENTRE,-2.219472,53.4829
922.38,CLARENDON MEDICAL CENTRE,-2.079951,53.45264
318.5,BRAITHWAITE RD SURGERY,-2.574985,53.477412
391.43,WOODGRANGE MEDICAL PRACTICE,0.025253,51.548596
316.1,JARVIS MEDICAL PRACTICE,-2.095095,53.537786
152.97,DR SP TALPAHEWA,-0.260303,51.616115
5.11,IC24 LTD (NORFOLK & WISBECH OOH),0.891514,51.129106
343.83,BRANDON MEDICAL PRACTICE,0.6233,52.448489
229.03,BOLTON MEDICAL CENTRE,-2.431399,53.56543
298.69000000000005,THE MANSELL ROAD PRACTICE,-0.358969,51.525654
555.57,WESTCROFT HEALTH CENTRE,-0.795699,52.006367
46.37,FOUNDATIONS,-1.257899,54.563441
1.61,(FRACTURE CLINIC) NORTH OOH,-0.883829,52.236068
167.01,READING WALK-IN HEALTH CENTRE,-0.9758960000000002,51.454809
33.71,MERSEYCARE NHS TRUST - NMP,-2.933499,53.407265
4.69,BRADFORD DISTRICT CARE TRUST,-1.788605,53.839675
0.23,PUBLIC HEALTH SERVICES,0.020377,51.403879
4.55,CORRINGHAM HUB,0.42690200000000006,51.513843
1.6,NORTH TYNESIDE CARE PLUS,-1.456596,55.011193
0.93,8 TO 8 TOP-UP HUB QMH,0.101687,51.419041
1043.27,LOWTHER MEDICAL CENTRE,-3.586392,54.545056
726.5899999999998,COLLEGE LANE SURGERY,-1.336292,53.644573
771.26,THE SURGERY CLIFTON ROAD,-1.737497,53.013356
338.96,THE ORCHARD MED PRACTICE,-1.231693,52.533972
2332.88,MUNRO MEDICAL CENTRE,-0.147427,52.794037
920.14,MOSBOROUGH HEALTH CENTRE,-1.364873,53.325238
744.7799999999999,ORCHARD SURGERY MELBOURN,0.020092,52.080651
1337.65,HIGH STREET SURGERY,1.756043,52.482123
650.39,ANDAMAN SURGERY,1.715485,52.45691600000001
2147.23,STANMORE MEDICAL GROUP,-0.204612,51.913274
1023.8300000000003,PUCKERIDGE & STANDON SURGERY,0.019374,51.888296
1070.24,KING GEORGE SURGERY,-0.206096,51.907416
609.03,COMMONWEALTH HEALTH CENTRE,0.36308,51.463166
545.6800000000001,KEATS GROUP PRACTICE,-0.17103,51.555534
741.43,BURNT ASH SURGERY,0.009913000000000002,51.452782
751.3899999999999,HILLVIEW MEDICAL CENTRE,-0.557727,51.315501
860.2900000000003,DOWNING STREET GROUP PRACTICE,-0.7989009999999998,51.212905
197.58,ASHBURTON PARK MEDICAL CENTRE,-0.064221,51.384147
834.47,TAMWORTH HOUSE MEDICAL CENTRE.,-0.146254,51.40122
904.17,PARKSIDE PRACTICE,-1.353169,50.970948
483.41,ST.PETERS SURGERY,-1.372792,50.897829
140.84,NEATH HILL HEALTH CENTRE,-0.747321,52.060411
449.1,BATHEASTON MEDICAL CENTRE,-2.317387,51.406032
723.08,DARTMOUTH MEDICAL PRACTICE,-3.580811,50.351157
910.17,DARTFORD EAST HEALTH CENTRE,0.236914,51.440747
726.17,CHURCH STREET PRACTICE,-0.459783,51.37345
557.82,THE GREYSWOOD PRACTICE,-0.144853,51.419489
441.56,BOLINGBROKE MEDICAL CENTRE (THMP),-0.168282,51.45617
356.14,LEYBOURNE SURGERY,-1.88721,50.758437
716.8200000000002,THE BORDER PRACTICE,-0.740565,51.240995
669.54,PATFORD HOUSE PARTNERSHIP,-2.005519,51.437601
468.2699999999999,CHATHAM STREET SURGERY,-0.981895,51.455924
1007.41,THE CROSS KEYS PRACTICE,-0.830848,51.723655
668.69,WHITELADIES MEDICAL GROUP,-2.612382,51.465097
548.4000000000001,HILLCREST SURGERY,-2.431687,51.311982
792.7600000000001,DEVON SQUARE SURGERY,-3.60508,50.529985
416.05,ESTOVER SURGERY,-4.0952,50.411271
882.48,THE ROYAL WELL SURGERY,-2.0815,51.906706
391.49,APSLEY SURGERY,-2.187008,53.035377
633.02,THE LIMES SURGERY MEDICAL CENTRE,-2.114052,52.456884
366.52,ASHFIELD ROAD SURGERY,-2.132841,52.62604399999999
621.15,NORTHGATE MEDICAL CENTRE,-2.892972,53.19509300000001
882.83,RIVERSIDE SURGERY,-3.006197,53.372004
556.05,LAYTON MEDICAL CENTRE,-3.027291,53.827425
936.6600000000003,HT PRACTICE,-2.110496,53.478305
324.42999999999995,WESTLEIGH MEDICAL PRACTICE,-2.526024,53.510851
64.19,MEDICUS HEALTH PARTNERS-CURZON AVENUE,-0.036518,51.645435
279.28000000000003,WINDMILL SURGERY,-1.48555,52.449933
350.1700000000001,ARNOS GROVE MEDICAL CENTR,-0.129838,51.615476
76.04999999999998,ST.QUINTIN HEALTH CENTRE,-0.220325,51.519199
11.6,GPSI DERMATOLOGY SERVICE BUCKDEN HUNTS,-0.254174,52.291764
422.36,PARK COMMUNITY PRACTICE,-1.871717,53.725678
141.21,NT&H COMM CARDIAC N,-1.227837,54.702398
21.39,CAMDEN COMMUNITY NURSING,-0.131658,51.53665
3.02,CHELTENHAM LOCALITY NURSE PRESCRIBER,-2.176389,51.847073
208.72000000000003,CARDIAC SERVICE STOKE AND NORTH,-2.109085,52.810605
1.0,COMMUNITY DERMATOLOGY SOUTHWARK GSTT,-0.08679399999999998,51.503466
1.0,CHESTERFIELD HEALTH PROVIDER LTD,-1.43962,53.233943
203.53000000000003,MELROSE SURGERY,-1.287301,54.609397
688.15,BLACKETTS MEDICAL PRACTICE,-1.559007,54.527221
270.41,DR A SINHA,-0.108523,53.567689
697.0,WILLINGTON SURGERY,-1.566835,52.850285
512.21,UPWELL STREET SURGERY,-1.434724,53.406424
599.7600000000001,LAKENHAM SURGERY,1.296577,52.6183
702.6,MANOR FARM MEDICAL CENTRE,0.690513,52.648544
679.33,PLOWRIGHT MEDICAL CENTRE,0.686691,52.655577
703.72,REGAL CHAMBERS SURGERY,-0.275959,51.952843
337.7399999999999,STANHOPE SURGERY,-0.032073,51.688002
379.53,THE GARWAY MEDICAL PRACTICE,-0.185494,51.515392
1059.8,BEECHWOOD SURGERY,0.292731,51.608567
751.2299999999998,THE NIGHTINGALE PRACTICE,-0.062434,51.558261
407.12,THE GRAHAM PRACTICE,0.048721,51.541534
511.33,ISLAND HEALTH,-0.013513,51.495357
768.9099999999999,STANFORD MEDICAL CENTRE,-0.148293,50.838378
1090.25,NEWINGTON ROAD SURGERY,1.399222,51.343459
1078.27,BELVEDERE MEDICAL CENTRE,0.144376,51.482567
1538.8299999999995,ST.LAWRENCE SURGERY,-0.390026,50.823979
1427.5200000000007,MID SUSSEX HEALTH CARE,-0.175279,50.933719
687.73,THE WHITELEY SURGERY,-1.266072,50.88262
3089.7500000000014,ACORN HEALTH PARTNERSHIP,-1.114058,51.245047
3865.489999999999,PORTSDOWN GROUP PRACTICE,-1.080952,50.812876
1332.9500000000005,THE ELMS PRACTICE,-0.976476,50.789794
719.2900000000002,ESPLANADE SURGERY,-1.158697,50.731943
393.25999999999993,GLASTONBURY HEALTH CENTRE,-2.712893,51.148733
1614.14,MAYFIELD SURGERY,-2.13456,52.982709
521.81,BRIDGE MEDICAL,-1.506726,55.038077
173.78,WINDSOR MEDICAL CENTRE,-1.622157,53.693875
668.69,ASHBOURNE MEDICAL PRACTICE,-1.737589,53.012862
827.6,THE UPPINGHAM SURGERY,-0.723557,52.594972
994.04,ABBEY MEDICAL GROUP,-1.119194,53.100674
697.06,LOWMOOR ROAD SURGERY,-1.244634,53.100062
977.7900000000002,BIRLEY HEALTH CENTRE,-1.396985,53.340317
954.72,PARKFIELD MEDICAL CENTRE,-0.179588,51.695129
464.25000000000006,REDWOOD PRACTICE,-0.359614,51.461125
208.39,SUNRISE MEDICAL CENTRE,-0.382255,51.51087
1004.9500000000003,THE THORPE BAY SURGERY,0.757986,51.534599
216.79,HOLBORN MEDICAL CENTRE,-0.118539,51.522233
370.62,BRICK LANE SURGERY,-0.048612,51.657327
291.29,ABBEY COURT,0.26122,51.137755
341.39,ELM LODGE SURGERY,-0.096232,51.451506
689.0400000000002,HUDSON (SEYMOUR HOUSE),-0.292773,51.462401
650.3599999999999,OPEN DOOR SURGERY,-0.155581,51.443166
666.2099999999998,THE LIGHTHOUSE GROUP PRACTICE,-1.0805049999999998,50.796551
988.41,THE ORCHARD PARTNERSHIP,-1.865867,51.077878
1167.98,WHADDON MEDICAL CENTRE,-0.7662759999999998,52.000308
516.37,SONNING COMMON HEALTH CTR,-0.982114,51.515603
1300.7099999999996,LANDER MEDICAL PRACTICE,-5.055864,50.259982
380.16,BROSELEY MEDICAL PRACTICE,-2.481266,52.611554
200.41,BONEY HAY SURGERY,-1.926768,52.690328
434.59,BEECH TREE MEDICAL PRACTICE,-1.252936,52.377534
478.28,ALUM ROCK MEDICAL CENTRE,-1.850664,52.489901
554.0,GREENFIELD MEDICAL CENTRE,-1.855764,52.491684
330.87999999999994,THE SURGERY,-2.605295,53.024859
540.7399999999999,PARKGATE SURGERY,-2.882743,53.564772
453.1,MARPLE MEDICAL PRACTICE,-2.064954,53.39495
1.51,WORKINGTON HEALTH LIMITED,-3.551342,54.642687
106.12,CLOVER CITY PRACTICE,-1.46659,53.38187
1.54,NEWARK ACUTE HOME VISITING SERVICE,-1.238124,52.98146
576.05,ASPATRIA MEDICAL GROUP,-3.337992,54.762123
1652.0,WILLIAM BROWN CENTRE,-1.33142,54.757994
481.47,WELLSPRING MEDICAL PRACT.,-1.564066,55.037289
320.8900000000001,RED HOUSE MEDICAL CENTRE,-1.424063,54.925457
858.67,COLNE VALLEY GROUP PRACTICE,-1.9282130000000002,53.602096
228.66,FAMILY DOCTORS,-1.440964,53.798248
884.18,ROYSTON GROUP PRACTICE,-1.451018,53.600005
285.25,SOUTHEY GREEN MEDICAL CTR,-1.477666,53.419051
850.9299999999998,IVRY STREET MEDICAL PRACTICE,1.148624,52.064021
544.25,NORTH FULHAM SURGERY,-0.199224,51.486415
93.90000000000002,FULHAM CROSS MEDICAL CENTRE,-0.214067,51.482774
118.42,LAI CHUNG FONG QUEENS PARK HEALTH CENTRE,-0.205826,51.530911
768.9700000000001,NEWBURY GROUP PRACTICE,0.085981,51.576435
2063.14,HARDWICKE HOUSE GROUP PRACTICE,0.725792,52.0382
1283.7000000000005,WHEATFIELD SURGERY,-0.495144,51.904445
498.05,BRAMPTON HEALTH CENTRE,-0.277386,51.586099
251.52,DOCKLANDS MEDICAL CENTRE,-0.021143,51.491152
1025.69,BELMONT SURGERY,0.340829,51.061952
257.5,LONG CATLIS ROAD SURGERY,0.595579,51.348325
643.3499999999998,ABBEY WOOD SURGERY,0.11653,51.497094
450.39,WOOLSTONE MEDICAL CENTRE,-0.036776,51.438421
677.14,MINET GREEN HEALTH PRACTICE,-0.105204,51.475715
566.9400000000002,SOUTHGATE MEDICAL GROUP,-0.194559,51.102316
1109.9299999999996,NEW ADDINGTON GROUP PRACTICE,-0.018557,51.344382
363.73,BANBURY ROAD MEDICAL CENTRE,-1.263535,51.774771
2093.37,THE ARMADA FAMILY PRACTICE,-2.571861,51.413438
944.92,STAFFORD MEDICAL GROUP,-2.914755,51.35259
531.6200000000001,BROCKWORTH SURGERY,-2.156696,51.844575
1552.89,SEVERN VALLEY MEDICAL PRACTICE,-2.235045,52.190415
1256.5500000000004,DAWLEY MEDICAL PRACTICE,-2.466781,52.664322
853.33,LEEK HEALTH CENTRE,-2.019347,53.105691
573.4799999999998,CHASE MEADOW HEALTH CENTRE,-1.608604,52.268838
81.17,HILL TOP PRACTICE,-2.011775,52.537791
261.34000000000003,MAGHULL HEALTH CENTRE (DR SAPRE),-2.943932,53.515597
476.57000000000005,LIME SQUARE MEDICAL CENTRE,-2.164901,53.473649
130.32,WINDERMERE SURGERY,-2.205709,53.55956
473.45,BEESTON VILLAGE SURGERY,-1.569152,53.772415
93.29,HATTON MEDICAL PRACTICE,-0.433285,51.457879
304.91,BLURTON MEDICAL CENTRE,-2.156565,52.972002
1.93,GREAT CHAPEL STREET MEDICAL CENTRE,-0.134097,51.51508
0.5,HASTINGS AND ROTHER OOH,0.891514,51.129106
1207.15,BIRBECK MEDICAL GROUP,-2.742581,54.656125
248.49,BEWICK ROAD SURGERY,-1.601653,54.956398
557.54,WENLOCK ROAD SURGERY,-1.455226,54.972635
1168.89,WINTERTON MEDICAL PRACTICE,-0.606876,53.652511
419.21,THE OLD SCHOOL MEDICAL PRACTICE,-1.1424040000000002,53.916163
736.8,KEIGHLEY ROAD SURGERY,-1.893907,53.754239
974.93,MULBERRY STREET MEDICAL PRACTICE,-1.66397,53.794738
621.4199999999998,CHATSWORTH ROAD MEDICAL CENTRE,-1.467337,53.231374
534.5800000000002,CRICH MEDICAL PRACTICE,-1.482573,53.084327
562.24,MEXBOROUGH HEALTH CENTRE,-1.279795,53.494237
1084.91,ST VINCENT MEDICAL CENTRE,-1.124029,53.525476
751.3500000000001,LUDHAM AND STALHAM GREEN SURGERIES,1.534423,52.709131
0.32,HAVEN COURT,-1.428468,54.971208
499.45000000000016,BENTHAM ROAD HEALTH CENTRE,-2.50627,53.73058399999999
1.0,ROTHERHAM HOSPICE,-1.340784,53.424046
461.49,CRESWELL AND LANGWITH MEDICAL CENTRE,-1.215835,53.262654
30.42,UHMB COMMUNITY NMP,-2.799232,54.042726
975.45,NORWOOD MEDICAL CENTRE,-3.222974,54.119201
556.09,BEECHWOOD GROUP PRACTICE,-3.545472,54.642376
1141.14,DENMARK STREET SURGERY,-1.552252,54.538825
1046.9800000000002,WELL CLOSE MEDICAL GROUP,-2.006127,55.77245799999999
824.25,PALLION FAMILY PRACTICE,-1.414195,54.908604
343.21,PICTON MEDICAL CENTRE,-1.77624,53.807296
916.2,PARKSIDE MEDICAL CENTRE,-0.021998,52.981526
2002.81,ORCHARD MEDICAL PRACTICE,-1.206764,53.141121
981.24,THE BURNS PRACTICE,-1.12309,53.520707
601.3399999999998,WINCOBANK MEDICAL CENTRE,-1.416316,53.419405
65.56,UEA MEDICAL CENTRE,1.241391,52.622369
522.92,THE VILLAGE SURGERY,-0.168135,51.648069
167.72,THE STREATFIELD MEDICAL CENTRE,-0.30083,51.595343
221.72000000000003,THE CHELSEA PRACTICE,-0.166915,51.486814
3809.0000000000014,ST. BARTHOLOMEWS SURGERY,0.051755,51.532409
1031.74,RYDAL,0.020102,51.608432
926.19,GROSVENOR & ST JAMES MEDICAL CENTRE,0.264349,51.137424
386.3399999999999,KING GEORGE ROAD SURGERY,0.518518,51.348911
198.04,THE THREE ZERO SIX MEDICAL CENTRE,-0.076403,51.450741
409.12,VIRGINIA WATER MEDICAL PRACTICE,-0.568235,51.403367
405.74,NEW OTTERSHAW SURGERY,-0.526005,51.361938
234.39,THE ALTON PRACTICE,-0.239471,51.44914
3725.4400000000014,THE WILLOW GROUP,-1.143034,50.800579
952.97,ALEXANDER HOUSE SURGERY,-0.7520019999999998,51.293749
989.4099999999997,RIDGEWAY VIEW FAMILY PRACTICE,-1.7915709999999998,51.524175
745.32,GREEN MEADOWS SURGERY,-0.677163,51.426939
617.79,PORT VIEW SURGERY,-4.214351,50.40735
1007.82,CHURCHDOWN SURGERY,-2.171559,51.882487
827.29,STANMORE HOUSE SURGERY,-2.231468,52.391138
940.52,WARGRAVE HOUSE SURGERY,-2.712261,52.055418
451.96,VENTNOR MEDICAL CENTRE,-1.203791,50.594548
704.99,THE HALL PRACTICE,-0.561016,51.606986
763.41,WEST VIEW SURGERY,-2.50212,51.411923
689.97,HARTLAND SURGERY,-4.482549,50.992721
900.0499999999998,STATION DRIVE SURGERY,-2.715141,52.370132
1800.4999999999993,SOLIHULL HEALTHCARE PARTNERSHIP,-1.775235,52.419642
539.1800000000001,CONCEPT HOUSE SURGERY,-2.98492,53.449136
927.0,ADELAIDE STREET SURGERY,-3.048397,53.817351
639.17,LOCKWOOD GP SURGERY,-2.989833,53.850947
131.06,CAVENDISH HEALTH CENTRE,-0.148092,51.519331
564.94,BROWNLOW GROUP PRACTICE,-2.96585,53.405021
309.3300000000001,HEATHROW MEDICAL CENTRE,-0.433924,51.49302
557.2900000000001,THE ENTERPRISE PRACTICE,-0.320613,51.601113
660.24,ODDFELLOWS HALL & ST CLEMENTS,0.327906,51.480703
8.96,COMMUNITY GERIATRICIAN SERVICE,-1.568473,53.81497099999999
793.9499999999998,CHAUCER SURGERY,-1.45237,52.515151
539.8,THE ENDEAVOUR PRACTICE,-1.235397,54.575047
893.6899999999998,THE LAKES MEDICAL PRACTICE,-2.742581,54.656125
414.57,EAST PARADE SURGERY,-1.529793,53.996354
320.88999999999993,FIELDHEAD SURGERY,-1.639379,53.831787
333.55,BASLOW HEALTH CENTRE,-1.617823,53.246144
968.91,OSMASTON SURGERY,-1.467954,52.911084
188.98,ASQUITH SURGERY,-1.117116,52.601489
1169.96,HOLBEACH MEDICAL CENTRE,0.014430000000000002,52.804778
415.89,YEADING MEDICAL CENTRE,-0.397019,51.533634
151.63000000000005,MAYFAIR MEDICAL CENTRE,-0.150172,51.513536
712.19,SUN LANE,1.087469,51.071536
433.07,LYDDEN SURGERY,1.23991,51.163193
460.23,THE CHURCH VIEW PRACTICE,0.609995,51.363412
1119.16,TRIANGLE GROUP PRACTICE,-0.011071,51.457798
769.25,SELSDON PARK MEDICAL PRACTICE,-0.06457300000000002,51.342409
503.99,LAMBOURN SURGERY,-1.526933,51.504696
1121.61,BICESTER HEALTH CENTRE,-1.157239,51.896742
807.13,FOWEY RIVER PRACTICE,-4.635394,50.337915
979.96,KNOWLE HOUSE SURGERY,-4.134098,50.40863
880.5699999999998,HOLTS HEALTH CENTRE,-2.406966,51.931555
1167.65,CUMBERLAND HOUSE,-2.145844,52.901549
1062.68,BILBROOK MEDICAL CENTRE,-2.181749,52.624775
368.07000000000005,VALE OF RED HORSE,-1.510351,52.15797
1435.65,BALSALL COMMON & MERIDEN GROUP PRACTICE,-1.643862,52.394956
518.08,LANCE LANE MEDICAL CENTRE,-2.911916,53.396196
310.2100000000001,DR A GUPTA BENIM MEDICAL CENTRE,-2.947804,53.419395
962.5,DINAS LANE MEDICAL CENTRE,-2.861513,53.417388
2889.21,LANCASTER MEDICAL PRACTICE,-2.797202,54.047583
132.56,DR GWD BHIMA,-2.154239,53.611617
1004.52,RIVERSIDE MEDICAL CENTRE,-2.672299,53.748112
370.31,LITTLETOWN FAMILY MED PRACT,-2.134298,53.529137
693.18,NEW COURT SURGERY,-2.30878,52.113538
346.6,THE BARHAM & CLAYDON SURGERY,1.109866,52.110175
618.42,SWANWOOD PARTNERSHIP,0.519034,51.613356
112.79,NIGHTINGALE HOUSE,-0.159747,51.449354
256.16,CROWN WOOD MEDICAL CENTRE,-0.736934,51.395919
2.41,CITY REACH HEALTH SERVICES,1.288137,52.633042
732.2499999999997,THE JUNCTION SURGERY,-1.759212,53.643662
33.18000000000001,DORKING HEALTHCARE LLP,-0.333421,51.225985
0.98,BADGER GROUP OOH,-1.8778259999999998,52.477589
16.73,DURNFORD DERMATOLOGY CATS,-2.197033,53.554038
263.08,GREAT BRIDGE HEALTH CENTRE,-2.02775,52.527792
27.93,PELC REDBRIDGE OOH,0.066648,51.55684
1.44,BCH URGENT CARE CENTRE,-2.583357,51.412858
55.31,NON MEDICAL PRESCRIBING SOUTHEND CCG,0.702782,51.583955
203.31,COMMUNITY NURSING (SOUTH TEES),-1.215564,54.570237
3.37,WEST HERTS RESPIRATORY SERVICE,-0.468578,51.750846
1.51,DARLINGTON PALLIATIVE CARE,-1.567053,54.529074
472.09,GREENWOOD SURGERY,0.605168,51.653143
11.7,EN HERTS ACUTE IN-HOURS VISITING SERVICE,-0.191727,51.782567
281.7100000000001,MERTON CCG-CLCH (NMP),-0.199155,51.47377
1.51,GP SERVICES - GP HUBS,-0.175734,51.240416
719.6400000000001,MIDDLE CHARE MEDICAL GROUP,-1.573113,54.855636
426.71,I J HEALTHCARE,-1.531354,54.88104
263.47,OAK GLEN SURGERY,-1.816352,53.854799
985.72,WELLINGTON HOUSE,-1.634561,53.714775
830.3299999999998,SKELMANTHORPE FAMILY DOCTORS,-1.650686,53.591604
1109.06,LEIGH VIEW MEDICAL PRACTICE,-1.558358,53.728574
185.2,OAKWOOD SURGERY,-1.4290459999999998,52.941386
470.83,THE KAKOTY PRACTICE,-1.473444,53.5464
249.98,PHOENIX PRIMARY CARE (SOUTH) LTD,-0.435422,51.918016
638.1600000000002,GILDERSOME HEALTH CENTRE,-1.6293,53.756554
728.6899999999998,HAZELMERE MEDICAL CENTRE,-1.16453,52.57337
632.87,BURNGREAVE SURGERY,-1.459815,53.393327
521.0500000000002,FELTWELL SURGERY,0.527056,52.48268
841.6999999999998,QUEENS PARK HEALTH CENTRE,-0.493075,52.133151
449.26,ALBANY PRACTICE,-0.310054,51.48676
333.69,CASSIDY ROAD MEDICAL CENTRE,-0.199015,51.479154
2711.1500000000005,COLCHESTER MEDICAL PRACTICE,0.909325,51.890029
343.04,ROWHEDGE SURGERY,0.945058,51.85767
353.11,DR VM PATEL,0.228776,51.561113
141.11000000000004,THE HEATHCOTE PRIMARY CARE CENTRE,0.062768,51.593832
428.09,ESHER GREEN SURGERY,-0.370196,51.375782
167.75,CHILDS (THAMESIDE),-0.326599,51.427449
1132.88,THE CHESSER SURGERY,-0.177303,51.374927
817.4599999999998,MOREDON MEDICAL CENTRE,-1.8070689999999998,51.582197
839.9299999999998,ASHFIELD MEDICAL CENTRE,-0.7382729999999998,52.019666
899.5499999999998,BUGBROOKE MEDICAL PRACTICE,-1.005426,52.211409
828.5499999999998,TRESCOBEAS SURGERY,-5.085333,50.15531
438.93,BUDSHEAD MEDICAL PRACTICE,-4.150289,50.417443
473.00999999999993,TEIGN ESTUARY MEDICAL GROUP,-3.496462,50.5456
605.9900000000001,MITCHELDEAN SURGERY,-2.488369,51.865935
742.95,LUSON,-3.229566,50.977398
1060.11,HARESFIELD HOUSE SURGERY,-2.202996,52.194829
213.29,HEDNESFORD MEDICAL PRACTICE,-2.000697,52.71233
1056.85,LAUREL HOUSE SURGERY,-1.692825,52.636563
1092.9199999999996,HANDSWORTH WOOD MED.CTR.,-1.928196,52.51303299999999
196.41000000000003,ROTTON PARK MEDICAL CENTRE,-1.947079,52.482162
654.71,LONGFORD PRIMARY CARE CENTRE,-1.48555,52.449933
1331.4799999999998,TETTENHALL MEDICAL PRACTICE,-2.159502,52.600723
1654.6200000000006,READESMOOR MEDICAL GROUP PRACTICE,-2.216792,53.163762
756.7099999999998,NEWTOWN SURGERY,-2.735705,53.362158
1751.99,ROPE GREEN MEDICAL CENTRE,-2.453958,53.06655
359.4,PENNY LANE SURGERY,-2.915004,53.389404
465.43,ABINGDON FAMILY HEALTH CARE CENTRE,-2.943503,53.440571
1360.01,WINGATE MEDICAL CENTRE,-2.874647,53.488385
1666.62,AINSDALE MEDICAL CENTRE,-3.03882,53.602403
192.06,CORNERSTONE SURGERY,-2.457402,53.58815500000001
535.06,BARLBOROUGH MEDICAL PRACTICE,-1.284471,53.289528
160.62000000000003,VICTORIA PARK HEALTH CENTRE,-1.1192,52.619071
410.77,THE WRAGBY SURGERY,-0.301337,53.287948
1320.37,SOUTH GRANGE MEDICAL GROUP PRACTICE,-1.166506,54.56995500000001
619.49,QUEEN STREET MEDICAL PRACTICE,-3.589063,54.546567
277.90000000000003,OLD FORGE SURGERY,-2.079758,54.623041
218.95,EGTON SURGERY,-0.7552379999999999,54.445555
501.41,VESPER ROAD,-1.615337,53.827318
397.38,GLADSTONE HOUSE SURGERY,-1.307927,52.968816
741.3600000000001,THE PRACTICE-SAYEED,-1.106589,52.63081700000001
1186.32,GLEADLESS MEDICAL CENTRE,-1.451325,53.356551
567.75,TRAMWAYS AND MIDDLEWOOD MEDICAL CENTRES,-1.515268,53.418958
440.79,LANGSTONE WAY SURGERY,-0.210815,51.606981
341.18999999999994,ELMTREES SURGERY,-0.335968,51.550787
1634.7399999999998,TULASI MEDICAL CENTRE,0.12448900000000002,51.561005
529.6700000000001,THE MILLER PRACTICE,-0.092165,51.551419
807.84,WARRIOR SQUARE SURGERY,0.562007,50.852963
1009.48,SNODLAND MEDICAL PRACTICE,0.441488,51.326053
528.99,SUTTON VALENCE GROUP PRACTICE,0.59403,51.211195
785.8800000000001,LEITH HILL PRACTICE,-0.322969,51.150452
954.49,THE GROVES MEDICAL CENTRE,-0.26224,51.410048
893.5299999999999,THE MARINE & OAKRIDGE PARTNERSHIP,-1.806532,50.722838
331.5100000000001,MALTHOUSE MEADOWS SURGERY,-2.568038,50.668698
639.1700000000002,THE STAUNTON SURGERY,-0.978019,50.851067
776.1999999999998,PORT ISAAC SURGERY,-4.824594,50.589808
566.85,THE CORINTHIAN SURGERY,-2.0815,51.906706
1096.9,ST JOHNS HOUSE SURGERY,-2.25911,52.18874
517.42,CASTLEFIELDS,-2.129518,52.801013
494.83,ADDERLEY GREEN SURGERY,-2.135511,52.991714
463.57000000000005,HARBURY SURGERY,-1.458027,52.236759
267.7,DR BILAS,-2.063063,52.612824
3.5,HOSP.OF THE GOOD SHEPHERD,-2.901692,53.242544
812.5599999999998,BLUNDELLSANDS SURGERY,-3.041273,53.484452
1099.7299999999998,QUEEN SQUARE MEDICAL PRACTICE,-2.800994,54.046219
203.06,DILL HALL SURGERY,-2.390844,53.754996
690.9800000000001,WEST TIMPERLEY MEDICAL CENTRE,-2.353117,53.402699
539.2800000000001,MARUS BRIDGE PRACTICE,-2.643772,53.529393
369.58,SUMMERLEE MEDICAL CENTRE,-0.652145,52.337022
36.53,HEALTH E1,-0.07152500000000002,51.518304
235.24000000000004,SLAG LANE MC,-2.575634,53.47856899999999
173.99,THE GRANGE MEDICAL CENTRE,-0.262039,52.57839
73.93,CAXTON HOUSE SURGERY,-1.382415,53.575347
513.91,WESTCOTES MEDICAL CENTRE,-1.153587,52.63133199999999
1.26,PRIMARY HEALTHCARE DARLINGTON,-1.561958,54.528141
1.13,WEST MERTON ACCESS HUB,-0.210281,51.409967
1.51,DERBY CITY SOUTH HEALTHCARE LTD,-1.531656,52.891817
529.32,REDGATE MEDICAL CENTRE,-2.987659,51.126385
537.0300000000001,GREAT WITLEY SURGERY,-2.361004,52.291152
778.6099999999999,MADELEY PRACTICE,-2.345126,52.999856
514.43,GREEN RIDGE SURGERY,-1.8710349999999998,52.428433
524.6500000000001,RIVER BROOK MEDICAL CENTRE,-1.913809,52.43303
550.99,BUNBURY MEDICAL PRACTICE,-2.649377,53.116827
404.21,MURDISHAW,-2.662128,53.323997
479.88,ROCK COURT SURGERY,-2.916187,53.411597
626.5799999999998,POPLAR HOUSE SURGERY,-3.03076,53.754721
871.39,QUEENSWAY MEDICAL CENTRE,-2.995384,53.846569
917.29,CASTLETON HEALTH CENTRE,-2.18229,53.597034
606.9899999999999,HAVEN HEALTH,1.327039,51.96536
709.7000000000002,DR KK CHAN & PARTNERS,-2.489022,53.524185
56.45,DANEHOUSE MEDICAL PRACTICE,-2.238948,53.791326
646.35,SWANSWELL MEDICAL CENTRE,-1.816529,52.432515
247.55,DR MALIK - KENT ELMS HC,0.664114,51.563831
370.1,CITY ROAD MEDICAL CENTRE,-0.091116,51.527895
1.61,SALFORD GP OUT OF HOURS,-2.323424,53.487545
13.96,LEICESTER CITY ASSIST PRACTICE,-1.136115,52.637338
386.87000000000006,BOTOLPH BRIDGE COMMUNITY HEALTH CENTRE,-0.261557,52.562595
119.09,SHORTSTOWN MEDICAL CENTRE,-0.432463,52.110853
9.95,MK URGENT CARE SERVICES OOH,-0.7357599999999997,52.026384
37.85,NOTTINGHAM CITYCARE,-1.155769,52.951832
985.61,THE HAWTHORNS SURGERY,-1.825965,52.538746
882.31,PARK HOUSE MEDICAL CENTRE,-2.805295,53.42670699999999
584.01,SOUTH KING STREET MEDICAL CENTRE,-3.047855,53.816775
493.7300000000001,DR A CALOW'S PRACTICE,-2.503837,53.742584
585.3000000000002,GUTTERIDGE MEDICAL CENTRE,-2.691248,53.769881
538.9100000000001,ST MARY'S MEDICAL CENTRE,-2.108554,53.543625
959.34,CHEADLE MEDICAL PRACTICE,-2.213539,53.393745
597.02,GREEN STREET GREEN MED CT,0.089996,51.354366
283.9100000000001,3/ST ANDREWS MEDICAL CENTRE,-2.339619,53.484875
457.13,HORIZON HEALTH CENTRE,-2.965121,51.331294
17.920000000000005,ANN MARIE HOWES CENTRE,-1.7785380000000002,52.464805
111.28000000000002,BLACKFRIARS,-2.254244,53.484135
79.44,FIRST COMMUNITY HEALTH & CARE,-0.170767,51.235608
42.37,BEDSER HUB,-0.556304,51.315132
2.03,HARROW RAPID RESPONSE SERVICE,-0.294546,51.596988
7.9,AIREBOROUGH COMMUNITY CARE,-1.684881,53.866663
331.88000000000005,CALDBECK SURGERY,-3.050622,54.749864
612.36,OXFORD STREET SURGERY,-3.5505760000000004,54.64373
53.94,WRAYSDALE HOUSE SURGERY,-3.076077,54.367247
1134.7,SAVILLE MEDICAL GROUP,-1.609598,54.976095
404.75,COOK BF,-0.357512,53.780969
283.08,PEELER HOUSE SURGERY,-0.438756,53.72252
597.4300000000002,DR INGRAM & PTRS,-1.526892,54.136451
1418.84,LINGWELL CROFT SURGERY,-1.535053,53.749986
1148.3099999999995,HOUNSFIELD SURGERY,-0.811033,53.183702
428.46,LENSFIELD MEDICAL PRACTICE,0.124449,52.198365
645.09,CEDAR BROOK PRACTICE,-0.41413199999999994,51.534092
2.0,THE ROYAL MEWS SURGERY,-0.145223,51.498764
856.76,ROSE VILLA SURGERY,0.506616,51.566232
548.02,ADELAIDE MEDICAL CENTRE,-0.161257,51.543548
177.54999999999995,DR DHITAL PRACTICE,-0.003074,51.587786
304.17,HOLLINGTON SURGERY,0.872487,51.151423
946.6500000000002,WOODLANDS HEALTH CENTRE,0.38485,51.18077
143.04999999999995,NORHEADS LANE SURGERY,0.026739,51.314542
442.6,HARTLAND WAY SURGERY,-0.045782,51.374372
515.1300000000001,BOYATT WOOD SURGERY,-1.36001,50.977856
385.44,GREEN PRACTICE,-0.371755,51.468263
338.58,THE ABBOTSBURY PRACTICE,-0.397406,51.579266
1110.37,NUFFIELD HOUSE HEALTH CENTRE,0.112828,51.774439
801.3399999999998,MARTINS OAK SURGERY,0.483675,50.91716
296.4100000000001,THE GLEBE FAMILY PRACTICE,0.544473,51.383164
426.98,MALLING HEALTH BLUE SUITE,0.609995,51.363412
769.75,KNOLL MEDICAL PRACTICE,0.101068,51.375411
390.23,CLIFTON RISE FAMILY PRACTICE,-0.03143300000000001,51.476334
220.04,BLACKFRIARS MEDICAL PRACTICE,-0.105775,51.505364
1032.09,HASLEMERE HEALTH CENTRE,-0.707586,51.092107
877.13,FARNHAM DENE MEDICAL PRACTICE,-0.777405,51.200549
603.4000000000002,THE DORCHESTER RD SURGERY,-2.457512,50.625193
347.99999999999994,CRONDALL NEW SURGERY,-0.858386,51.237211
679.59,ST.JAMES SURGERY,-1.989956,51.352926
133.79999999999998,CORDWALLIS ROAD SURGERY,-0.7240259999999998,51.528097
1217.9300000000005,BOTLEY MEDICAL CENTRE,-1.299442,51.753753
474.18,ST. MARY'S SURGERY,-2.479869,51.326082
1127.87,QUEEN'S MEDICAL CENTRE,-4.057196,51.080161
1313.84,BRUNEL MEDICAL PRACTICE,-3.516948,50.479349
452.95,EXMOOR MEDICAL CENTRE,-3.544825,51.038507
200.22,CHADDESLEY SURGERY,-2.158038,52.361961
958.1499999999999,THE MANOR PRACTICE,-1.8236169999999998,52.55816
231.94000000000003,CHARLES ROAD SURGERY,-1.850621,52.4722
644.7900000000002,DUNCAN STREET PRIMARY CARE PARTNERSHIP,-2.126602,52.57346999999999
627.2900000000002,DR JUDE'S PRACTICE - RIVERSIDE,-2.943016,53.398876
493.77,WESTOVER SURGERY,-5.07501,50.148927
154.29,LANGTHORNE SHARMA FAMILY PRACTICE,0.0021,51.555415
286.92999999999995,THE MANOR PARK PRACTICE,0.057339,51.55393
696.55,WEST MEADS SURGERY,-0.701481,50.788299
309.35,TRENTHAM MEWS MEDICAL CENTRE,-2.189898,52.970452
216.62000000000003,WILLESDEN GREEN SURGERY,-0.216091,51.553773
210.61,THE SUMMITT PRACTICE,0.04536,51.539588
2.5,SELDOC HEALTHCARE,-0.283378,51.412517
0.17,PRUH URGENT CARE CENTRE,0.059146,51.366243
0.47,PBORO WEEKEND HOURS GP PILOT,-0.279386,52.583921
3.2,WIDNES GP EXTRA SERVICE,-2.735705,53.362158
371.98,DR THORNILEY-WALKER & PARTNERS,-1.460703,54.949762
168.44000000000003,DR U AKBAR,-1.777945,53.803569
1503.23,BROOKROYD HOUSE,-1.67818,53.707224
423.53,AIREBOROUGH FAMILY PRACTICE,-1.684881,53.866663
977.2600000000001,BUSHLOE SURGERY,-1.116921,52.583283
984.55,THE BURBAGE SURGERY,-1.361645,52.53009599999999
203.78,PASLEY ROAD HEALTH CENTRE (TK KHONG),-1.146741,52.591287
1351.5,NETTLEHAM MEDICAL PRACTICE,-0.476253,53.262865
253.58000000000004,HAROLD STREET MEDICAL CENTRE,-1.492871,53.393121
15.15,UNIVERSITY HEALTH SERVICE HEALTH CENTRE,-1.482709,53.380323
764.0,LEISTON SURGERY,1.575953,52.207708
492.2000000000001,HEATHFIELDE MEDICAL CENTRE,-0.179797,51.585238
398.09,BRENTFIELD MEDICAL CENTRE,-0.260251,51.550588
456.27,DR NAVIN KUMAR,0.70187,51.544989
186.01,RUSTON STREET CLINIC,-0.027306,51.536264
1118.25,SCHOOL HILL MEDICAL PRACTICE,0.012064,50.873469
923.39,MOTE,0.545625,51.246876
1053.2399999999998,SHEPPERTON MEDICAL PRACTICE,-0.453153,51.396402
1257.8199999999995,GRAYSHOTT SURGERY,-0.745626,51.110093
804.98,THE MANOR PRACTICE,-0.234983,50.835138
500.35,HAMPTON HILL MEDICAL CENTRE,-0.354892,51.427508
172.47,CLAPHAM JUNCTION MEDICAL PRACTICE,-0.173908,51.465969
299.11,OLD SCHOOL HOUSE SURGERY,-1.604408,51.376032
947.1599999999999,WINSCOMBE SURGERY,-2.830537,51.315196
1958.4400000000005,PEMBROKE MEDICAL GROUP,-3.560246,50.445527
260.39000000000004,PRIORY ROAD SURGERY,0.589253,50.860828
1577.38,SWANSCOMBE HEALTH CENTRE,0.28731,51.424657
353.7800000000001,ELTHAM PARK SURGERY,0.061023,51.4547
693.05,JAMES O'RIORDAN MEDICAL CENTRE,-0.212686,51.385157
1972.76,WISTARIA & MILFORD SURGERIES,-1.547285,50.760041
151.1,27 BEAUMONT STREET,-1.26216,51.755081
452.85,WIDCOMBE SURGERY,-2.354321,51.376371
1081.17,ST LUKES MEDICAL CENTRE,-3.517636,50.394313
492.46,FRITHWOOD SURGERY,-2.162379,51.729707
748.7899999999998,HILLVIEW MEDICAL CENTRE,-1.951153,52.305568
609.05,GORDON STREET SURGERY,-1.644613,52.810998
433.51,LONGTON MEDICAL CENTRE,-2.770123,53.417492
813.1000000000001,PRIMROSE SURGERY,-2.357311,53.456159
479.44,DR AHMAD & PTNRS,-2.595925,53.522279
232.05,THE OLD DAIRY HEALTH CENTRE,-0.091201,51.436586
898.62,THE ISLAND SURGERY,0.591014,51.520226
620.62,JS MEDICAL PRACTICE,-0.078706,51.589103
610.2199999999998,GATEWAY PRIMARY CARE,-1.352431,53.429997
185.49,ESSINGTON MEDICAL CENTRE,-2.056915,52.63194
289.79,SUMMERFIELD GP SURG & URGENT CARE CENTRE,-1.937353,52.487686
96.02,HAVERING CCG,0.179796,51.579247
359.9700000000001,THE WILLASTON SURGERY,-3.011643,53.292908
2.51,SOUTH KENT GROUP,1.118942,51.075872
12.46,SUTTON COMMUNITY SERVICES,-0.183642,51.380313
9.68,WHITTINGTON HEALTH (ISLINGTON),-0.139066,51.566482
3.88,ST MICHAELS HOSPICE,-1.518091,53.977242
0.93,URGENT CARE CENTRE NORTHWICK PARK HOSP,-0.322037,51.575407
597.67,STONELEIGH SURGERY,-2.770704,54.227277
222.29,BROWNEY HOUSE SURGERY,-1.670679,54.800313
1012.58,TOWNHEAD SURGERY,-2.276903,54.070534
171.31,HORNE STREET SURGERY,-1.871717,53.725678
601.25,HONLEY SURGERY,-1.791936,53.602386
723.1,GOSBERTON MEDICAL CENTRE,-0.159263,52.869915
958.62,THE MANOR SURGERY,-1.216371,52.925036
408.17,PROSPECT MEDICAL PRACTICE,1.285656,52.643921
661.5300000000002,THE GARDEN CITY PRACTICE,-0.209287,51.797151
399.3,MAPESBURY MEDICAL GROUP,-0.209473,51.551496
782.7,RIVERMEAD GATE MED.CTR.,0.472887,51.740849
318.13,ROMAN WAY MEDICAL CENTRE,-0.10550599999999999,51.544561
303.99,CHOLMLEY GARDENS SURGERY,-0.195423,51.552261
696.14,ESSEX LODGE,0.026685000000000004,51.527915
695.4300000000002,GROVELANDS MEDICAL CENTRE,-0.112028,51.620685
1721.2599999999998,HIGH GLADES MEDICAL CENTRE,0.551301,50.878354
497.08,ST JAMES' SURGERY,1.315702,51.128516
658.66,OXSHOTT MEDICAL PRACTICE,-0.360843,51.333099
635.64,BRIDGE MEDICAL CENTRE,-0.166439,51.117364
463.7600000000001,LAVENDER HILL GROUP PRACTICE,-0.15683,51.466044
797.3,THE CRANBORNE PRACTICE,-1.9192779999999998,50.919773
744.6999999999998,ST.MARY'S SURGERY,-1.397475,50.905746
819.4299999999998,NEW FOREST MEDICAL GROUP,-1.576665,50.81471
797.9399999999998,SWALLOWFIELD MEDICAL PRACTICE,-0.958531,51.378289
606.36,CHERRYMEAD SURGERY,-0.700228,51.608271
1289.9199999999996,HORFIELD HC,-2.576275,51.489998
411.4,CARNON DOWNS SURGERY,-5.091905,50.22345
481.25999999999993,WHITE HOUSE SURGERY,-1.705957,51.983554
724.51,SPRINGMEAD SURGERY  CHARD,-2.967972,50.869562
679.85,CHURCH STRETTON MEDICAL CENTRE,-2.806169,52.537286
907.48,DR KS UPTON'S PRACTICE,-1.986582,52.988358
737.35,KINGSWAY MEDICAL CENTRE,-1.289009,54.606459
442.27,WARWICK ROAD SURGERY,-2.928541,54.893858
304.43,PRUDHOE MEDICAL GROUP,-1.853822,54.96186
584.6400000000001,TALBOT MEDICAL CENTRE,-1.440661,54.973054
505.93,NOVA SCOTIA MEDICAL CNTR,-1.373051,53.747561
695.62,ARTHUR MEDICAL CENTRE,-1.422636,53.001503
599.6,WOODVILLE SURGERY,-1.5365030000000002,52.770685
1058.9299999999996,NEWBOLD VERDON MED.PRACT.,-1.34334,52.634612
774.77,PORTLAND MEDICAL PRACTICE,-0.539074,53.22371999999999
975.89,TORKARD HILL MEDICAL CTRE,-1.207389,53.029901
380.25,BAKERSFIELD MEDICAL CENTRE,-1.104957,52.960219
448.7200000000001,HIGH STREET PRACTICE,-1.458313,53.597926
840.84,VILLAGE SURGERY,-1.251934,53.39421
101.57,ALLENBY CLINIC,-0.376261,51.531514
2093.37,DR PUZEY DR KOTHARI AND DR NANDA,0.705992,51.582107
609.31,DR BAKER & PARTNERS,0.548167,51.570733
222.56,INGREBOURNE MEDICAL CENTRE,0.210579,51.600308
1025.13,THE ORDNANCE UNITY CENTRE FOR HEALTH,-0.039073,51.672653
389.9,CROUCH HALL ROAD SURGERY,-0.127301,51.579178
1105.61,CENTRAL SURGERY,-0.299929,51.390825
1183.26,ST PAUL'S SURGERY,-1.32139,51.065963
541.18,SHEET STREET SURGERY,-0.605507,51.479648
1161.71,HEDENA HEALTH,-1.204547,51.76203
575.96,BLOXHAM SURGERY,-1.372977,52.018108
778.75,KINGTON MEDICAL PRACTICE,-3.022556,52.199361
1126.48,SEVERN FIELDS MEDICAL PRACTICE,-2.721619,52.728047
442.28,SELLY OAK HEALTH CENTRE,-1.939144,52.438251
1322.9199999999996,PEELHOUSE MEDICAL PLAZA,-2.72256,53.372135
837.82,CUMBERLAND HOUSE SURGERY,-2.990437,53.638743
613.27,LANE ENDS SURGERY,-2.727014,53.770173
131.16,HOLLINS GROVE SURGERY,-2.477472,53.705346
453.75,WHITTAKER LANE MED CENTRE,-2.268645,53.528488
961.4499999999998,WEST GORTON MEDICAL PRACTICE,-2.203859,53.46720500000001
198.09000000000003,OLDHAM FAMILY PRACTICE,-2.116945,53.543824
450.69999999999993,SHAY LANE MEDICAL CENTRE (PATEL),-2.31556,53.372189
209.35,AT HOME SERVICE,-0.10603,51.438104
9.7,NMP CASTLE POINT AND ROCHFORD CCG,0.702782,51.583955
15.9,GP HUBS - GP HEALTH PARTNERS LTD,-0.266331,51.334184
0.76,SALFORD ACUTE HOME VISITING SERVICE,-2.33763,53.484827
2.51,NORTH COTSWOLDS IMPROVED ACCESS,-2.239997,51.862659
1427.5300000000007,BIRTLEY MEDICAL GROUP,-1.576441,54.891881
782.5599999999997,THE LEEDS ROAD PRACTICE,-1.535156,53.980466
452.7,APOLLO COURT MEDICAL CENTRE,-1.524816,53.542364
640.36,THE LAKESIDE PRACTICE,-1.148909,53.61549599999999
499.44000000000005,FOXHILL MEDICAL CENTRE,-1.501327,53.429911
239.82,WESTWOOD CLINIC,-0.269054,52.591395
736.3499999999998,THEOBALD MEDICAL CENTRE,-0.285584,51.661381
531.15,SUDBURY & ALPERTON MEDICAL CENTRE,-0.298046,51.536916
64.66,THE SURGERY,-0.184519,51.497627
1402.59,CHURCHILL MEDICAL CENTRE,-0.018466,51.618226
1036.43,THE CHESTERFIELD DRIVE PRACTICE,1.132012,52.07623
891.0799999999998,COMBS FORD SURGERY,0.995999,52.180181
400.50999999999993,CAULDWELL MEDICAL CENTRE,-0.472495,52.128265
829.8500000000001,PRIORY MEDICAL CENTRE,-0.50567,52.167181
689.7199999999998,HILLVIEW SURGERY,-0.318331,51.540536
205.01,DR HAFFIZ,-0.119262,51.539321
354.07,SANDRINGHAM PRACTICE,-0.067207,51.547773
82.57,ESK ROAD MEDICAL CENTRE,0.024266,51.522454
234.93,MONTPELIER SURGERY,-0.149079,50.827148
433.42,THE AVENUE SURGERY,-0.113425,50.844357
1707.2099999999996,REACH HEALTHCARE,0.52408,51.337756
417.11,SELLINDGE SURGERY,1.002785,51.103536
873.05,LAKESIDE MEDICAL,0.122454,51.496518
584.9,CAMBERLEY HEALTH CENTRE,-0.754069,51.324435
1443.7399999999993,HARBOUR VIEW HEALTHCARE,-0.27437,50.833817
705.8799999999999,NEW POND ROW SURGERY,-0.322292,50.824911
243.86,FLOOD (ESSEX HOUSE),-0.247469,51.472541
1046.07,WILSON PRACTICE,-0.966958,51.153736
615.0999999999998,WOLLASTON AND BOZEAT SURGERIES,-0.674311,52.252471
975.6400000000001,LEAP VALLEY MEDICAL CENTRE,-2.487852,51.496541
915.05,KINGSTEIGNTON MEDICAL PRACTICE,-3.597395,50.54898
456.9,ST.LEVAN SURGERY,-4.177328,50.383921
812.07,STIRCHLEY MEDICAL PRACTICE,-2.433777,52.655188
830.0699999999998,LUDLOW - PORTCULLIS,-2.715958,52.368905
681.29,BARTON,-1.725223,52.761751
551.21,RED LION SURGERY,-2.030614,52.693241
103.1,DADHANIA SURGERY,-1.491047,52.405815
281.6,ST JAMES MEDICAL PRACTICE1,-2.097323,52.514234
171.45,HAWTHORNS MEDICAL CENTRE,-1.967268,52.501507
149.84,BROWNLOW AT MARYBONE,-2.987806,53.411269
474.52,MORETON MEDICAL CENTRE,-3.110005,53.39886
316.52,LITTLE LEVER HEALTH CENTRE 1,-2.370624,53.55981800000001
263.2,WOODBANK SURGERY,-2.308802,53.60507
546.9799999999998,DRS HANIF &  BANNURU,-2.184157,53.484308
65.82,4/LOWER BROUGHTON MEDICAL PRACTICE,-2.258808,53.49359
923.37,BRINNINGTON SURGERY,-2.132367,53.427651
677.85,CONWAY ROAD MEDICAL PRACTICE,-2.303561,53.417873
354.81000000000006,DESFORD MEDICAL CENTRE,-1.296116,52.627473
117.04999999999998,DR VIJE'S SURGERY,-1.650877,52.617569
100.98,HIGHFIELD HEALTH,-1.395746,50.932777
81.56,DR R SHARMA'S PRACTICE,-0.096482,51.499125
53.15,HALF PENNY STEPS HEALTH CENTRE,-0.206044,51.526213
1517.5299999999993,NORTON MEDICAL CENTRE,-1.308737,54.588737
3407.74,CARLISLE HEALTHCARE,-2.930647,54.893714
143.78,PEEL PARK SURGERY,-1.731903,53.806791
686.55,MAYBUSH MEDICAL CENTRE,-1.489249,53.670273
743.56,THE GOLDEN BROOK PRACTICE,-1.272531,52.901553
835.12,IBSTOCK HOUSE SURGERY,-1.401818,52.684869
1183.11,RUSKINGTON SURGERY,-0.400977,53.048226
1024.1,BARNBY GATE SURGERY,-0.8049699999999999,53.074931
1473.8300000000004,DUKE MEDICAL CENTRE,-1.455657,53.378576
263.81,FALKLAND HOUSE SURGERY,-1.514423,53.359728
1263.7800000000002,PRIORY FIELDS SURGERY,-0.179856,52.332272
403.6,BOURN SURGERY,-0.063404,52.193155
445.9600000000001,COACHMANS MEDICAL PRACTICE,-0.203875,51.096335
378.2,MILTON KEYNES VILLAGE SURG,-0.697865,52.043891
520.01,DRS DE ROSA & WILLIAMS,-2.167857,52.569265
1.7799999999999998,INTERMEDIATE CARE-GP SERVICE,-2.130253,53.548188
14.09,BASSETLAW HEALTH PARTNERSHIP,-0.950634,53.325451
932.22,FIELDHOUSE MEDICAL GROUP,-0.112579,53.564436
1142.01,HEREWARD MEDICAL CENTRE,-0.380913,52.768626
676.87,SAXON CROSS SURGERY,-1.273642,52.931099
1544.4900000000002,PENISTONE GROUP PMS PRACTICE,-1.630732,53.523565
579.7299999999998,THE NAYAR PRACTICE,-1.1933790000000002,53.480824
408.99000000000007,DR RAOLU'S PRACTICE,-1.204348,53.423549
666.54,THE PARK SURGERY,1.7292759999999998,52.606218
676.49,EAST BARNET HEALTH CENTRE,-0.166424,51.646339
355.92,LANFRANC MEDICAL CENTRE,-0.332746,51.561586
572.54,THE TUDOR HOUSE MEDICAL CENTRE,-0.266689,51.564495
950.87,LABURNUM HEALTH CENTRE,0.151208,51.560662
126.9,NEW NORTH HEALTH CENTRE,-0.091592,51.537534
1012.48,HOVE MEDICAL CENTRE,-0.19539,50.845024
309.9100000000001,PRIMECARE PMS (SOUTH STREET),-0.012448,51.476194
278.78,THE GARDENS SURGERY,-0.066803,51.46061
471.53,FORT HOUSE SURGERY,-0.412578,51.37881
1013.64,OXTED HEALTH CENTRE,9.9e-05,51.257686
731.6,THE WRYTHE GREEN SURGERY,-0.171312,51.371749
428.24,THE LAWN MEDICAL CENTRE,-1.7619029999999998,51.547821
600.0999999999998,NORDEN HOUSE SURGERY,-0.882727,51.944924
144.61,ST MARY'S HEALTH CENTRE,-6.308668,49.911605
866.0799999999998,TOPSHAM SURGERY,-3.462097,50.683825
1000.21,BAMPTON SURGERY,-1.55034,51.729032
756.62,WOODLANDS MEDICAL CENTRE,-1.258898,51.603637
1339.85,PETROC GROUP PRACTICE,-4.943163,50.430739
957.53,TAVYSIDE HEALTH CENTRE,-4.145976,50.545824
1325.13,EAST QUAY MEDICAL CENTRE,-3.000471,51.135669
475.93,BREDON HILL SURGERY,-2.104857,52.030166
487.44,HAGLEY SURGERY,-2.144103,52.420783
232.48,KNOCKIN MEDICAL CENTRE,-2.993042,52.79343
61.17999999999999,YARDLEY MEDICAL CENTRE,-1.828397,52.463189
392.03,PHOENIX FAMILY CARE,-1.51543,52.390005
1881.12,ASHTON MEDICAL GROUP,-2.089184,53.489361
863.0299999999999,BRADSHAW MEDICAL CENTRE,-2.688594,53.537889
81.40999999999998,SAVILE TOWN MEDICAL CTR.,-1.625804,53.68222900000001
139.16,LIMEFIELD ROAD MEDICAL PRACTICE,-2.26047,53.506995
442.69,THE ORCHARD SURGERY,-0.324352,50.828062
53.71,THE MATTHEWMAN PRACTICE,-0.149281,51.545823
5.78,RICHARDSON COMMUNITY HOSPITAL,-1.9161529999999998,54.545708
111.79,LAKESIDE SURGERY,-1.310932,53.52812
233.56,THE DANBY PRACTICE,-0.907874,54.468317
239.59,VALLEY VIEW SURGERY,-1.731903,53.806791
581.03,THE NORTH LEEDS MEDICAL PRACTICE,-1.534037,53.843332
1170.02,IVY GROVE SURGERY,-1.402822,53.042198
445.28,FRIAR GATE SURGERY,-1.485624,52.924816
862.08,NAVENBY CLIFF VILLAGES SURGERY,-0.526297,53.103518
717.5999999999998,THE LINDEN MEDICAL GROUP,-1.273642,52.931099
704.1099999999999,ASKERN MEDICAL PRACTICE,-1.148909,53.61549599999999
363.17,BUTE HOUSE MEDICAL CENTRE,-0.423966,51.880162
268.16,LICHFIELD GROVE SURGERY,-0.19329,51.599604
390.56,GURU NANAK MEDICAL CENTRE,-0.387151,51.511774
221.64,SOUTH GREEN SURGERY,0.430504,51.613411
412.63,RICHMOND ROAD MEDICAL CENTRE,-0.065532,51.543051
752.63,THE LAWSON PRACTICE,-0.079465,51.533775
622.91,LEYTON HEALTHCARE 4TH FLOOR,-0.013313,51.559894
300.36,FRANCIS ROAD MEDICAL CENTRE,-0.003831,51.561975
1265.59,OLD SCHOOL SURGERY,0.100722,50.772062
75.82,UNIVERSITY MEDICAL CENTRE,1.062127,51.296198
467.07,ST STEPHENS HOUSE SURGERY,-0.305726,51.31772
403.5100000000001,PARK VIEW HEALTH PARTNERSHIP,-0.137252,50.961825
562.3800000000001,LAMBTON ROAD MEDICAL PRACTICE,-0.231169,51.411219
1418.9500000000005,LORDSHILL HEALTH CENTRE,-1.448733,50.940999
718.5999999999998,BYFIELD MEDICAL CENTRE,-1.242893,52.174071
297.54,CAMBRIDGE HOUSE,-2.144827,53.024433
635.2900000000002,ARBURY MEDICAL CENTRE,-1.497961,52.51662
460.26,CHURCH LANE - KHAN,-1.793962,52.487056
676.53,SOHO ROAD PRIMARY CARE CENTRE,-1.934945,52.503094
162.05999999999997,PARK HOUSE SURGERY,-1.942965,52.54446
224.93,BEECHDALE CENTRE,-2.007339,52.600867
927.55,HOLES LANE MEDICAL CENTRE,-2.545107,53.399828
758.75,LACHE HEALTH CENTRE,-2.914326,53.173615
509.64,DINGLE PARK PRACTICE,-2.972885,53.38633
1151.96,RAINBOW MEDICAL CENTRE,-2.705931,53.435389
246.01,BEECHWOOD SURGERY,-3.009057,53.871568
1305.76,HEYWOOD HEALTH,-2.239335,53.58736999999999
417.85,THE GILL MEDICAL PRACTICE,-2.398384,53.524288
698.5600000000002,GLOUCESTER HOUSE MEDICAL CENTRE,-2.352599,53.447337
164.75000000000003,PAK HEALTH CENTRE,-1.856091,52.490749
130.7,WALFORD STREET  TIVIDALE,-2.059752,52.513192
1168.24,LITTLE LONDON SURGERY,-1.979284,52.574984
532.06,STRETTON MEDICAL CENTRE,-2.577017,53.339489
141.72,THE DALE MEDICAL PRACTICE,-2.154239,53.611617
152.5,WALNUT ST MED CTR (LEICESTER MED GROUP),-1.138855,52.624601
336.9200000000001,FIR TREE,-2.878691,53.44930600000001
14.02,CAMBRIDGE ACCESS SURGERY,0.138701,52.20875
197.37,ETTINGSHALL MEDICAL CENTRE,-2.092879,52.570364
1.76,WALK IN CENTRE (WIC),-1.784934,51.563016
1.86,HP NMP'S NN & E CCG,-1.143101,53.130244
409.86000000000007,RUSHEY MEAD HEALTH CENTRE,-1.103823,52.663187
1534.9600000000007,ST ANN'S ROAD SURGERY,-0.08783399999999998,51.581428
716.21,LEIGH FAMILY PRACTICE,-2.511927,53.493519
312.2100000000001,THE PRACTICE FELTHAM,-0.411086,51.446367
489.63,HENDON WAY SURGERY,-0.241873,51.579182
0.23,NHS FYLDE & WYRE CCG,-2.881037,53.789498
22.31,SPECIALIST NURSE,-1.517573,53.993807
5.21,TAURUS HEALTHCARE LTD,-2.71099,52.05708
224.31,CARTMEL SURGERY,-2.946985,54.199165
1813.6,ALNWICK MEDICAL GROUP,-1.6967470000000002,55.410086
502.51,NETHERFIELD HOUSE,-1.548435,55.063632
1009.07,PRACTICE 3  MEDICAL CENTRE  BRIDLINGTON,-0.201064,54.084715
617.34,THE ALMONDBURY SURGERY,-1.751311,53.631868
288.84,NEWLAND SURGERY,-1.424247,53.695146
3742.51,BEACON MEDICAL PRACTICE,0.331219,53.157472
176.8,GREENFIELDS MEDICAL CENTRE (YVS RAO),-1.168583,52.966506
780.8299999999998,TREETON MEDICAL CENTRE,-1.354708,53.384994
1412.7299999999998,MEADOWGREEN HEALTH CENTRE,-1.480804,53.326831
2360.81,BOROUGHBURY MEDICAL CENTRE,-0.245486,52.577858
4137.47,THE ROOKERY MEDICAL CENTRE,0.405573,52.245158
15.23,COMMUNITY MATRONS,-2.095555,52.599722
0.27,IC24-THANET CCG OOH,0.891514,51.129106
675.2099999999998,CRUDDAS PARK SURGERY,-1.630965,54.968173
309.0100000000001,THE CHESTNUTS & HALLGATE SURGERY,-0.403621,53.778985
472.23,HAWORTH MEDICAL PRACTICE,-1.954883,53.831322
881.4599999999998,FIELDHEAD SURGERY,-1.854229,53.641358
970.89,CROFTON AND SHARLSTON MED PRAC,-1.427042,53.656573
1271.5100000000002,SHIRES HEALTHCARE,-1.215692,53.202513
576.5799999999998,ORCHARD SURGERY,-1.278154,52.836522
778.9,ST GEORGES MED PRACTICE,-1.132346,52.930754
129.04000000000002,WELBECK SURGERY,-1.147823,52.979645
1004.14,WICKHAM MARKET MEDICAL CENTRE,1.363674,52.151842
381.34,TODDINGTON MEDICAL CENTRE,-0.530482,51.945856
552.8,THE RANDOLPH SURGERY,-0.186852,51.529819
271.59000000000003,DR YADAVA N PRACTICE,0.334586,51.476703
510.57,ST.PAUL'S WAY MEDICAL CTR,-0.024483,51.517862
1373.34,THORNHILLS MEDICAL PRACTICE,0.440958,51.300117
1402.4400000000005,OAKLANDS HEALTH CENTRE,1.08253,51.069106
436.68000000000006,HEXTABLE SURGERY,0.182972,51.409182
893.6100000000001,LONGCROFT CLINIC,-0.192332,51.325314
509.53,THE ROEHAMPTON SURGERY,-0.242431,51.451154
1141.2399999999998,WYKE REGIS & LANEHOUSE MEDICAL PRACTICE,-2.475127,50.594634
445.96,WHITCHURCH SURGERY,-0.8426209999999998,51.882174
382.51,CRICK MEDICAL PRACTICE,-1.135861,52.343212
1015.45,KINGSWOOD HEALTH CENTRE,-2.499974,51.462895
602.0999999999998,THE VILLAGE SURGERY,-2.219972,53.033945
1022.86,BIDDULPH VALLEY SURGERY,-2.178498,53.116111
273.02,RIVERSIDE SURGERY,-1.699518,52.632337
880.79,THREE VILLAGES MEDICAL PRACTICE,-2.146398,52.465406
426.38,STONE CROSS MEDICAL CENTRE,-1.982689,52.545444
1393.3100000000004,STOCKTON HEATH MED.CENTRE,-2.582161,53.37195
631.03,THE VILLAGE SURGERIES GROUP,-2.771265,53.124246
616.61,ILEX VIEW MEDICAL PRACTICE,-2.280663,53.70081
356.2399999999999,SHIFA SURGERY,-2.475999,53.757295
1110.5399999999997,CHORLTON FAMILY PRACTICE,-2.279717,53.443773
300.27,OLDHAM MEDICAL SERVICES,-2.111235,53.52535699999999
525.44,MELROSE SURGERY,-0.9598620000000002,51.451692
95.17,DR R KAPUR & PARTNERS,-1.119092,52.631036
279.46,LEADGATE SURGERY,-1.805988,54.860562
891.4700000000001,ACLE MEDICAL PARTNERSHIP,1.548667,52.640969
253.04,PEEL CROFT,-1.6339549999999998,52.799271
838.0400000000003,MARTONSIDE MEDICAL CENTRE,-1.220329,54.553175
492.4599999999999,ROCKLIFFE COURT SURGERY,-1.544074,54.483444
1334.2600000000002,BEDLINGTONSHIRE MED.GROUP,-1.598682,55.1322
251.38,WESTBOURNE SURGERY,-1.8061,53.650937
820.6899999999998,MIDDLESTOWN,-1.600562,53.650545
273.57,DR WEBB AND PARTNERS,-1.308041,52.968251
818.96,GOYT VALLEY MEDICAL PRACTICE,-1.983113,53.3305
364.97,CASTLE STREET MEDICAL CENTRE,-1.293753,53.229627
400.06,SILVERDALE MEDICAL CENTRE,-1.090548,52.672318
1378.6799999999996,HOLT MEDICAL PRACTICE,1.116042,52.914476
1081.48,HOWARD HOUSE SURGERY,1.349626,51.96149
681.9200000000002,PARKBURY HOUSE SURGERY,-0.334063,51.756766
651.15,UXENDON CRESCENT SURGERY,-0.292809,51.572063
150.07000000000005,STERNDALE SURGERY,-0.221441,51.498326
485.64,AEGIS MEDICAL CENTRE,0.467525,51.57556
336.44999999999993,AMWELL GROUP PRACTICE,-0.11081700000000001,51.528043
1070.98,MEOPHAM MEDICAL CENTRE,0.359744,51.368901
533.0,WESTERHAM PRACTICE,0.070437,51.266465
368.27,FORGE CLOSE SURGERY,0.016555,51.377137
914.71,STEYNING HEALTH CENTRE,-0.329972,50.890666
906.84,LAVANT ROAD SURGERY,-0.781051,50.853385
273.43,THORNTON & VALLEY PARK SURGERY,-0.120709,51.388871
625.39,JOHNSON (SHEEN LANE),-0.267239,51.465848
230.2,BEGG PRACTICE,-0.179391,51.459968
509.86,MOORDOWN MEDICAL CENTRE,-1.874485,50.756212
312.6500000000001,LITTLEDOWN SURGERY,-1.833439,50.741638
782.8500000000001,EMMER GREEN SURGERY,-0.972861,51.483584
898.0100000000001,WOLVERTON HEALTH CENTRE,-0.814934,52.054197
1863.15,ST THOMAS MEDICAL GROUP,-3.54518,50.714472
541.94,YOXALL,-1.7931740000000003,52.767984
102.04,GREET MEDICAL PRACTICE,-1.857778,52.453195
481.44,PEDMORE MEDICAL PRACTICE,-2.118211,52.457029
988.17,BOSWORTH MEDICAL CENTRE,-1.7536330000000002,52.480569
1561.78,THE PARK MEDICAL PRACTICE,-2.739045,53.77018
213.18,CROSSWAYS PRACTICE,-3.023992,53.484655
353.86,THE OLD DISPENSARY,-1.987226,50.803427
229.73,STROUD GREEN MEDICAL CENTRE,-0.114328,51.570059
0.91,EASTBOURNE  HAILSHAM & SEAFORD OOH,0.891514,51.129106
5.46,INTERMEDIATE CARE (THE PEELE),-2.259671,53.385779
1278.78,WEST SOMERSET HEALTHCARE,-3.3186760000000004,51.161419
958.2399999999997,WEM AND PREES MEDICAL PRACTICE,-2.722566,52.859338
405.6,ALL SAINTS SURGERY,-1.644121,52.794285
893.4199999999998,CENTRAL SURGERY,-1.265473,52.371743
653.54,OMNIA PRACTICE,-1.839082,52.475709
714.59,SCHOOLACRE ROAD SURGERY,-1.785797,52.497659
774.3,DORRIDGE SURGERY,-1.752074,52.372757
511.81,MORETON CROSS GROUP PRACTICE,-3.111975,53.403551
882.1200000000001,WITTON MEDICAL CENTRE,-2.507553,53.740232
395.6700000000001,WALMERSLEY ROAD MEDICAL PRACTICE,-2.289525,53.599849
766.27,WEST COMMON LANE TEACHING PRACTICE,-0.682441,53.57473100000001
256.17999999999995,QUEENS ROAD SURGERY,-1.474524,52.522119
102.61,BEVAN HEALTHCARE CIC,-1.753352,53.795581
523.28,RIVERSIDE MEDICAL PRACTICE,-1.315584,54.56887
23.630000000000006,MEDICUS HEALTH PARTNERS-ENFIELD ISLAND,-0.016992,51.668586
80.70999999999998,MERSEYCARE NHS TRUST,-2.826417,53.424035
1016.2,RISING BROOK,-2.118782,52.787133
551.8100000000001,COLVILLE HEALTH CENTRE,-0.206231,51.515837
516.0,BRICKFIELDS SURGERY,0.605168,51.653143
417.66,TYNEMOUTH MEDICAL PRACTICE,-0.068331,51.586253
1371.27,TRINITY MEDICAL CENTRE,-0.172008,50.831228
1138.88,THE CEDARS SURGERY,1.403174,51.217619
366.9100000000001,THE KINGS FAMILY PRACTICE,0.534548,51.377821
522.73,FOUNTAIN PRACTICE,-0.252307,51.350378
459.07,ST ALBANS MEDICAL CENTRE,-0.302479,51.42195
1256.77,ORCHID HOUSE SURGERY,-1.894499,50.801788
1990.7300000000007,THE HADLEIGH PRACTICE,-1.993525,50.761018
1655.3100000000004,THREE CHEQUERS MEDICAL PRACTICE,-1.794625,51.071924
1309.02,WEAVERS MEDICAL,-0.733538,52.401531
1147.5,NUFFIELD HEALTH CENTRE,-1.486793,51.786441
1733.3099999999995,BARTON SURGERY,-3.473818,50.579848
1386.4799999999998,BIDEFORD MEDICAL CENTRE,-4.211785,51.017201
997.2700000000002,CORBETT MEDICAL PRACTICE,-2.148792,52.263269
1987.09,THE WESTGATE PRACTICE,-1.821176,52.683537
412.92,COBRIDGE SURGERY,-2.187008,53.035377
116.68,BURBURY MEDICAL CENTRE,-1.9103740000000002,52.502215
852.86,PLECK HEALTH CENTRE,-1.9980380000000002,52.574248
193.1,CORNERSTONE SURGERY,-2.724149,53.454211
177.07000000000005,HIGHER HEYS SURGERY,-2.394094,53.740865
1066.1999999999996,ALBION MEDICAL PRACTICE,-2.088476,53.48960400000001
1048.5700000000004,DELAMERE MEDICAL PRACTICE,-2.307365,53.450887
254.96,240 WEXHAM ROAD,-0.57838,51.516902
289.56,LONGFIELD MEDICAL PRACTICE,-2.28357,53.533828
662.64,THISTLEMOOR MEDICAL CENTRE,-0.254566,52.595274
123.83,PALACCI (CASTELNAU),-0.238274,51.476873
476.0100000000001,CANTERBURY HEALTH CENTRE,1.082981,51.274249
100.59,BANBURY HEALTH CENTRE,-1.334014,52.062032
299.23,BRERETON SURGERY,-1.924317,52.747482
479.64,THE LAWNS SURGERY,-0.502907,50.807746
373.86,OAK TREE HEALTH CENTRE,-1.2409629999999998,51.614986
449.81,THE TRINITY MEDICAL PRACTICE,0.760305,51.684982
231.59,SOHO HEALTH CENTRE,-1.934945,52.503094
2.3000000000000003,ST CLAIRE'S HOSPICE,-1.485721,54.967655
2.38,BECKENHAM BEACON URGENT CARE CENTRE,-0.033209,51.405232
16.2,HILLINGDON COMMUNITY DERMATOLOGY,-0.08430999999999998,51.500087
197.72000000000003,BRIERLEY MEDICAL CENTRE,-1.382484,53.594188
353.38999999999993,METRO INTERCHANGE SURGERY,-1.602943,54.961848
851.9199999999998,BRIDGE VIEW MEDICAL GROUP,-1.401824,54.919455
654.9500000000002,QUAKERS LANE SURGERY,-1.741713,54.406363
1285.0700000000004,HOLLYNS HEALTH & WELLBEING - CLAYTON,-1.81454,53.779166
535.02,BRIDGE STREET MEDICAL PRACTICE,-1.20716,52.774841
941.99,CAYTHORPE & ANCASTER MEDICAL PRACTICE,-0.536327,52.981851
650.13,PARSON DROVE SURGERY,0.050459,52.660947
537.1800000000001,PRIORS FIELD SURGERY,0.124169,52.388951
477.80000000000007,DAVENPORT HOUSE SURGERY,-0.354549,51.816177
956.36,MILLWAY MEDICAL PRACTICE,-0.24359099999999997,51.614985
769.7,TEMPLE FORTUNE MEDICAL GROUP,-0.197845,51.581101
16.23,MOULSHAM LODGE SURGERY,0.475137,51.716565
165.38000000000005,WARRIOR SQUARE SURGERY,0.716503,51.539534
188.91,BRAYFORD SQUARE SURGERY,-0.050404,51.514375
455.36,YORK ROAD SURGERY,0.065859,51.559165
1199.72,WEST MALLING GROUP PRACTICE,0.407707,51.293351
655.86,ELMDENE SURGERY,0.263153,51.446098
576.2000000000002,MOAT HOUSE SURGERY,-0.146361,51.259819
174.76,ALEXANDRA SURGERY,-0.205887,51.422912
651.38,DENHAM MEDICAL CENTRE,-0.502236,51.584564
652.5700000000002,CHEW MEDICAL PRACTICE,-2.629195,51.35619
599.4,ST.GEORGE'S SURGERY,-2.0815,51.906706
986.0300000000002,CHARING SURGERY,0.791374,51.20971
325.75,THAMES AVE SURGERY,0.603057,51.36344
1989.93,CANTERBURY MEDICAL PRACTICE,1.128982,51.245539
122.39,TRAFALGAR SURGERY,-0.074414,51.485672
454.6,THE ORCHARD PRACTICE,-0.303542,51.369116
411.55,BALHAM PARK SURGERY,-0.155715,51.440487
73.29,UNIVERSITY HEALTH SERVICE,-1.395714,50.934099
531.68,LINDEN MEDICAL CENTRE,-0.737415,51.530813
286.9000000000001,OBSERVATORY MEDICAL PRACTICE,-1.265958,51.760293
264.57000000000005,CROPREDY SURGERY,-1.320027,52.116731
2082.64,HEART OF BATH,-2.373947,51.376364
703.4000000000002,BIRCHWOOD MEDICAL PRACTICE,-2.547938,51.446246
345.04,LOSTWITHIEL SURGERY,-4.668763,50.407892
355.9000000000001,ST SAVIOURS SURGERY,-2.308488,52.130324
1142.32,WERRINGTON VILLAGE SURGERY,-2.098023,53.021659
397.04,WEST HEATH SURGERY,-1.96202,52.401797
223.15,WEST PARK SURGERY,-2.141256,52.587783
281.56,THE MARSHSIDE SURGERY,-2.963125,53.67143299999999
319.7199999999999,MERSEYBANK SURGERY,-2.263012,53.42276
585.01,THE GROVE ROAD PRACTICE,-0.202341,51.358201
257.54,MOOR PARK MEDICAL PRACTICE,-1.7218490000000002,53.797834
218.50000000000003,UPTON ROCKS PRIMARY CARE,-2.754371,53.373367
483.9,HANLEY PRIMARY CARE CENTRE,-0.12083699999999999,51.567951
514.4599999999999,LEYLAND SURGERY,-2.709316,53.689645
9.41,HP NMP'S RUSH CCG,-1.143101,53.130244
0.93,COMMUNITY NURSING,-2.372621,51.358169
0.5,YORKSHIRE SMOKEFREE,-1.018306,53.503028
450.81999999999994,WELLSBOURNE HEALTHCARE CIC,-0.107386,50.825445
327.55000000000007,CHEVIOT MEDICAL GROUP,-2.01842,55.546525
1754.4800000000002,THE CENTRAL SURGERY BARTON,-0.439445,53.684236
187.59,DEARNE VALLEY HEALTH CENTRE,-1.626482,53.588349
744.36,MICKLEOVER MEDICAL CENTRE,-1.54633,52.907111
166.0,THE UNIV OF NOTTINGHAM HEALTH SERV,-1.195942,52.942177
462.27,LISTER HOUSE SURGERY,-0.4515,51.89192
516.28,THE ELMS SURGERY,-0.404224,51.661642
606.3200000000002,HOUNSLOW MEDICAL CENTRE,-0.37684,51.469395
328.37000000000006,P A PATEL SURGERY,0.582273,51.56978
146.29999999999995,SANCTA MARIA MEDICAL CENTRE,0.284011,51.507882
2121.34,SEAFORD MEDICAL PRACTICE,0.099275,50.772678
1108.9599999999996,BUXTED MEDICAL CENTRE,0.132095,50.989406
160.8,NEW INN SURGERY,-0.545657,51.257698
324.09,THE WHITEHORSE PRACTICE,-0.097391,51.385869
552.3000000000001,THE HEALTH CENTRE,-0.19711,51.363031
1172.47,WEST END ROAD SURGERY,-1.359281,50.916702
464.4,TOWER HOUSE SURGERY,-0.770004,51.636372
1132.2699999999998,CHURCH STREET PRACTICE,-1.425847,51.598763
401.23,CLINTON ROAD SURGERY,-5.224966,50.23093
907.94,PINHOE SURGERY,-3.469622,50.737528
1572.2000000000005,ROSEBANK HEALTH,-2.242194,51.852611
437.26,MAPLE VIEW MEDICAL PRACTICE,-1.905693,52.31659
455.59,PRESCOTT SURGERY,-2.852689,52.784345
175.99,BLOOMSBURY HEALTH CENTRE,-1.876618,52.493743
413.83,HEATON ROAD SURGERY,-1.579814,54.978269
606.9699999999998,49 MARINE AVENUE SURGERY,-1.451082,55.046268
421.08,HOUGHTON MEDICAL GROUP ,-1.469175,54.842322
725.6100000000001,HOWDEN MEDICAL PRACTICE,-0.8694039999999998,53.744175
172.11,HANCOCKS ME,-0.41296400000000005,53.782123
1410.4799999999998,THE WILSDEN MEDICAL PRACTICE,-1.86138,53.818377
152.86,COLSTERWORTH SURGERY,-0.619356,52.806388
411.61,LUNDWOOD MEDICAL CENTRE PMS PRACTICE,-1.438538,53.557711
331.15,GREASBROUGH MEDICAL CENTRE,-1.372776,53.452893
530.2,WELLSIDE SURGERY,-0.28478,52.440324
727.9799999999998,CLARE GUILDHALL SURGERY,0.580469,52.078259
490.45,LATTIMORE & VILLAGE SURGERY,-0.298547,51.726244
132.96,SOMERSET MEDICAL CENTRE,-0.371127,51.522244
1289.41,CENTRAL UXBRIDGE SURGERY,-0.475739,51.546229
1026.13,WEST MERSEA SURGERY,0.9193420000000002,51.778349
1173.16,HIGHLANDS SURGERY,0.637339,51.548005
753.4899999999997,BALLARDS WALK SURGERY,0.441841,51.573232
1515.5200000000002,DOWNLANDS MEDICAL CENTRE,0.244085,50.822919
1189.1999999999996,OTFORD MEDICAL PRACTICE,0.191446,51.31358
178.33999999999997,THE HALFWAY SURGERY,0.524157,51.380429
362.44000000000005,BURNEY STREET PMS,-0.009168,51.479034
521.32,ELIZABETH HOUSE MEDICAL PRACTICE,-0.050005,51.308093
128.2,ADDINGTON MEDICAL PRACTICE,-0.018557,51.344382
107.88,SARAJLIC (STAINES ROAD),-0.357923,51.439672
2249.75,ROYAL CRESCENT SURGERY,-2.452679,50.616587
741.43,TWYFORD SURGERY,-1.314229,51.019421
60.41,ABBEY MEDICAL CENTRE,-0.982406,51.453949
460.1,ST.BARTHOLOMEWS MEDICAL CENTRE,-1.232108,51.747668
2287.78,THE DOWNEND HEALTH GROUP,-2.505301,51.485109
863.5700000000002,IDE LANE SURGERY,-3.534972,50.699471
470.73,THE ARROW SURGERY,-1.861382,52.218546
1030.31,DR SN CLAY AND PARTNERS,-1.832005,52.528641
396.72,WILLENHAL OAK MEDICAL CENTRE,-1.463131,52.388988
803.4600000000002,WORDSLEY GREEN HEALTH CENTRE,-2.164692,52.480602
1640.94,THE OVER-WYRE MED.CTR.,-2.976492,53.928203
443.13,FISHERGATE HILL SURGERY,-2.714363,53.75445500000001
263.53,THE SINGH MEDICAL PRACTICE,-2.213622,53.512042
834.87,PARK VIEW GROUP PRACTICE,-2.160577,53.445476
173.95999999999995,FAMILY SURGERY,-2.346055,53.396194
40.27,STROKE PATHWAY AND REHABILITATION CENTRE,-1.461102,53.37116700000001
3.02,NWR COMMUNITY SERVICES,-1.014748,51.449145
1.86,URGENT CARE,0.475497,50.850706
38.41,CRANBROOK MEDICAL PRACTICE,-3.416198,50.746596
1108.6,WHITLEY BAY HEALTH CENTRE,-1.43996,55.04141
1547.0699999999995,BLACKBURN RD.MEDICAL CTR.,-1.664718,53.731348
2418.24,MARKET HARBOROUGH MED.CTR,-0.924843,52.477084
518.72,COMMUNITY HEALTH CENTRE (ZS OSAMA),-1.113421,52.632387
821.0600000000002,TRAMWAYS MEDICAL CENTRE (O'CONNELL),-1.503023,53.402044
852.3099999999998,SAFFRON HEALTH PARTNERSHIP,-0.264459,52.084232
489.63,GLADSTONE MEDICAL CENTRE,-0.24612,51.558731
305.61,ST MARTINS MEDICAL CENTRE,-0.424566,51.577646
300.7,ABRIDGE SURGERY,0.12458,51.653631
262.09000000000003,ELSDALE STREET SURGERY,-0.049094,51.543033
832.7300000000001,STOPSLEY VILLAGE PRACTICE,-0.394147,51.901132
1385.88,SHEFFORD HEALTH CENTRE,-0.321643,52.034788
443.13999999999993,VALE DRIVE MEDICAL PRACTICE,-0.194727,51.648828
716.3,THE FRYENT WAY SURGERY,-0.280565,51.582963
320.2799999999999,BELMONT MEDICAL CENTRE,-0.478036,51.548264
475.55,PORTLAND ROAD PRACTICE,-0.208019,51.507366
2026.23,AUDLEY MILLS SURGERY,0.607129,51.584978
394.07000000000005,STRATFORD HEALTH CENTRE,0.004714,51.544651
245.14,THE STROUDLEY WLK HTH CTR,-0.017533,51.527214
490.54,ST JOHN'S MEDICAL PRACTICE,0.195249,51.285009
892.8800000000001,BEXLEY GROUP PRACTICE,0.10965599999999999,51.465832
420.01,DERRY DOWNS SURGERY,0.116651,51.385174
438.0,UPPER NORWOOD GROUP PRACTICE,-0.08482,51.413308
237.6,THE MOORINGS MEDICAL PRACTICE,-0.095892,51.322229
432.53,THE TOLLERFORD PRACTICE,-2.571586,50.778924
1549.2499999999998,BLACKTHORN HEALTH CENTRE,-1.327194,50.876037
367.03,JUBILEE FIELD SURGERY,-2.191875,51.484091
423.98,DANES CAMP MEDICAL CENTRE,-0.904374,52.205152
859.4899999999999,THORNBURY HEALTH CENTRE - BURNEY,-2.517723,51.612861
748.0499999999998,ELM HAYES SURGERY,-2.492756,51.300546
910.09,CULVERHAY SURGERY,-2.348649,51.638921
865.0,SHAWBIRCH MEDICAL CENTRE,-2.531858,52.718121
761.1,THE DOVE MEDICAL PRACTICE,-1.864605,52.535155
2059.91,MOSS GROVE SURGERY,-2.1699,52.498674
1014.08,WARLEY MEDICAL CENTRE,-2.006757,52.468122
455.54,SPRINGFIELDS MEDICAL CENTRE,-2.597522,53.389256
615.94,WEAVER VALE PRACTICE,-2.696866,53.325561
850.5599999999998,GLOVERS LANE SURGERY,-2.971961,53.488314
245.84,OLIVE MEDICAL CENTRE,-2.484193,53.752309
309.41,HALLIWELL SURGERY 1,-2.431738,53.588322
486.12,HEATON MERSEY MED.PRACT.,-2.205118,53.412519
270.80000000000007,VILLAGE SURGERY,-0.255874,51.399503
279.94,SOMERS TOWN MEDICAL CENTRE,-0.130607,51.529916
71.67,FITZMAURICE (KEW),-0.283117,51.475875
275.62,WOOTTON VALE HEALTHY LIVING CENTRE,-0.527951,52.093688
299.7600000000001,ST LUKE'S HEALTH CENTRE,0.7293039999999998,51.551
2197.3,THE MEDICAL GROUP,-1.628911,54.748296
789.93,GLENPARK MEDICAL CENTRE,-1.640096,54.953229
228.36000000000004,DR KHALIQ,-1.799612,53.663276
959.47,ROBIN LANE HEALTH AND WELLBEING CENTRE,-1.661311,53.79500899999999
432.1,LAUREL BANK SURGERY,-1.587333,53.816942
932.85,HUGGLESCOTE SURGERY,-1.365684,52.71103
542.75,HEALTH CARE COMPLEX  KIRKBY,-1.244634,53.100062
668.87,RED HOUSE SURGERY,0.129161,52.214906
398.31,KINGS HEAD MEDICAL PRACTICE,-0.011448,51.635688
157.54000000000005,BRIMPTON HOUSE,0.699534,51.835776
394.75,THE AZAD PRACTICE,0.044868,51.531234
369.12,NEWHOLME SURGERY,-2.74261,53.456686
0.07,BRIGHTON STATION WALK-IN,-0.141323,50.827937
3.02,COMMUNITY NURSES,-2.500977,51.462504
442.6700000000001,LUNESDALE SURGERY,-2.602213,54.200573
1147.6,COQUET MEDICAL GROUP,-1.580504,55.332599
180.41,THE GLENDALE SURGERY,-2.01842,55.546525
454.55,ALLERTON MEDICAL CENTRE,-1.533879,53.826921
689.7299999999998,SPILSBY SURGERY,0.098963,53.173049
360.4,BRIDGEWAY PRACTICE,-1.147343,52.943574
810.4099999999999,THORNE MOOR MEDICAL PRACTICE,-0.966348,53.613648
880.0599999999998,MANOR AND PARK GROUP PRACTICE,-1.42716,53.373705
407.62,SOLE BAY H/C,1.6664740000000002,52.336325
442.25000000000006,DR PS BATH'S PRACTICE,-0.394147,51.901132
162.14,WATERSIDE MEDICAL CENTRE,-0.363984,51.502165
598.4899999999999,MELBOURNE HOUSE SURGERY,0.451756,51.749214
1386.6799999999994,LITTLE WALTHAM & GT NOTLEY SURGERY,0.477622,51.787396
551.94,AMPTHILL PRACTICE,-0.137293,51.5346
471.77,THE NORTH LONDON HEALTH CENTRE,-0.11243199999999999,51.617571
517.04,THE WILLOWS PRACTICE,0.104416,51.60776
993.2599999999996,ST.PETER'S MEDICAL CENTRE,-0.135237,50.831002
957.67,HIGHPARKS MEDICAL PRACTICE,0.496762,51.434213
998.0100000000001,YALDING,0.429804,51.221188
527.9499999999999,CRAWLEY DOWN HEALTH CENTRE,-0.07762099999999998,51.122557
277.84,BIRDHURST MEDICAL PRACTICE,-0.092613,51.365279
1048.41,FORESTSIDE MEDICAL PRACTICE,-1.416173,50.851823
199.03,BENTLEY VILLAGE SURGERY,-0.87992,51.189933
536.45,DR KUMAR & PARTNER STUDFALL MEDICAL CTR,-0.704816,52.495882
1734.9400000000005,CASTLE PLACE PRACTICE,-3.492865,50.908884
1058.83,COTSWOLD MEDICAL PRACTICE,-1.75678,51.886317
940.75,GLASTONBURY SURGERY,-2.721853,51.148462
862.7,NUNWELL SURGERY,-2.507177,52.187931
736.63,CLEOBURY MORTIMER SURGERY,-2.485608,52.377502
1078.4599999999996,MEDINA HEALTHCARE,-1.298686,50.697239
896.5199999999999,BEDFORD STREET SURGERY,-0.729782,51.995784
808.2,ALCHESTER MEDICAL GROUP,-1.138371,51.891398
682.73,GREENWAY COMMUNITY PRACTICE,-2.611274,51.499595
1244.88,THREE SPIRES MEDICAL PRACTICE,-5.055864,50.259982
1076.35,DEAN CROSS SURGERY,-4.095355,50.358939
656.7600000000001,SOUTHOVER MEDICAL PRACTICE,-3.528075,50.474733
716.7399999999999,NEW VALLEY PRACTICE,-3.654492,50.792383
731.48,THE STOKE ROAD SURGERY ,-2.068173,51.94667
1615.85,HIGHBRIDGE MEDICAL CENTRE,-2.979117,51.227372
801.8900000000001,CANTILUPE SURGERY,-2.712261,52.055418
515.81,MYTTON OAK MEDICAL PRACT.,-2.797762,52.707667
468.52,DRS SHAH & TALPUR,-2.194635,52.974032
605.0999999999998,DR VSR CHADALAVADA,-2.139143,53.0416
490.12,HAWKESLEY MEDICAL PRACTICE,-1.937498,52.39544
94.53,KEYNELL COVERT,-1.911857,52.408441
679.87,PARK MEDICAL CENTRE,-2.873099,53.202665
656.05,NORWOOD SURGERY,-2.97819,53.65000799999999
1108.68,WHALLEY MEDICAL CENTRE,-2.406348,53.819793
73.64,SLAIDBURN HEALTH CENTRE,-2.444001,53.967313
510.08,PIKES LANE 1,-2.446348,53.572728
181.56,DR PATHAK ND,-1.9843959999999998,52.51273
292.04,STRELLEY HEALTH CENTRE (COCKRILL),-1.227726,52.973231
233.71000000000004,PHOENIX MEDICAL PRACTICE,0.48126899999999995,51.328805
149.26999999999995,NETHERTON SURGERY,-2.97236,53.488626
201.18,DILSTON MEDICAL CENTRE,-1.640355,54.976621
1.51,INTERGRATED COMMUNITY PAEDIATRIC SERVICE,-2.384279,53.582354
230.53,NORTH CHELMSFORD NHS HCC,0.510815,51.750584
141.83,KIRKHOLT MEDICAL PRACTICE,-2.162243,53.59832
548.47,DR AZIM & PARTNERS,-0.225729,51.579655
206.16,BHF HIGHGATE SURGERY,-1.378978,53.573614
463.85,SEASCALE HEALTH CENTRE,-3.479998,54.396756
284.7999999999999,WIDDRINGTON SURGERY,-1.62051,55.240248
388.21,RIPLEY MEDICAL CENTRE,-1.405723,53.04704
179.88,DE MONTFORT SURGERY,-1.141192,52.6286
346.9700000000001,DENABY MEDICAL PRACTICE,-1.245792,53.490666
720.47,MENDLESHAM MEDICAL GROUP,1.0816,52.251866
319.28,UPTON ROAD SURGERY,-0.401058,51.656689
942.05,DOLPHIN HOUSE SURGERY,-0.029818,51.810791
424.74000000000007,THE EVERGLADE MEDICAL PRACTICE,-0.24421,51.601578
555.36,FRIERN BARNET MEDICAL CENTRE,-0.155988,51.613267
174.4,THE CIVIC MEDICAL CENTRE,-0.337497,51.587155
879.51,THE GOLD STREET SURGERY,0.240471,52.021716
1442.45,THE HOLLIES,0.610574,51.555461
185.96,THE LEIGH SURGERY,0.656153,51.555504
607.49,WEST HAMPSTEAD MEDICAL CENTRE,-0.196578,51.55004
823.9899999999999,STAUNTON GROUP PRACTICE,-0.112926,51.599388
964.4,SOUTHBROOM SURGERY,-1.989037,51.352288
508.9,THE DOWNLAND PRACTICE,-1.312402,51.463442
285.32,BLAKENEY SURGERY,-2.476364,51.759117
1107.29,WELLS HEALTH CENTRE,-2.655326,51.203403
830.52,RIVERSIDE MED.PRACTICE,-2.755278,52.709209
540.2500000000001,CHANCERY LANE SURGERY,-1.521755,52.536173
365.23,NECHELLS PRACTICE,-1.876618,52.493743
839.3700000000001,THE LIMES MEDICAL CENTRE,-1.974677,52.58065500000001
385.63000000000005,TOWNFIELD HEALTH CENTRE,-3.064248,53.378798
84.31999999999998,PRINGLE STREET SURGERY,-2.467594,53.742039
381.04,HOPWOOD MEDICAL CENTRE,-2.212052,53.587143
1135.54,THE KILTEARN MEDICAL CTR.,-2.518506,53.068155
1072.88,BROADWAY MEDICAL CENTRE,-3.033843,53.912667
335.07,EGERTON/DUNSCAR HEALTH CENTRE,-2.426383,53.617589
1224.4699999999998,SADDLEWORTH MEDICAL PRACTICE,-2.004957,53.548331
265.88,VILLAGE MEDICAL PRACTICE,-2.095994,53.574817
138.60000000000002,EASTGATE SURGERY,-0.519836,51.886145
151.64,SUMMERFIELD GROUP PRACTICE,-1.937353,52.487686
506.63,PHOENIX PRIMARY CARE (SOUTH) LTD,-0.441597,51.88973
546.0199999999999,THURROCK HEALTH CENTRE,0.323317,51.477404
6.34,CWP (WEST) PHYSICAL HEALTH,-2.897884,53.2088
3.88,THOMAS LINACRE SPECIALIST,-2.629091,53.55774
3.75,CARE UK COVENTRY OOH,-1.5080049999999998,52.413401
0.9,NSC BOSWORTH HUB,-1.7536330000000002,52.480569
3.41,SKEGNESS & COAST GP EXTENDED ACCESS HUB,0.342219,53.188059
97.76,THE OM SURGERY,-1.2057,53.034978
890.5799999999998,THE NEW SPRINGWELLS PRACTICE,-0.340804,52.893623
196.2,CAMP HILL GP LED HEALTH CENTRE,-1.507061,52.533074
1.69,DONCASTER URGENT CARE & OUT OF HOURS,-1.109062,53.530806
0.38,THE CONFEDERATION HILLINGDON CIC,-0.47790600000000005,51.547653
0.23,SHIRLEY MEDICAL EXTENDED ACCESS LLP,-0.044859,51.375139
303.25000000000006,THE PATEL PRACTICE,-1.1885709999999998,54.661404
1071.49,HOLMSIDE MEDICAL GROUP,-1.66023,54.969004
394.56000000000006,FARROW MEDICAL CENTRE,-1.74312,53.802511
572.4599999999998,PADDOCK AND LONGWOOD FAMILY PRACTICE,-1.80546,53.642119
490.84,BRAMLEY VILLAGE HEALTH & WELLBEING CTR,-1.623032,53.80781999999999
308.75,SEVERN SURGERY,-1.065583,52.598801
1869.94,BEACHES MEDICAL CENTRE,1.727734,52.577124
609.1,LINDEN ROAD SURGERY,-0.479248,52.14361
946.83,CUFFLEY AND GOFFS OAK MEDICAL PRACTICE,-0.113106,51.708171
2.33,ARC,-3.002931,53.801771
3.85,GLOUCESTER (CARE UK) OOH,-2.30608,51.879263
1010.72,THE GARTH,-1.055444,54.532597
476.86,THE GABLES MEDICAL GROUP,-1.564429,55.140811
351.7,HAYDON BRIDGE & ALLENDALE MEDICAL PRACT,-2.250059,54.975681
642.5,SPRING TERRACE HEALTH CENTRE,-1.450673,55.010941
604.3100000000002,PRACTICE ONE,-0.201064,54.084715
773.8299999999998,CHURCH STREET SURGERY,-1.583343,53.681523
791.5500000000003,SOUTH WIGSTON HEALTH CTR.,-1.129183,52.580452
335.99,BRAMCOTE SURGERY,-1.244985,52.935604
676.2000000000002,CAMPINGLAND SURGERY,0.690978,52.645997
1054.91,LEIGHTON ROAD SURGERY,-0.66795,51.915779
841.8499999999998,WILLOW TREE FAMILY DOCTORS,-0.265224,51.589337
586.3499999999998,QUEENS WALK PRACTICE,-0.312985,51.524803
591.9,HIGH STREET SURGERY  EPPING,0.113402,51.700812
1280.64,OLD ROAD SURGERY,1.148421,51.795466
232.87,HIGH STREET SURGERY,0.223589,51.561554
538.8499999999999,THE LIMEHOUSE PRACTICE,-0.028747,51.511253
73.85999999999999,MEDICUS HEALTH PARTNERS-WILLOW HOUSE,-0.07659,51.654209
276.62,MAIDSTONE RD RAINHAM SURGERY,0.600379,51.36233
249.95000000000005,BANK HOUSE SURGERY,0.069949,51.359218
524.3499999999999,FORDBRIDGE MEDICAL CENTRE,-0.46301,51.431269
634.74,EVERSLEY MEDICAL CENTRE,-0.11191300000000001,51.388514
442.18000000000006,YORK MEDICAL PRACTICE,-0.325697,51.449369
196.27,BERRYLANDS SURGERY,-0.299929,51.390825
817.7099999999998,CRICKET GREEN MEDICAL PRACTICE,-0.174025,51.404579
744.4099999999999,CARRINGTON HOUSE SURGERY,-0.749217,51.632299
168.58,PROSPECT HOUSE SURGERY,-0.705258,51.701136
287.56,WEMBURY SURGERY,-4.072566,50.32186
443.43,HOLLYOAKS MEDICAL CENTRE,-1.869052,52.377979
535.83,WOODSETTON MEDICAL CENTRE,-2.10089,52.537994
970.96,SHERWOOD HOUSE MEDICAL PRACTICE,-1.959426,52.473851
254.71,GARSTON FAMILY HEALTH CENTRE,-2.89683,53.353909
420.79,COMMONFIELD RD SURGERY,-3.086369,53.370187
515.0899999999999,THE BORCHARDT MEDICAL CENTRE,-2.237795,53.434307
211.04,WERNETH MEDICAL PRACTICE,-2.126938,53.53497
101.32,CHAPEL MEDICAL CENTRE,-2.418293,53.449094
249.36000000000004,DR VICTORIA MUIR'S PRACTICE,-0.151358,51.490651
433.66,WELLFIELD MEDICAL CENTRE,-2.242019,53.512545
865.7000000000002,NEWLANDS MEDICAL CENTRE,-1.226035,54.571931
733.63,WIGTON GROUP MEDICAL PRACTICE,-3.159002,54.820303
250.58,THE FAMILY PRACTICE,-3.229282,54.116755
1175.16,SKERNE MEDICAL GROUP,-1.4488,54.654032
713.6,ST ANDREWS SURGERY,-0.361958,53.735566
266.23,COWGILL SURGERY,-1.814543,53.781952
791.5899999999998,VILLAGE SURGERY,-1.485797,52.896347
240.99,THE GLENSIDE COUNTRY PRACTICE,-0.537958,52.75451
388.75000000000006,PLEASLEY SURGERY,-1.250873,53.175809
683.48,BACON LANE SURGERY,-0.275903,51.605078
1036.22,THE MEDICAL CENTRE  DR JEFFERIES & PARTN,-0.212607,51.481206
343.72,MEANWHILE GARDEN MEDICAL CENTRE,-0.203126,51.522228
1695.41,THE LIMES MEDICAL CENTRE,0.123958,51.706179
723.0999999999998,CHIGWELL MEDICAL CENTRE,0.083876,51.60551
219.3,NORTH AVENUE SURGERY,0.735187,51.546618
257.76,ROSERTON STREET SURGERY,-0.010049,51.498482
151.07999999999996,MEDICUS HEALTH PARTNERS- BUSH HILL PARK,-0.066545,51.63953
909.5300000000002,ALBION PLACE MEDICAL PRACTICE,0.529542,51.274206
149.48000000000005,OLD PARSONAGE SURGERY,0.460418,51.112785
328.04,TRIVENI PMS,0.058438,51.490321
577.5000000000001,HAWTHORNS SURGERY,-0.175174,51.241163
595.8699999999999,TRINITY MEDICAL CENTRE,-0.158437,51.437554
319.04,MITCHAM FAMILY PRACTICE,-0.167118,51.410109
449.52,THE WELLBRIDGE PRACTICE,-2.225354,50.679039
1019.46,THE HARVEY PRACTICE,-1.993525,50.761018
1789.8599999999994,HOMEWELL.CURLEW PRACTICE,-0.978019,50.851067
791.16,SPA MEDICAL CENTRE,-2.126012,51.366868
449.49,COOKHAM MEDICAL CENTRE,-0.725805,51.558356
758.8900000000001,THE MISBOURNE SURGERY,-0.558045,51.607786
975.6399999999999,ORCHARD MEDICAL CENTRE,-2.510659,51.462087
721.01,LYNGFORD PARK,-3.090916,51.036442
1612.4399999999996,STAFFORD HEALTH AND WELLBEING,-2.123291,52.817722
244.9,BOURNBROOK VARSITY MEDICAL CENTRE,-1.929903,52.445713
186.63,CAUSEWAY GREEN ROAD SURGERY,-2.014697,52.484564
931.75,PATTERDALE LODGE MED CTRE,-2.64461,53.452446
497.38000000000005,SUNLIGHT GROUP PRACTICE,-3.00005,53.363076
663.9900000000001,SHAY LANE MEDICAL CENTRE (KELMAN),-2.31556,53.372189
813.9300000000003,BLYTH ROAD MEDICAL CENTRE,-1.20365,53.422231
320.87999999999994,CENTRAL MEDICAL CENTRE,-0.245977,52.587
543.8299999999999,HARBOUR MEDICAL PRACTICE,0.324489,50.797353
0.17,URGENT CARE CTR (FCMS) OOH,-3.015863,53.820616
1266.32,MORRAB SURGERY,-5.538987,50.116924
784.36,WILLOW BANK SURGERY,-2.102853,52.97847
1182.2799999999995,EVERGREEN PRIMARY CARE CENTRE,-0.059836,51.623784
1.0,MEANWOOD GROUP PRACTICE ENT SERVICE,-1.565811,53.827167
1.94,M & A LTC PALLIATIVE CARE NURSE,-1.238124,52.98146
4.19,BARDOC GP OOH,-2.427769,53.590447
2.47,BANES ENHANCED MEDICAL SERVICE (BEMS+),-2.372621,51.358169
1.9,CCG ACUTE VISITING SERVICE,-2.178123,53.021853
0.61,M&A AHVS (PICS),-1.238124,52.98146
1165.37,BARBOURNE HEALTH CENTRE,-2.224952,52.208752
305.99,CRAVEN ARMS SURGERY,-2.835416,52.442323
1642.7699999999993,THE HAYMARKET HEALTH CTR,-2.211781,53.060343
522.55,GOLDENHILL MEDICAL CENTRE,-2.221385,53.076901
517.69,JIGGINS LANE MEDICAL CENTRE,-1.995411,52.436801
178.78,DARTMOUTH MEDICAL CENTRE,-2.005409,52.520435
368.56,ARRAN MEDICAL CENTRE,-1.748679,52.50386700000001
768.5299999999999,CHAPEL LANE SURGERY,-3.061428,53.557075
404.56,HEATHERLANDS MED CTR,-3.089543,53.381475
288.5300000000001,TOWN HALL SURGERY,-2.092973,53.478374
636.99,LILFORD PARK SURGERY,-2.511455,53.503236
84.15999999999998,PEEL PRECINCT SURGERY,-0.198814,51.534421
505.07000000000005,CATHEDRAL MEDICAL CENTRE,0.275488,52.413145
0.61,NDUC NEWCASTLE GATESHEAD OOH,-1.58819,55.01931999999999
19.4,MARSDEN INTERMEDIATE CARE,-1.696689,53.676075
0.58,LCW WLCCG OOH,-0.217218,51.522362
58.91,MALLING HEALTH AT STOKE ALDERMOOR,-1.479565,52.402142
358.31999999999994,DENMARK ROAD SURGERY,-0.06725100000000002,51.393136
0.13,VC WEST LANCS HC-UCC,-2.871252,53.564616
5.43,HOME VISITING SERVICE,-2.165957,53.412542
539.3499999999999,MEIR PARK & WESTON COYNEY MEDICAL PRACT,-2.094889,52.966305
621.22,HAMSTEAD ROAD SURGERY,-1.919012,52.504474
287.66,OAKWOOD SURGERY,-1.858645,52.444556
153.6,SURGERY AUBERY ROAD,-1.846411,52.46633
175.60000000000005,MOXLEY MEDICAL CENTRE,-2.051113,52.560033
851.1300000000001,NORTH PARK HEALTH CENTRE,-2.995994,53.458392
220.44000000000003,MEDICARE UNIT SURGERY,-2.69241,53.725239
563.7099999999998,LOSTOCK MEDICAL CENTRE,-2.328128,53.45458000000001
544.0899999999999,THE GROVE MEDICAL PRACTICE,-0.362401,51.55534
228.55,THE GAMSTON MEDICAL CTR.,-1.100495,52.924252
477.45,LANGLEY MEDICAL PRACTICE,-0.299929,51.390825
2.44,TELFORD OOH,-2.732712,52.740396
197.63,THE DURU PRACTICE,-2.116945,53.543824
0.93,CRISIS RESPONSE TEAM,-2.186902,53.52264
1.9,CENTRAL DURHAM GP EXT'D ACCESS SERVICE,-1.56716,54.7787
257.96,SHAP MEDICAL PRACTICE,-2.677931,54.52889
1380.7299999999998,AUCKLAND MEDICAL GROUP,-1.678996,54.648085
826.4199999999998,THE GLEN MEDICAL GROUP,-1.52187,54.97385
2370.84,ASHBY TURN PRIMARY CARE PARTNERS,-0.6542,53.566147
3003.98,HAXBY GROUP PRACTICE,-1.081866,54.019329
292.18999999999994,BRADFORD MOOR PRACTICE,-1.7218490000000002,53.797834
1459.4800000000002,ASH GROVE,-1.245572,53.704968
706.96,MILLVIEW MEDICAL CENTRE,-0.30904,52.981326
473.12000000000006,HOLLIES MEDICAL CENTRE,-1.494834,53.363179
164.77,VERITAS HEALTH CENTRE,-1.481026,53.354257
589.83,BRETTON MEDICAL PRACTICE,-0.281891,52.590431
753.45,LONG STRATTON MEDICAL PARTNERSHIP,1.229088,52.491027
1075.25,THE NEVELLS ROAD SURGERY,-0.22942,51.980882
979.0999999999997,THE HEALTH CENTRE PRACTICE,-0.020738999999999997,52.048757
471.82,HIGHFIELD SURGERY,-0.459233,51.766434
386.0399999999999,BELGRAVIA SURGERY,-0.14856,51.495004
137.31,COLLINGWOOD ROAD SURGERY,0.638271,51.802938
648.03,CHAPEL STREET SURGERY,0.051144,50.79327
1001.43,STOCK HILL SURGERY,0.031768,51.312089
207.73,CLAREMONT MEDICAL CENTRE,-0.306132,51.390808
855.64,WATERFRONT AND SOLENT SURGERY,-1.403379,50.870013
195.92,BLOOMSBURY SURGERY,-1.871892,52.49324300000001
523.82,ST JAMES MEDICAL PRACTICE2,-2.097323,52.514234
144.34,KHAN MEDICAL PRACTICE,-2.000799,52.613174
197.28,LINGHOLME HEALTH CENTRE,-2.744752,53.457769
1528.8100000000004,PEEL HOUSE MEDICAL PRACTICE,-2.365995,53.75089200000001
231.93,ASHURST PRIMARY CARE,-2.772723,53.563208
1164.64,RED BANK GROUP PRACTICE,-2.323706,53.560143
572.87,MARPLE BRIDGE SURGERY,-2.053323,53.400594
739.5799999999998,GRASMERE SURGERY,-2.511455,53.503236
673.6300000000001,GRAVESEND MEDICAL CENTRE,0.369986,51.443932
1081.7099999999996,PEASE WAY MEDICAL CENTRE,-1.576495,54.618581
235.94,ELSDON AVENUE SURGERY,-1.525885,55.07062
731.6899999999998,DR WICKREMESINGHE SSG,-0.123521,51.469491
3144.850000000001,TELDOC,-2.435206,52.672614
6.8,HAROLD WOOD WIC,0.225699,51.593184
440.80000000000007,CROSLAND MOOR SURGERY,-1.809637,53.63841
8.099999999999998,SOUTH LAKES PRIMARY CARE SERVICES,-2.737133,54.312706
577.9499999999998,THE ROSEBERRY PRACTICE,-1.292215,54.611726
1210.12,ST ANDREW'S MEDICAL PRACTICE,-1.598213,54.699634
1173.58,TANFIELD VIEW MEDICAL GROUP,-1.701373,54.869939
220.29,DR MITCHELL,-0.503581,53.72075
506.57000000000005,BEECH HOUSE SURGERY,-1.465892,54.010836
1006.54,MANOR PARK SURGERY,-1.628914,53.814076
684.54,PARKSIDE SURGERY,-1.391868,53.097732
1510.65,SPINNEY HILL MEDICAL CENTRE,-1.109212,52.637381
124.62,SPRINGFIELD MEDICAL CENTRE,-1.195502,53.003599
805.77,PARKGATE MEDICAL CENTRE,-1.342798,53.455454
443.61,BURWELL SURGERY,0.331841,52.273327
