total_cost,name,longitude,latitude
596.5,COLVILLE HEALTH CENTRE,-0.206231,51.515837
772.5899999999997,BRICKFIELDS SURGERY,0.605168,51.653143
489.54,TYNEMOUTH MEDICAL PRACTICE,-0.068331,51.586253
1793.2099999999996,TRINITY MEDICAL CENTRE,-0.172008,50.831228
1475.8500000000006,THE CEDARS SURGERY,1.403174,51.217619
608.53,THE KINGS FAMILY PRACTICE,0.534548,51.377821
857.4800000000001,FOUNTAIN PRACTICE,-0.252307,51.350378
370.45,ST ALBANS MEDICAL CENTRE,-0.302479,51.42195
1555.15,ORCHID HOUSE SURGERY,-1.894499,50.801788
1961.8200000000006,THE HADLEIGH PRACTICE,-1.993525,50.761018
2455.65,THREE CHEQUERS MEDICAL PRACTICE,-1.794625,51.071924
1762.65,WEAVERS MEDICAL,-0.733538,52.401531
908.11,NUFFIELD HEALTH CENTRE,-1.486793,51.786441
2094.72,BARTON SURGERY,-3.473818,50.579848
1855.19,BIDEFORD MEDICAL CENTRE,-4.211785,51.017201
1154.36,CORBETT MEDICAL PRACTICE,-2.148792,52.263269
3264.4299999999994,THE WESTGATE PRACTICE,-1.821176,52.683537
441.30999999999995,COBRIDGE SURGERY,-2.187008,53.035377
118.61,BURBURY MEDICAL CENTRE,-1.9103740000000002,52.502215
944.58,PLECK HEALTH CENTRE,-1.9980380000000002,52.574248
406.07000000000005,CORNERSTONE SURGERY,-2.724149,53.454211
282.7200000000001,HIGHER HEYS SURGERY,-2.394094,53.740865
1813.78,ALBION MEDICAL PRACTICE,-2.088476,53.48960400000001
1604.4599999999996,DELAMERE MEDICAL PRACTICE,-2.307365,53.450887
238.14000000000004,240 WEXHAM ROAD,-0.57838,51.516902
655.26,LONGFIELD MEDICAL PRACTICE,-2.28357,53.533828
1206.7500000000002,THISTLEMOOR MEDICAL CENTRE,-0.254566,52.595274
218.09,PALACCI (CASTELNAU),-0.238274,51.476873
540.44,CANTERBURY HEALTH CENTRE,1.082981,51.274249
317.44000000000005,BANBURY HEALTH CENTRE,-1.334014,52.062032
521.57,BRERETON SURGERY,-1.924317,52.747482
480.80000000000007,THE LAWNS SURGERY,-0.502907,50.807746
427.11,OAK TREE HEALTH CENTRE,-1.2409629999999998,51.614986
467.53,THE TRINITY MEDICAL PRACTICE,0.760305,51.684982
347.4700000000001,SOHO HEALTH CENTRE,-1.934945,52.503094
10.07,BECKENHAM BEACON URGENT CARE CENTRE,-0.033209,51.405232
416.88,BRIERLEY MEDICAL CENTRE,-1.382484,53.594188
6.67,NORWICH IMPROVED ACCESS HUB,1.319958,52.632405
721.79,METRO INTERCHANGE SURGERY,-1.602943,54.961848
1510.06,BRIDGE VIEW MEDICAL GROUP,-1.401824,54.919455
670.9900000000001,QUAKERS LANE SURGERY,-1.741713,54.406363
1822.89,HOLLYNS HEALTH & WELLBEING - CLAYTON,-1.81454,53.779166
818.83,BRIDGE STREET MEDICAL PRACTICE,-1.20716,52.774841
1046.21,CAYTHORPE & ANCASTER MEDICAL PRACTICE,-0.536327,52.981851
917.91,PARSON DROVE SURGERY,0.050459,52.660947
569.05,PRIORS FIELD SURGERY,0.124169,52.388951
1129.9100000000005,DAVENPORT HOUSE SURGERY,-0.354549,51.816177
1334.8200000000004,MILLWAY MEDICAL PRACTICE,-0.24359099999999997,51.614985
515.52,TEMPLE FORTUNE MEDICAL GROUP,-0.197845,51.581101
37.81999999999999,MOULSHAM LODGE SURGERY,0.475137,51.716565
135.22,WARRIOR SQUARE SURGERY,0.716503,51.539534
119.96,BRAYFORD SQUARE SURGERY,-0.050404,51.514375
253.49,YORK ROAD SURGERY,0.065859,51.559165
1430.87,WEST MALLING GROUP PRACTICE,0.407707,51.293351
1003.34,ELMDENE SURGERY,0.263153,51.446098
777.2,MOAT HOUSE SURGERY,-0.146361,51.259819
372.42,ALEXANDRA SURGERY,-0.205887,51.422912
550.14,DENHAM MEDICAL CENTRE,-0.502236,51.584564
618.2399999999999,CHEW MEDICAL PRACTICE,-2.629195,51.35619
954.4,ST.GEORGE'S SURGERY,-2.0815,51.906706
1078.4699999999998,CHARING SURGERY,0.791374,51.20971
404.89,THAMES AVE SURGERY,0.603057,51.36344
1892.31,CANTERBURY MEDICAL PRACTICE,1.128982,51.245539
203.67999999999995,TRAFALGAR SURGERY,-0.074414,51.485672
517.66,THE ORCHARD PRACTICE,-0.303542,51.369116
647.69,BALHAM PARK SURGERY,-0.155715,51.440487
287.79,UNIVERSITY HEALTH SERVICE,-1.395714,50.934099
682.21,LINDEN MEDICAL CENTRE,-0.737415,51.530813
640.08,OBSERVATORY MEDICAL PRACTICE,-1.265958,51.760293
394.16,CROPREDY SURGERY,-1.320027,52.116731
2090.9200000000005,HEART OF BATH,-2.373947,51.376364
587.0900000000001,BIRCHWOOD MEDICAL PRACTICE,-2.547938,51.446246
629.53,LOSTWITHIEL SURGERY,-4.668763,50.407892
486.5400000000001,ST SAVIOURS SURGERY,-2.308488,52.130324
1043.9199999999996,WERRINGTON VILLAGE SURGERY,-2.098023,53.021659
874.6400000000001,WEST HEATH SURGERY,-1.96202,52.401797
290.98,WEST PARK SURGERY,-2.141256,52.587783
319.2,THE MARSHSIDE SURGERY,-2.963125,53.67143299999999
439.3500000000001,MERSEYBANK SURGERY,-2.263012,53.42276
674.11,THE GROVE ROAD PRACTICE,-0.202341,51.358201
314.61999999999995,MOOR PARK MEDICAL PRACTICE,-1.7218490000000002,53.797834
290.7200000000001,UPTON ROCKS PRIMARY CARE,-2.754371,53.373367
376.07,HANLEY PRIMARY CARE CENTRE,-0.12083699999999999,51.567951
821.4499999999998,LEYLAND SURGERY,-2.709316,53.689645
0.75,HP NMP'S RUSH CCG,-1.143101,53.130244
767.01,WELLSBOURNE HEALTHCARE CIC,-0.107386,50.825445
324.37999999999994,CHEVIOT MEDICAL GROUP,-2.01842,55.546525
2915.6600000000008,THE CENTRAL SURGERY BARTON,-0.439445,53.684236
400.5400000000001,DEARNE VALLEY HEALTH CENTRE,-1.626482,53.588349
1204.12,MICKLEOVER MEDICAL CENTRE,-1.54633,52.907111
339.56999999999994,THE UNIV OF NOTTINGHAM HEALTH SERV,-1.195942,52.942177
300.05999999999995,LISTER HOUSE SURGERY,-0.4515,51.89192
349.23,THE ELMS SURGERY,-0.404224,51.661642
515.4300000000001,HOUNSLOW MEDICAL CENTRE,-0.37684,51.469395
247.34000000000003,P A PATEL SURGERY,0.582273,51.56978
129.23,SANCTA MARIA MEDICAL CENTRE,0.284011,51.507882
2562.06,SEAFORD MEDICAL PRACTICE,0.099275,50.772678
1410.8200000000004,BUXTED MEDICAL CENTRE,0.132095,50.989406
284.83,NEW INN SURGERY,-0.545657,51.257698
318.83,THE WHITEHORSE PRACTICE,-0.097391,51.385869
590.7900000000002,THE HEALTH CENTRE,-0.19711,51.363031
1240.23,WEST END ROAD SURGERY,-1.359281,50.916702
448.72999999999985,TOWER HOUSE SURGERY,-0.770004,51.636372
908.82,CHURCH STREET PRACTICE,-1.425847,51.598763
524.88,CLINTON ROAD SURGERY,-5.224966,50.23093
1563.4,PINHOE SURGERY,-3.469622,50.737528
1624.7500000000002,ROSEBANK HEALTH,-2.242194,51.852611
810.6000000000001,MAPLE VIEW MEDICAL PRACTICE,-1.905693,52.31659
502.9200000000001,PRESCOTT SURGERY,-2.852689,52.784345
173.72,BLOOMSBURY HEALTH CENTRE,-1.876618,52.493743
776.75,HEATON ROAD SURGERY,-1.579814,54.978269
843.8299999999998,49 MARINE AVENUE SURGERY,-1.451082,55.046268
807.8899999999999,HOUGHTON MEDICAL GROUP ,-1.469175,54.842322
1333.9,HOWDEN MEDICAL PRACTICE,-0.8694039999999998,53.744175
361.71,HANCOCKS ME,-0.41296400000000005,53.782123
963.7600000000001,THE WILSDEN MEDICAL PRACTICE,-1.86138,53.818377
119.63,COLSTERWORTH SURGERY,-0.619356,52.806388
482.53,LUNDWOOD MEDICAL CENTRE PMS PRACTICE,-1.438538,53.557711
372.96,GREASBROUGH MEDICAL CENTRE,-1.372776,53.452893
699.0800000000002,WELLSIDE SURGERY,-0.28478,52.440324
668.67,CLARE GUILDHALL SURGERY,0.580469,52.078259
595.7099999999998,LATTIMORE & VILLAGE SURGERY,-0.298547,51.726244
194.99,SOMERSET MEDICAL CENTRE,-0.371127,51.522244
1276.51,CENTRAL UXBRIDGE SURGERY,-0.475739,51.546229
841.1100000000001,WEST MERSEA SURGERY,0.9193420000000002,51.778349
1183.65,HIGHLANDS SURGERY,0.637339,51.548005
1143.06,BALLARDS WALK SURGERY,0.441841,51.573232
1664.0699999999995,DOWNLANDS MEDICAL CENTRE,0.244085,50.822919
1086.6600000000003,OTFORD MEDICAL PRACTICE,0.191446,51.31358
275.85,THE HALFWAY SURGERY,0.524157,51.380429
668.3,BURNEY STREET PMS,-0.009168,51.479034
627.4,ELIZABETH HOUSE MEDICAL PRACTICE,-0.050005,51.308093
253.25,ADDINGTON MEDICAL PRACTICE,-0.018557,51.344382
204.58,SARAJLIC (STAINES ROAD),-0.357923,51.439672
2602.6600000000008,ROYAL CRESCENT SURGERY,-2.452679,50.616587
1275.97,TWYFORD SURGERY,-1.314229,51.019421
91.97000000000001,ABBEY MEDICAL CENTRE,-0.982406,51.453949
764.0299999999999,ST.BARTHOLOMEWS MEDICAL CENTRE,-1.232108,51.747668
2789.39,THE DOWNEND HEALTH GROUP,-2.505301,51.485109
1039.85,IDE LANE SURGERY,-3.534972,50.699471
550.26,THE ARROW SURGERY,-1.861382,52.218546
1149.47,DR SN CLAY AND PARTNERS,-1.832005,52.528641
382.13,WILLENHAL OAK MEDICAL CENTRE,-1.463131,52.388988
1342.2900000000004,WORDSLEY GREEN HEALTH CENTRE,-2.164692,52.480602
1912.82,THE OVER-WYRE MED.CTR.,-2.976492,53.928203
620.4799999999998,FISHERGATE HILL SURGERY,-2.714363,53.75445500000001
249.17,THE SINGH MEDICAL PRACTICE,-2.213622,53.512042
1311.38,PARK VIEW GROUP PRACTICE,-2.160577,53.445476
330.1400000000001,FAMILY SURGERY,-2.346055,53.396194
7.979999999999999,STROKE PATHWAY AND REHABILITATION CENTRE,-1.461102,53.37116700000001
2.44,URGENT CARE,0.475497,50.850706
153.92,CRANBROOK MEDICAL PRACTICE,-3.416198,50.746596
1556.64,WHITLEY BAY HEALTH CENTRE,-1.43996,55.04141
1334.15,BLACKBURN RD.MEDICAL CTR.,-1.664718,53.731348
2643.41,MARKET HARBOROUGH MED.CTR,-0.924843,52.477084
679.2800000000002,COMMUNITY HEALTH CENTRE (ZS OSAMA),-1.113421,52.632387
1145.69,TRAMWAYS MEDICAL CENTRE (O'CONNELL),-1.503023,53.402044
1425.16,SAFFRON HEALTH PARTNERSHIP,-0.264459,52.084232
890.9199999999998,GLADSTONE MEDICAL CENTRE,-0.24612,51.558731
399.0799999999999,ST MARTINS MEDICAL CENTRE,-0.424566,51.577646
360.2000000000001,ABRIDGE SURGERY,0.12458,51.653631
205.21000000000004,ELSDALE STREET SURGERY,-0.049094,51.543033
958.0,STOPSLEY VILLAGE PRACTICE,-0.394147,51.901132
2157.47,SHEFFORD HEALTH CENTRE,-0.321643,52.034788
688.51,VALE DRIVE MEDICAL PRACTICE,-0.194727,51.648828
498.9,THE FRYENT WAY SURGERY,-0.280565,51.582963
546.25,BELMONT MEDICAL CENTRE,-0.478036,51.548264
528.03,PORTLAND ROAD PRACTICE,-0.208019,51.507366
2255.6800000000007,AUDLEY MILLS SURGERY,0.607129,51.584978
406.69000000000005,STRATFORD HEALTH CENTRE,0.004714,51.544651
125.77,THE STROUDLEY WLK HTH CTR,-0.017533,51.527214
476.9100000000001,ST JOHN'S MEDICAL PRACTICE,0.195249,51.285009
829.2,BEXLEY GROUP PRACTICE,0.10965599999999999,51.465832
603.33,DERRY DOWNS SURGERY,0.116651,51.385174
651.28,UPPER NORWOOD GROUP PRACTICE,-0.08482,51.413308
319.2700000000001,THE MOORINGS MEDICAL PRACTICE,-0.095892,51.322229
609.38,THE TOLLERFORD PRACTICE,-2.571586,50.778924
1179.25,BLACKTHORN HEALTH CENTRE,-1.327194,50.876037
399.49,JUBILEE FIELD SURGERY,-2.191875,51.484091
506.4800000000001,DANES CAMP MEDICAL CENTRE,-0.904374,52.205152
902.1099999999999,THORNBURY HEALTH CENTRE - BURNEY,-2.517723,51.612861
843.9299999999998,ELM HAYES SURGERY,-2.492756,51.300546
797.6099999999999,CULVERHAY SURGERY,-2.348649,51.638921
1162.89,SHAWBIRCH MEDICAL CENTRE,-2.531858,52.718121
751.5999999999998,THE DOVE MEDICAL PRACTICE,-1.864605,52.535155
2002.5099999999993,MOSS GROVE SURGERY,-2.1699,52.498674
1414.88,WARLEY MEDICAL CENTRE,-2.006757,52.468122
890.1000000000001,SPRINGFIELDS MEDICAL CENTRE,-2.597522,53.389256
877.6499999999999,WEAVER VALE PRACTICE,-2.696866,53.325561
1214.73,GLOVERS LANE SURGERY,-2.971961,53.488314
456.22,OLIVE MEDICAL CENTRE,-2.484193,53.752309
556.28,HALLIWELL SURGERY 1,-2.431738,53.588322
796.9,HEATON MERSEY MED.PRACT.,-2.205118,53.412519
346.19,VILLAGE SURGERY,-0.255874,51.399503
255.74,SOMERS TOWN MEDICAL CENTRE,-0.130607,51.529916
114.43,FITZMAURICE (KEW),-0.283117,51.475875
564.68,WOOTTON VALE HEALTHY LIVING CENTRE,-0.527951,52.093688
549.6700000000001,ST LUKE'S HEALTH CENTRE,0.7293039999999998,51.551
3397.49,THE MEDICAL GROUP,-1.628911,54.748296
913.49,GLENPARK MEDICAL CENTRE,-1.640096,54.953229
80.64999999999998,DR KHALIQ,-1.799612,53.663276
1245.0400000000004,ROBIN LANE HEALTH AND WELLBEING CENTRE,-1.661311,53.79500899999999
429.42,LAUREL BANK SURGERY,-1.587333,53.816942
702.3000000000002,HUGGLESCOTE SURGERY,-1.365684,52.71103
565.9700000000001,HEALTH CARE COMPLEX  KIRKBY,-1.244634,53.100062
594.36,RED HOUSE SURGERY,0.129161,52.214906
257.3,KINGS HEAD MEDICAL PRACTICE,-0.011448,51.635688
308.98,BRIMPTON HOUSE,0.699534,51.835776
395.33,THE AZAD PRACTICE,0.044868,51.531234
405.41,NEWHOLME SURGERY,-2.74261,53.456686
4.11,ADULT LD COMM SERVICES NW,-1.477708,52.526988
697.3700000000001,LUNESDALE SURGERY,-2.602213,54.200573
1287.24,COQUET MEDICAL GROUP,-1.580504,55.332599
313.47,THE GLENDALE SURGERY,-2.01842,55.546525
657.62,ALLERTON MEDICAL CENTRE,-1.533879,53.826921
966.83,SPILSBY SURGERY,0.098963,53.173049
328.50000000000006,BRIDGEWAY PRACTICE,-1.147343,52.943574
1115.63,THORNE MOOR MEDICAL PRACTICE,-0.966348,53.613648
865.6099999999999,MANOR AND PARK GROUP PRACTICE,-1.42716,53.373705
460.1,SOLE BAY H/C,1.6664740000000002,52.336325
576.0100000000001,DR PS BATH'S PRACTICE,-0.394147,51.901132
260.04,WATERSIDE MEDICAL CENTRE,-0.363984,51.502165
535.6300000000001,MELBOURNE HOUSE SURGERY,0.451756,51.749214
1722.0200000000002,LITTLE WALTHAM & GT NOTLEY SURGERY,0.477622,51.787396
553.19,AMPTHILL PRACTICE,-0.137293,51.5346
755.92,THE NORTH LONDON HEALTH CENTRE,-0.11243199999999999,51.617571
616.7400000000001,THE WILLOWS PRACTICE,0.104416,51.60776
1319.2399999999998,ST.PETER'S MEDICAL CENTRE,-0.135237,50.831002
1412.02,HIGHPARKS MEDICAL PRACTICE,0.496762,51.434213
620.3999999999999,YALDING,0.429804,51.221188
826.9699999999998,CRAWLEY DOWN HEALTH CENTRE,-0.07762099999999998,51.122557
393.37,BIRDHURST MEDICAL PRACTICE,-0.092613,51.365279
1054.14,FORESTSIDE MEDICAL PRACTICE,-1.416173,50.851823
182.55000000000004,BENTLEY VILLAGE SURGERY,-0.87992,51.189933
566.4100000000002,DR KUMAR & PARTNER STUDFALL MEDICAL CTR,-0.704816,52.495882
1992.89,CASTLE PLACE PRACTICE,-3.492865,50.908884
1146.26,COTSWOLD MEDICAL PRACTICE,-1.75678,51.886317
892.9499999999998,GLASTONBURY SURGERY,-2.721853,51.148462
870.1799999999998,NUNWELL SURGERY,-2.507177,52.187931
587.3299999999998,CLEOBURY MORTIMER SURGERY,-2.485608,52.377502
1174.65,MEDINA HEALTHCARE,-1.298686,50.697239
1374.7600000000007,BEDFORD STREET SURGERY,-0.729782,51.995784
1115.8,ALCHESTER MEDICAL GROUP,-1.138371,51.891398
717.5999999999998,GREENWAY COMMUNITY PRACTICE,-2.611274,51.499595
2014.14,THREE SPIRES MEDICAL PRACTICE,-5.055864,50.259982
1386.7900000000004,DEAN CROSS SURGERY,-4.095355,50.358939
766.95,SOUTHOVER MEDICAL PRACTICE,-3.528075,50.474733
1455.7300000000002,NEW VALLEY PRACTICE,-3.654492,50.792383
1004.2399999999997,THE STOKE ROAD SURGERY ,-2.068173,51.94667
1282.9300000000005,HIGHBRIDGE MEDICAL CENTRE,-2.979117,51.227372
1049.8599999999997,CANTILUPE SURGERY,-2.712261,52.055418
1942.13,MYTTON OAK MEDICAL PRACT.,-2.797762,52.707667
740.5999999999998,DRS SHAH & TALPUR,-2.194635,52.974032
585.83,DR VSR CHADALAVADA,-2.139143,53.0416
482.44,HAWKESLEY MEDICAL PRACTICE,-1.937498,52.39544
172.23999999999995,KEYNELL COVERT,-1.911857,52.408441
1382.9,PARK MEDICAL CENTRE,-2.873099,53.202665
1152.88,NORWOOD SURGERY,-2.97819,53.65000799999999
1210.66,WHALLEY MEDICAL CENTRE,-2.406348,53.819793
102.42,SLAIDBURN HEALTH CENTRE,-2.444001,53.967313
903.88,PIKES LANE 1,-2.446348,53.572728
93.16,DR PATHAK ND,-1.9843959999999998,52.51273
266.28,STRELLEY HEALTH CENTRE (COCKRILL),-1.227726,52.973231
419.58,PHOENIX MEDICAL PRACTICE,0.48126899999999995,51.328805
274.42,NETHERTON SURGERY,-2.97236,53.488626
373.07000000000005,DILSTON MEDICAL CENTRE,-1.640355,54.976621
472.82,NORTH CHELMSFORD NHS HCC,0.510815,51.750584
199.02,KIRKHOLT MEDICAL PRACTICE,-2.162243,53.59832
324.9200000000001,DR AZIM & PARTNERS,-0.225729,51.579655
381.53,BHF HIGHGATE SURGERY,-1.378978,53.573614
632.62,SEASCALE HEALTH CENTRE,-3.479998,54.396756
392.9699999999999,WIDDRINGTON SURGERY,-1.62051,55.240248
738.1900000000002,RIPLEY MEDICAL CENTRE,-1.405723,53.04704
701.26,DE MONTFORT SURGERY,-1.141192,52.6286
431.27000000000015,DENABY MEDICAL PRACTICE,-1.245792,53.490666
990.2899999999998,MENDLESHAM MEDICAL GROUP,1.0816,52.251866
536.27,UPTON ROAD SURGERY,-0.401058,51.656689
1169.0299999999995,DOLPHIN HOUSE SURGERY,-0.029818,51.810791
505.9800000000001,THE EVERGLADE MEDICAL PRACTICE,-0.24421,51.601578
862.9900000000001,FRIERN BARNET MEDICAL CENTRE,-0.155988,51.613267
159.67000000000004,THE CIVIC MEDICAL CENTRE,-0.337497,51.587155
1215.6899999999996,THE GOLD STREET SURGERY,0.240471,52.021716
1553.09,THE HOLLIES,0.610574,51.555461
315.95,THE LEIGH SURGERY,0.656153,51.555504
664.1399999999999,WEST HAMPSTEAD MEDICAL CENTRE,-0.196578,51.55004
916.6500000000002,STAUNTON GROUP PRACTICE,-0.112926,51.599388
1029.3800000000003,SOUTHBROOM SURGERY,-1.989037,51.352288
611.06,THE DOWNLAND PRACTICE,-1.312402,51.463442
511.99,GREENFORD ROAD MED.CTR.,-0.345702,51.537697
729.73,THE OAKLAND MEDICAL CENTRE,-0.45129300000000006,51.546055
296.00000000000006,QUEENS WALK MEDICAL CENTRE,-0.393155,51.562716
468.51,THE ABINGDON HEALTH CENTRE,-0.197138,51.496085
747.51,THE ARDLEIGH SURGERY,0.985096,51.927073
1104.2499999999998,ADDISON HOUSE - HAQUE PRACTICE,0.088979,51.770891
560.7,ST PETER'S STREET MEDICAL PRACTICE,-0.100772,51.535597
238.85,ABERFELDY PRACTICE,-0.004927,51.514483
1499.9200000000005,STONE CROSS SURGERY,0.289944,50.816757
405.99,ELTHAM PALACE PMS,0.053714,51.449946
561.7600000000001,BROCKBANK (PARK ROAD),-0.334596,51.423912
1151.8199999999995,CHAWTON PARK SURGERY,-0.989411,51.139814
768.2800000000002,STOKENCHURCH MEDICAL CTRE,-0.904033,51.660479
367.32000000000005,MARSHALLS ROAD SURGERY,-0.539225,52.344743
362.6499999999999,HOLLINSWOOD SURGERY,-2.437453,52.673936
364.91,ABBOTS BROMLEY SURGERY,-1.880966,52.819974
1764.24,DARWIN MEDICAL CENTRE,-1.831505,52.694061
1304.82,THE OAKS MEDICAL CENTRE,-1.895827,52.552454
267.36999999999995,VICTORIA ROAD MEDICAL CTR,-1.887197,52.501868
1271.19,ST JOHN'S MEDICAL CENTRE,-1.932532,52.626307
529.4899999999999,NEWBRIDGE SURGERY,-2.155299,52.5936
1843.29,THE CORNERSTONE PRACTICE,-2.4524,53.739201
729.22,TOWNSIDE SURGERY,-2.29898,53.59031
451.4500000000001,GOODMAYES MEDICAL CENTRE,0.10990599999999999,51.567626
302.3400000000001,PARK GRANGE MEDICAL CENTRE,-1.775929,53.789415
149.84000000000003,ST.GEORGES MEDICAL CENTRE,-0.24612,51.558731
364.61000000000007,HETHERINGTON AT THE PAVILION,-0.116397,51.461633
653.84,OAKWOOD MEDICAL CENTRE,-0.134269,51.646534
696.23,SOUTH HERMITAGE SURGERY,-2.752497,52.699728
58.62,C.A.M.H.S.,-2.689816,53.693597
6.45,PCEC,-2.227711,53.462436
49.45,EAST KENT HEADACHE SERVICE,1.414787,51.390277
24.06,SMGPF,-2.237795,53.434307
0.31,DCHS DERBY CITY,-1.441882,53.221288
413.77,REDBURN PARK MEDICAL CENTRE,-1.474775,55.00092
310.85,CASTLETOWN MEDICAL CENTRE,-1.450848,54.913341
268.33,ALDBROUGH ST JOHN SURGERY,-1.684645,54.496518
213.77,EAST PARADE MEDICAL PRACTICE,-1.061835,53.965993
213.37000000000003,BARKEREND HC - EL ELIWI,-1.7218490000000002,53.797834
2371.71,SHAFTESBURY MEDICAL CTR.,-1.497858,53.800234
709.6499999999999,GROBY ROAD MEDICAL CENTRE (ID PATCHETT),-1.150468,52.644337
418.9,ROSEMEAD DRIVE SURGERY,-1.083088,52.5934
65.97,AR-RAZI MEDICAL CENTRE,-1.101204,52.623926
715.5599999999998,BRANSTON & HEIGHINGTON FAMILY PRACTICE,-0.467988,53.195831
1527.7900000000006,FOUNTAIN MEDICAL CENTRE,-0.8043829999999998,53.07286
694.44,OAKENHALL MEDICAL PRACT,-1.199437,53.03661700000001
990.2300000000001,SCAWSBY HEALTH CENTRE PRACTICE,-1.167843,53.53678299999999
1165.3300000000004,ST. GEORGE'S MEDICAL CENTRE,0.298817,52.458085
1079.5800000000004,LAWNS PRACTICE,1.109092,52.378889
975.9299999999997,CENTRAL SURGERY,0.147747,51.812546
350.0200000000001,CHURCH END MEDICAL CENTRE,-0.253241,51.54757
766.4299999999998,BRENTFORD GROUP PRACTICE,-0.310054,51.48676
508.1,THE DEVONSHIRE LODGE PRACTICE,-0.397406,51.579266
224.44000000000003,THE HOXTON SURGERY,-0.086829,51.533527
339.99,LL MEDICAL CARE LTD,0.0021,51.555415
1734.0100000000007,JUBILEE MEDICAL CENTRE,0.300332,51.3978
365.59,LAMBETH WALK GROUP PRACTICE,-0.11259100000000001,51.495609
701.8899999999999,STANWELL ROAD SURGERY,-0.470567,51.438013
3870.27,THE ADAM PRACTICE,-2.07822,50.757881
481.0,SOUTHMEAD SURGERY,-0.616953,51.552538
241.88,CLIFTON HAMPDEN SURGERY,-1.211451,51.658625
371.52,GROOMBRIDGE AND HARTFIELD MED GRP,0.184416,51.113952
818.38,POND TAIL SURGERY,-0.066728,51.246436
2040.37,THE WALL HOUSE SURGERY,-0.208192,51.241304
268.75,THE HALING PARK PARTNERSHIP,-0.098109,51.357113
743.5200000000002,THE PRINCE OF WALES SURGERY,-2.457579,50.713502
989.0100000000001,BRANKSOMEWOOD H/CARE CTR,-0.8448069999999998,51.281888
641.3900000000001,THE GROVE SURGERY,-0.735114,52.023651
1292.91,PROBUS SURGERY,-4.948542,50.290121
1506.4,ABBEY SURGERY,-4.150401,50.546904
1044.79,WHITEACRES MEDICAL CENTRE,-2.300547,52.124716
332.95,WOODSIDE MEDICAL PRACTICE,-2.466175,52.637949
925.3899999999999,LYME VALLEY MEDICAL CENTRE,-2.22375,53.006305
684.4700000000001,AUDLEM MEDICAL PRACTICE,-2.508717,52.989615
570.7600000000001,KENNETH MACRAE MED CENTRE,-2.786435,53.49903
1211.77,BODEY MEDICAL CENTRE,-2.214798,53.440636
274.3500000000001,WOODLANDS MEDICAL PRACTICE,-2.31213,53.406624
251.43000000000006,DR PAL,-2.595495,53.47988
382.9,BATH ROAD SURGERY,-0.37684,51.469395
551.4599999999999,CHAPEL ROW SURGERY,-1.17086,51.425877
455.82,WOODLANDS MEDICAL PRACTICE,-0.170943,51.592914
0.5,NORTH LINCOLNSHIRE OOH,-0.667599,53.587582
2.3,EPUT COMMUNITY CARDIOLOGY,0.12393,51.704295
18.96,SOUTH YORK HEART FAILURE NURSES,-1.082907,53.951837
8.98,HEALTHBRIDGE DIRECT,0.020102,51.608432
0.59,TAMESIDE & GLOSSOP IC NHS FT,-2.071433,53.49153
1.94,EXTENDED HOURS SERVICE-ONE LIFE,-1.214164,54.682342
643.1999999999998,CRAMLINGTON MEDICAL GROUP,-1.591516,55.084481
2140.0,KINGSTON MEDICAL GROUP,-0.349365,53.756137
158.06000000000003,WESTFIELD MEDICAL CENTRE,-1.531703,53.817673
1090.7300000000002,VERNON STREET MEDICAL CTR,-1.49039,52.924019
629.98,STUBLEY MEDICAL CENTRE,-1.488541,53.304986
1396.2199999999998,BRIDGE COTTAGE SURGERY,-0.215995,51.830002
709.5300000000002,GRANGE STREET SURGERY,-0.335878,51.757298
215.56000000000003,CHICHELE ROAD SURGERY,-0.216241,51.55483
266.82000000000005,SHIRLAND ROAD MEDICAL CENTRE,-0.203904,51.5292
614.86,DR KRISHNAN & PTNR - KENT ELMS HC,0.664114,51.563831
346.14,CRANHAM HEALTH CENTRE,0.265291,51.568865
485.2900000000001,ST PETER'S SURGERY,1.41893,51.362936
560.6000000000001,LEWISHAM MEDICAL CENTRE,0.004522,51.458513
304.80999999999995,STEWKLEY ROAD SURGERY,-0.71666,51.898041
188.00000000000003,SIBFORD SURGERY,-1.479244,52.037614
1243.4899999999998,NEW COURT SURGERY,-2.958059,51.345794
1696.63,AXMINSTER MEDICAL PRACTICE,-2.999226,50.780899
2318.49,COLERIDGE MEDICAL CENTRE,-3.2835660000000004,50.751704
796.4100000000003,LYDNEY PRACTICE,-2.529867,51.727913
689.0700000000002,PRICES MILL SURGERY,-2.224938,51.693801
1250.82,ST. JOHNS SURGERY,-2.059728,52.337612
1358.76,THE ALDERGATE MED.PRACT.,-1.695644,52.639079
678.3200000000002,YARDLEY WOOD HEALTH CENTRE,-1.859168,52.418648
1492.1900000000005,MONTAGUE MEDICAL PRACTICE,-0.872899,53.707031
1530.4399999999994,EASTGATE MEDICAL GROUP,-1.462815,54.006795
844.7800000000002,HORTON BANK PRACTICE,-1.806018,53.774478
849.6900000000002,MARSH MEDICAL PRACTICE,0.143689,53.445069
2660.850000000001,HUDDERSFIELD ROAD SURGERY,-1.485631,53.558165
1440.9500000000005,SWALLOWNEST HEALTH CENTRE,-1.317097,53.362997
1095.3,SHERINGHAM MEDICAL PRACTICE,1.214777,52.939688
1501.63,KNEBWORTH & MARYMEAD MEDICAL PRACTICE,-0.184972,51.866323
257.57,THE HODFORD ROAD PRACTICE,-0.199318,51.569038
736.5,HAZELDENE MEDICAL CENTRE,-0.275394,51.547592
483.33,CLOISTER ROAD SURGERY,-0.265589,51.521352
419.6600000000001,ABBEY ROAD MEDICAL PRACTICE,0.005881,51.534784
288.59,BOUNDARY HOUSE SURGERY,-0.054245,51.632475
1095.4999999999998,MANOR PARK MEDICAL CENTRE,0.24261,50.819107
1140.06,CHURCH LANE HEALTH CENTRE,0.941162,50.984187
1990.3,BETHESDA MEDICAL CENTRE,1.414787,51.390277
766.52,WOODLANDS SURGERY,0.088913,51.439755
1158.65,LILLIPUT SURGERY,-1.954229,50.711523
2267.05,WESTBURY GROUP PRACTICE,-2.203558,51.252792
1550.0800000000004,PENRYN SURGERY,-5.10336,50.167504
1072.0,CROWN MEDICAL CENTRE,-3.080969,51.029111
1087.82,BARN CLOSE SURGERY,-1.859248,52.03627
275.99,HIGHLEY MEDICAL CENTRE,-2.392978,52.456165
378.62,ALVELEY MEDICAL PRACTICE,-2.353309,52.454738
516.2,WOLSTON SURGERY,-1.392727,52.376806
562.9300000000002,BALLIOL ROAD SURGERY,-1.471449,52.415924
642.6600000000002,NEWTON MEDICAL CENTRE,-2.638386,53.457172
676.64,GREASBY GROUP PRACTICE,-3.121417,53.377628
433.83,LOSTOCK HALL MEDICAL CTR.,-2.688037,53.727502
362.84,KNOWSLEY MEDICAL CENTRE,-2.300551,53.588497
378.0999999999999,TIMPERLEY HEALTH CENTRE (WESTWOOD),-2.323566,53.397228
0.49,ST JOSEPH'S HOSPICE  HACKNEY,-0.056255,51.537053
364.44,PENINSULA MEDICAL PRACTICE,-2.915665,54.18795600000001
490.65,ROSEWORTH SURGERY,-1.61867,55.001366
442.06000000000006,BLAKENEY SURGERY,-2.476364,51.759117
929.8900000000001,WELLS HEALTH CENTRE,-2.655326,51.203403
832.6399999999999,RIVERSIDE MED.PRACTICE,-2.755278,52.709209
790.99,CHANCERY LANE SURGERY,-1.521755,52.536173
425.61,NECHELLS PRACTICE,-1.876618,52.493743
989.11,THE LIMES MEDICAL CENTRE,-1.974677,52.58065500000001
885.12,TOWNFIELD HEALTH CENTRE,-3.064248,53.378798
105.78,PRINGLE STREET SURGERY,-2.467594,53.742039
679.0800000000002,HOPWOOD MEDICAL CENTRE,-2.212052,53.587143
1578.14,THE KILTEARN MEDICAL CTR.,-2.518506,53.068155
1320.68,BROADWAY MEDICAL CENTRE,-3.033843,53.912667
698.9000000000002,EGERTON/DUNSCAR HEALTH CENTRE,-2.426383,53.617589
1580.39,SADDLEWORTH MEDICAL PRACTICE,-2.004957,53.548331
472.56,VILLAGE MEDICAL PRACTICE,-2.095994,53.574817
278.73,EASTGATE SURGERY,-0.519836,51.886145
302.18,SUMMERFIELD GROUP PRACTICE,-1.937353,52.487686
464.06000000000006,PHOENIX PRIMARY CARE (SOUTH) LTD,-0.441597,51.88973
599.4200000000002,THURROCK HEALTH CENTRE,0.323317,51.477404
89.67,CWP (WEST) PHYSICAL HEALTH,-2.897884,53.2088
4.16,CARE UK COVENTRY OOH,-1.5080049999999998,52.413401
7.28,NSC BOSWORTH HUB,-1.7536330000000002,52.480569
8.359999999999998,SKEGNESS & COAST GP EXTENDED ACCESS HUB,0.342219,53.188059
165.99,THE OM SURGERY,-1.2057,53.034978
727.5799999999998,THE NEW SPRINGWELLS PRACTICE,-0.340804,52.893623
0.25,SAME DAY HEALTH CNTRE COASTAL HEALTHCARE,-2.859565,54.072841
287.07,CAMP HILL GP LED HEALTH CENTRE,-1.507061,52.533074
13.93,DONCASTER URGENT CARE & OUT OF HOURS,-1.109062,53.530806
588.6099999999999,THE PATEL PRACTICE,-1.1885709999999998,54.661404
1018.8799999999997,HOLMSIDE MEDICAL GROUP,-1.66023,54.969004
624.42,FARROW MEDICAL CENTRE,-1.74312,53.802511
637.5899999999998,PADDOCK AND LONGWOOD FAMILY PRACTICE,-1.80546,53.642119
921.5,BRAMLEY VILLAGE HEALTH & WELLBEING CTR,-1.623032,53.80781999999999
332.16,SEVERN SURGERY,-1.065583,52.598801
3583.25,BEACHES MEDICAL CENTRE,1.727734,52.577124
674.96,LINDEN ROAD SURGERY,-0.479248,52.14361
1252.4,CUFFLEY AND GOFFS OAK MEDICAL PRACTICE,-0.113106,51.708171
0.96,PRIMARY CARE ACCESS HUB (SOUTH STOKE),-2.102853,52.97847
0.05,NEAS SOUTH TYNESIDE CCG,-1.712365,54.969713
3.64,PROCARE HEALTH SERVICES,-0.708282,51.091746
28.35,GLOUCESTER (CARE UK) OOH,-2.30608,51.879263
1639.63,THE GARTH,-1.055444,54.532597
682.0,THE GABLES MEDICAL GROUP,-1.564429,55.140811
354.32,HAYDON BRIDGE & ALLENDALE MEDICAL PRACT,-2.250059,54.975681
869.4399999999998,SPRING TERRACE HEALTH CENTRE,-1.450673,55.010941
999.82,PRACTICE ONE,-0.201064,54.084715
1536.11,CHURCH STREET SURGERY,-1.583343,53.681523
988.74,SOUTH WIGSTON HEALTH CTR.,-1.129183,52.580452
290.73,BRAMCOTE SURGERY,-1.244985,52.935604
1104.2400000000002,CAMPINGLAND SURGERY,0.690978,52.645997
1566.7299999999998,LEIGHTON ROAD SURGERY,-0.66795,51.915779
926.76,WILLOW TREE FAMILY DOCTORS,-0.265224,51.589337
627.98,QUEENS WALK PRACTICE,-0.312985,51.524803
1024.16,HIGH STREET SURGERY  EPPING,0.113402,51.700812
1466.6099999999994,OLD ROAD SURGERY,1.148421,51.795466
238.04999999999995,HIGH STREET SURGERY,0.223589,51.561554
479.37,THE LIMEHOUSE PRACTICE,-0.028747,51.511253
382.7699999999999,MEDICUS HEALTH PARTNERS-WILLOW HOUSE,-0.07659,51.654209
364.61000000000007,MAIDSTONE RD RAINHAM SURGERY,0.600379,51.36233
258.26,BANK HOUSE SURGERY,0.069949,51.359218
1151.25,FORDBRIDGE MEDICAL CENTRE,-0.46301,51.431269
567.86,EVERSLEY MEDICAL CENTRE,-0.11191300000000001,51.388514
565.1200000000001,YORK MEDICAL PRACTICE,-0.325697,51.449369
324.87000000000006,BERRYLANDS SURGERY,-0.299929,51.390825
818.0300000000002,CRICKET GREEN MEDICAL PRACTICE,-0.174025,51.404579
387.74,CARRINGTON HOUSE SURGERY,-0.749217,51.632299
214.05000000000004,PROSPECT HOUSE SURGERY,-0.705258,51.701136
231.71,WEMBURY SURGERY,-4.072566,50.32186
702.0899999999997,HOLLYOAKS MEDICAL CENTRE,-1.869052,52.377979
843.9999999999997,WOODSETTON MEDICAL CENTRE,-2.10089,52.537994
1138.38,SHERWOOD HOUSE MEDICAL PRACTICE,-1.959426,52.473851
383.39,GARSTON FAMILY HEALTH CENTRE,-2.89683,53.353909
745.23,COMMONFIELD RD SURGERY,-3.086369,53.370187
933.32,THE BORCHARDT MEDICAL CENTRE,-2.237795,53.434307
119.34,WERNETH MEDICAL PRACTICE,-2.126938,53.53497
233.54,CHAPEL MEDICAL CENTRE,-2.418293,53.449094
466.47,DR VICTORIA MUIR'S PRACTICE,-0.151358,51.490651
644.3000000000002,WELLFIELD MEDICAL CENTRE,-2.242019,53.512545
1495.6400000000006,NEWLANDS MEDICAL CENTRE,-1.226035,54.571931
859.0,WIGTON GROUP MEDICAL PRACTICE,-3.159002,54.820303
519.67,THE FAMILY PRACTICE,-3.229282,54.116755
1741.8900000000006,SKERNE MEDICAL GROUP,-1.4488,54.654032
1380.6400000000006,ST ANDREWS SURGERY,-0.361958,53.735566
505.11,COWGILL SURGERY,-1.814543,53.781952
1302.87,VILLAGE SURGERY,-1.485797,52.896347
438.79,THE GLENSIDE COUNTRY PRACTICE,-0.537958,52.75451
351.36,PLEASLEY SURGERY,-1.250873,53.175809
732.8099999999998,BACON LANE SURGERY,-0.275903,51.605078
680.46,THE MEDICAL CENTRE  DR JEFFERIES & PARTN,-0.212607,51.481206
173.64,MEANWHILE GARDEN MEDICAL CENTRE,-0.203126,51.522228
1943.64,THE LIMES MEDICAL CENTRE,0.123958,51.706179
613.6,CHIGWELL MEDICAL CENTRE,0.083876,51.60551
332.13,NORTH AVENUE SURGERY,0.735187,51.546618
249.74,ROSERTON STREET SURGERY,-0.010049,51.498482
133.2,MEDICUS HEALTH PARTNERS- BUSH HILL PARK,-0.066545,51.63953
1285.2200000000005,ALBION PLACE MEDICAL PRACTICE,0.529542,51.274206
239.02,OLD PARSONAGE SURGERY,0.460418,51.112785
479.82000000000005,TRIVENI PMS,0.058438,51.490321
1066.2499999999998,HAWTHORNS SURGERY,-0.175174,51.241163
610.0999999999998,TRINITY MEDICAL CENTRE,-0.158437,51.437554
215.20000000000005,MITCHAM FAMILY PRACTICE,-0.167118,51.410109
580.37,THE WELLBRIDGE PRACTICE,-2.225354,50.679039
1401.0300000000007,THE HARVEY PRACTICE,-1.993525,50.761018
2159.7300000000005,HOMEWELL.CURLEW PRACTICE,-0.978019,50.851067
1078.77,SPA MEDICAL CENTRE,-2.126012,51.366868
456.25,COOKHAM MEDICAL CENTRE,-0.725805,51.558356
921.22,THE MISBOURNE SURGERY,-0.558045,51.607786
992.08,ORCHARD MEDICAL CENTRE,-2.510659,51.462087
571.02,LYNGFORD PARK,-3.090916,51.036442
1176.6900000000005,STAFFORD HEALTH AND WELLBEING,-2.123291,52.817722
401.92,BOURNBROOK VARSITY MEDICAL CENTRE,-1.929903,52.445713
236.66,CAUSEWAY GREEN ROAD SURGERY,-2.014697,52.484564
1356.2,PATTERDALE LODGE MED CTRE,-2.64461,53.452446
992.62,SUNLIGHT GROUP PRACTICE,-3.00005,53.363076
704.8200000000002,SHAY LANE MEDICAL CENTRE (KELMAN),-2.31556,53.372189
652.9700000000001,BLYTH ROAD MEDICAL CENTRE,-1.20365,53.422231
679.47,CENTRAL MEDICAL CENTRE,-0.245977,52.587
876.21,HARBOUR MEDICAL PRACTICE,0.324489,50.797353
1480.1899999999996,MORRAB SURGERY,-5.538987,50.116924
1079.41,WILLOW BANK SURGERY,-2.102853,52.97847
1052.43,EVERGREEN PRIMARY CARE CENTRE,-0.059836,51.623784
0.6,MEANWOOD GROUP PRACTICE ENT SERVICE,-1.565811,53.827167
12.03,BARDOC GP OOH,-2.427769,53.590447
16.24,BANES ENHANCED MEDICAL SERVICE (BEMS+),-2.372621,51.358169
1005.45,BARBOURNE HEALTH CENTRE,-2.224952,52.208752
546.02,CRAVEN ARMS SURGERY,-2.835416,52.442323
1770.23,THE HAYMARKET HEALTH CTR,-2.211781,53.060343
777.89,GOLDENHILL MEDICAL CENTRE,-2.221385,53.076901
582.99,JIGGINS LANE MEDICAL CENTRE,-1.995411,52.436801
252.11,DARTMOUTH MEDICAL CENTRE,-2.005409,52.520435
734.1699999999998,ARRAN MEDICAL CENTRE,-1.748679,52.50386700000001
1005.72,CHAPEL LANE SURGERY,-3.061428,53.557075
410.08,HEATHERLANDS MED CTR,-3.089543,53.381475
620.25,GUTTERIDGE MEDICAL CENTRE,-2.691248,53.769881
470.18,TOWN HALL SURGERY,-2.092973,53.478374
648.05,LILFORD PARK SURGERY,-2.511455,53.503236
53.72999999999999,PEEL PRECINCT SURGERY,-0.198814,51.534421
649.7199999999998,CATHEDRAL MEDICAL CENTRE,0.275488,52.413145
8.05,NDUC NEWCASTLE GATESHEAD OOH,-1.58819,55.01931999999999
9.26,MARSDEN INTERMEDIATE CARE,-1.696689,53.676075
5.16,EXTENDED ACCESS PRIMARY CARE HUB,-0.079465,51.533775
3609.16,GREENGATES MEDICAL GROUP,-0.418494,53.844343
2092.71,HEBDEN BRIDGE GROUP PRACTICE,-2.010942,53.744036
1179.84,LIMES MEDICAL CENTRE,-1.387885,53.098493
756.7699999999999,CHURCHSIDE MEDICAL PRACTICE,-1.203539,53.146592
691.3399999999998,SELSTON SURGERY,-1.299871,53.070196
731.8099999999998,CRYSTAL PEAKS MEDICAL CENTRE,-1.354473,53.342881
1471.3,LINCOLN HOUSE SURGERY,-0.469093,51.737355
929.7299999999998,STOCKWELL LODGE MED.CTR.,-0.055287,51.713792
346.85,SOUTHEND MEDICAL CENTRE,0.708516,51.540069
351.06000000000006,DR DEVARAJA VC PRACTICE,0.44359,51.520015
307.19999999999993,DR PM PATEL,0.219281,51.55632
238.30000000000004,THE MITCHISON ROAD SURGERY,-0.087357,51.544992
356.2100000000001,FOUNTAYNE ROAD HEALTH CENTRE,-0.065145,51.56442
1341.09,FRAMLINGHAM SURGERY,1.334192,52.227216
235.00000000000003,ARCHWAY SURGERY,-0.532167,51.72275
440.06,CHURCH LANE SURGERY,-0.262165,51.574931
121.42,CHISWICK FAMILY DRS PRACTICE,-0.259879,51.493563
307.99,ACRE SURGERY,-0.411552,51.604465
187.35,CHOWDHURY,0.233898,51.592339
389.63,CUMBERLAND MEDICAL CENTRE,0.026047,51.519716
649.25,ILFORD MEDICAL CENTRE,0.07431899999999998,51.556823
974.99,RYE MEDICAL CENTRE,0.730363,50.961944
221.44,MAIDSTONE RD CHATHAM SURGERY,0.516708,51.361226
197.57,VASSALL MEDICAL CENTRE,-0.10851199999999998,51.477558
1250.09,WITLEY SURGERY,-0.650163,51.156457
925.97,FARMHOUSE SURGERY,-1.7595,50.736437
1015.96,JENNER HOUSE SURGERY,-0.7745189999999998,51.294302
324.8300000000001,LONG BARN LANE SURGERY,-0.967033,51.436181
2123.59,WESTONGROVE PARTNERSHIP,-0.74378,51.76588
735.1400000000001,MILBORNE PORT SURGERY,-2.471962,50.967502
635.75,OMBERSLEY MEDICAL CENTRE,-2.229023,52.276554
1863.43,FURLONG MEDICAL CENTRE,-2.208139,53.063325
1065.5,NORFOLK STREET SURGERY,-2.182794,53.01602
453.44,PARADISE MEDICAL CENTRE,-1.494835,52.426778
628.41,MAYFIELD MEDICAL CENTRE,-2.093284,52.583046
707.23,LEVENSHULME MEDICAL PRACTICE,-2.188524,53.446352
762.7099999999998,HEALD GREEN HEALTH CENTRE 2,-2.229276,53.369878
294.04,SMITH (RICHMOND LOCK),-0.322897,51.464517
298.11,CHILLINGTON HEALTH CENTRE,-3.693645,50.272623
575.3499999999998,JUBILEE GARDENS MEDICAL CENTRE,-0.368739,51.521097
354.47,BLACKHEATH MED CTR,-3.104694,53.412239
185.48,AMBAR MEDICAL CENTRE,-1.991354,52.575093
217.76,GOLDINGTON ROAD SURGERY,-0.456174,52.140172
353.33,DMC ST MARYS ISLAND SURGERY,0.538105,51.406776
5.16,STREET LANE DERMATOLOGY CLINIC,-1.513393,53.843234
440.9000000000001,POPLAR PRIMARY CARE CENTRE,-1.890326,52.43631
13.74,NORTHAMPTONSHIRE OUT OF HOURS SERVICE,-0.683359,52.29767
3243.840000000001,THORNABY & BARWICK MEDICAL GROUP,-1.292128,54.538149
1493.6500000000005,BRAMPTON MEDICAL PRACTICE,-2.734846,54.94237
1121.7199999999998,RISEDALE SURGERY,-3.224778,54.109942
912.44,ROWLANDS GILL MEDICAL CENTRE,-1.742896,54.91936
1449.4600000000007,THE SUTTON MANOR SURGERY,-0.315294,53.785759
972.13,PLANE TREES GROUP PRACTICE,-1.894437,53.730448
1281.1299999999997,THORNTON MEDICAL CENTRE,-1.576209,53.791908
2486.4200000000005,JESSOP MEDICAL PRACTICE,-1.372226,53.074348
2825.6199999999994,THE PARK MEDICAL PRACTICE,-1.432644,52.928801
562.3100000000001,BRAILSFORD & HULLAND MEDICAL PRACTICE,-1.624927,52.96943
945.83,MERRIDALE MEDICAL CENTRE (RP TEW),-1.160752,52.620146
851.7800000000003,THE MAYFLOWER MEDICAL PRACTICE,-1.01945,53.431872
1177.5299999999995,BASLOW RD  SHOREHAM ST & YORK RD SRGIES,-1.531066,53.316325
541.51,OVER SURGERY,0.012018,52.314809
1139.0200000000004,DR TUN & PARTNERS,-2.583571,53.532102
734.86,ST.ANTHONY'S HEALTH CENTRE,-1.55655,54.966674
679.9899999999999,MANOR DRIVE MEDICAL CENTRE,-0.24836599999999998,51.380785
16.369999999999994,WESTCALL OOH,-0.8315749999999998,51.410524
1.92,NELFT SOUTH WEST ESSEX CS,0.496195,51.591456
1.5,HILLINGDON UCC,-0.461175,51.526077
11.97,EAST STAFFS IMPROVING LIVES,-1.6480290000000002,52.798809
958.9999999999997,BISHOPS CLOSE MEDICAL PRACTICE,-1.599142,54.699817
2036.98,CLEE MEDICAL CENTRE,-0.041433,53.566223
1207.5399999999995,WIBSEY & QUEENSBURY MED P,-1.779715,53.767225
283.3,SOUTHOWRAM SURGERY,-1.831696,53.712293
403.24,WHITWICK HEALTH CENTRE,-1.3606790000000002,52.742576
1614.1400000000006,MARKET SURGERY,-1.345958,53.502635
355.67,BALDWINS LANE SURGERY,-0.448705,51.654076
523.59,DERWENT CRESCENT MEDICAL CENTRE,-0.175285,51.622908
1120.01,THE STANMORE MEDICAL CENTRE,-0.304021,51.60154
728.4199999999998,NEASDEN MEDICAL CENTRE,-0.247382,51.559667
129.36,BROOK GREEN SURGERY,-0.218145,51.495291
2014.9,ABBEY FIELD MEDICAL CENTRE,0.898575,51.877487
104.02,JOHN SMITH MEDICAL CENTRE,0.112125,51.538899
292.4799999999999,TOTTENHAM HEALTH CENTRE,-0.068474,51.604755
398.72,DR MOHAMMED GREEN MAN MEDICAL CENTRE,0.015000999999999999,51.571506
793.76,FAIRFIELD PMS,0.038949,51.483908
303.91,PARKSIDE MEDICAL CENTRE,-0.092642,51.475826
579.4499999999998,NORK CLINIC,-0.215842,51.326429
544.0500000000001,QUEENHILL MEDICAL PRACTICE,-0.066791,51.34499
572.79,GRAND DRIVE SURGERY,-0.228811,51.402155
1685.5400000000004,THE BOSMERE MEDICAL PRACTICE,-0.990581,50.850232
1384.7499999999993,BURNHAM HEALTH CENTRE,-0.662137,51.5349
548.22,THE LONG BUCKBY PRACTICE,-1.08255,52.30049
2683.0899999999992,ASPEN MEDICAL PRACTICE,-2.225797,51.865969
484.52,GLOUCESTER CITY HEALTH CENTRE,-2.245328,51.860355
2341.98,ABBEY HOUSE MEDICAL PRACTICE,-1.160725,52.260319
1119.22,NORTON BROOK MEDICAL CENTRE,-3.782122,50.288739
279.55,SOMERSET BRIDGE MEDICAL CENTRE,-2.995883,51.115105
1318.8299999999995,TRENT VALE MEDICAL PRACTICE,-2.201785,52.987386
253.73000000000005,BROOKSIDE SURGERY,-1.399088,52.35048
723.32,NORTHWAY MEDICAL CENTRE,-2.130997,52.54810500000001
1371.4199999999996,MARTON MEDICAL PRACTICE,-3.034524,53.812843
1504.88,CORNISHWAY GROUP PRACTICE,-2.265017,53.379925
1541.7500000000002,BRAMHALL HEALTH CENTRE,-2.162929,53.36001
934.85,MAYNARD COURT SURGERY,0.020165,51.685605
456.25999999999993,AYLESBURY SURGERY,-1.876053,52.542854
129.12,NEVILLE ROAD SURGERY,-0.443036,51.906419
249.09000000000003,BOWLING GREEN STREET SURGERY,-1.133096,52.63304599999999
40.51,BCHC MEDICINES MANAGEMENT,-1.9537779999999998,52.398207
1656.5700000000004,YARM MEDICAL PRACTICE,-1.355519,54.50530500000001
438.89,BENSHAM FAMILY PRACTICE,-1.617038,54.952781
970.12,BURTON CROFT SURGERY,-1.57692,53.820807
305.65,EASTMOOR HEALTH CENTRE,-1.476864,53.690004
342.25000000000006,HARTINGTON SURGERY,-1.810816,53.142488
536.7599999999999,THE PRACTICE BEAUMONT LEYS,-1.15392,52.662296
685.9999999999999,TASBURGH LODGE SURGERY,-0.21375,53.151242
1160.5100000000002,SOTHALL & BEIGHTON HEALTH CENTRES,-1.340221,53.337895
159.74,KINGSWAY SURGERY,-0.437208,51.517478
333.41,FIVE ELMS MEDICAL PRACTICE,0.14235,51.553315
160.93,SPUR ROAD SURGERY,-0.086621,51.586597
672.4500000000002,THE MEADS SURGERY,0.091624,50.969686
431.63000000000005,ALBION STREET SURGERY,-0.133965,50.827627
1267.6699999999996,BELLEGROVE SURGERY,0.09579,51.464561
925.57,SOUTH VIEW PARTNERSHIP,0.026125,51.405111
539.56,CORNERWAYS SURGERY,-0.404519,50.81566
323.44,CHEAM GP CENTRE,-0.225239,51.368621
125.66,WALLINGTON MEDICAL CENTRE,-0.129285,51.357345
1058.6699999999996,THE BANKS & BEARWOOD MEDICAL CENTRE,-1.9292169999999997,50.768326
530.6800000000001,MERE SURGERY,-2.265342,51.089873
194.45,RAGSTONE ROAD SURGERY,-0.601832,51.503747
636.71,COMBE DOWN SURGERY,-2.345599,51.361003
1080.74,WADEBRIDGE & CAMEL ESTUARY PRACTICE,-4.835729,50.514816
459.6,NORTH PETHERTON SURGERY,-3.013922,51.09139
262.04,HANDSWORTH MEDICAL PRACT.,-1.941212,52.505377
703.2100000000002,EVE HILL MEDICAL PRACTICE,-2.096805,52.512922
230.39,BEARWOOD MEDICAL CENTRE,-1.97344,52.476903
839.1499999999999,THE GROUP PRACTICE ALFRED SQUIRE ROAD,-2.080754,52.599417
1400.8099999999995,WEST DERBY MEDICAL CENTRE,-2.895944,53.431273
218.46,BEEHIVE SURGERY,-2.419172,53.564161
304.8300000000001,QUEENS MEDICAL CENTRE,-2.235847,53.50081899999999
1416.5599999999995,LANGWORTHY MEDICAL PRACTICE,-2.294771,53.489371
249.2,LEY HILL SURGERY,-1.983266,52.421346
851.38,THE CHEYLESMORE SURGERY,-1.503924,52.391324
181.24,DR. B. K. PRASHARA,-2.114816,52.456326
641.6899999999998,ST PETER'S SURGERY,-1.984855,52.594537
890.7400000000001,ORMSKIRK HOUSE SURGERY,-2.74261,53.456686
809.2299999999998,MANOR HEALTH CTR,-3.044493,53.421061
1054.42,THE PENDLE MEDICAL PARTNERSHIP,-2.144307,53.915882
1564.7399999999993,3/SPRINGFIELD HOUSE MEDICAL PRACTICE,-2.362019,53.480252
1950.65,PENNINE MEDICAL CENTRE,-2.040966,53.515337
261.62,THE CROSSROADS SURGERY,-2.770123,53.417492
280.48999999999995,CRESCENT SURGERY,0.106446,51.389854
271.17,GREEN CEDARS MEDICAL CENTRE,-0.073642,51.616071
182.16,THE KINGSWAY PRACTICE,-2.135588,53.612168
656.37,WHITE HORSE SURGERY,0.343258,51.435153
8.41,THE ENFIELD PAIN CLINICS,-0.076772,51.66253
1.1,LAS S.E. LONDON IUC CAS,-0.10903099999999999,51.500174
13.57,WEST KENT GROUP,1.118942,51.075872
564.9400000000002,CHAPELFORD PRIMARY CARE CENTRE,-2.633066,53.39615799999999
16.81,BRAMHOPE DERMATOLOGY COMMUNITY CLINIC,-1.61581,53.881903
481.38,BHF LUNDWOOD SURGERY,-1.438538,53.557711
1038.4699999999998,DALTON SURGERY,-3.179816,54.155917
625.91,THE SELE MEDICAL PRACTICE,-2.095702,54.970372
703.2099999999998,WOODLANDS PARK HEALTH CTR,-1.628825,55.04614
559.08,CONCORD MEDICAL PRACTICE,-1.524864,54.913411
1322.9900000000007,MARKET WEIGHTON GROUP PRACTICE,-0.674786,53.864903
681.8000000000002,RAJ MEDICAL CENTRE,-0.113968,53.550655
1264.0799999999995,MAYFORD HOUSE SURGERY,-1.446534,54.328376
1303.11,OAKWOOD LANE MEDICAL PRACTICE,-1.493931,53.819982
3262.24,HEALTH CARE FIRST PARTNERSHIP,-1.393615,53.736872
1336.35,HAVEN MEDICAL CENTRE,-1.416874,52.891498
903.79,COUNTESTHORPE HEALTH CENTRE,-1.136767,52.554536
1209.82,CASTLE HEALTHCARE PRACTICE,-1.144908,52.930476
1296.18,BROOM LANE MEDICAL CENTRE,-1.332311,53.417383
416.44,CADDINGTON SURGERY,-0.458179,51.864502
723.5499999999998,ANNANDALE MEDICAL CENTRE,-0.17421099999999998,51.698571
2.81,GREENWICH CCG GP ACCESS HUB,0.050556,51.457843
484.72,WEST ROAD MEDICAL CENTRE,-1.656263,54.976209
425.93,IMEARY STREET PRACTICE,-1.424863,54.98753000000001
163.30999999999997,THE KILLINGHOLME SURGERY,-0.260335,53.62990799999999
783.9499999999998,DR SINHA & PARTNERS,0.100204,53.030138
525.83,THE HEALTH CARE SURGERY,-1.487911,53.42172
703.62,COMBERTON SURGERY,0.018614,52.189811
862.2799999999999,TRINITY & BOWTHORPE MEDICAL PRACTICE,1.280248,52.624411
776.25,THE LIMES SURGERY,-0.010842,51.759413
774.3099999999998,SHEPHALL HEALTH CENTRE,-0.167642,51.890799
257.74,WAKEMANS HILL SURGERY,-0.254209,51.587088
225.64,WESTBOURNE GROVE MEDICAL CENTRE,-0.200361,51.514211
884.1599999999999,FOREST PRACTICE,0.07523499999999998,51.654789
187.95,PRASAD,0.210579,51.600308
797.38,HARROW ROAD GP CENTRE,0.012856,51.559538
523.3499999999999,SEVEN DIALS MEDICAL CENTRE,-0.147743,50.829681
1521.43,NORTHDOWN SURGERY,1.368001,51.379866
297.25,MILTON REGIS SURGERY,0.7321839999999998,51.349193
1122.19,BARCROFT MEDICAL CENTRE,-1.780526,51.172939
356.91,BURBAGE SURGERY,-1.669545,51.348496
2152.5000000000005,THE SWAN PRACTICE,-0.985664,52.001593
1391.5499999999995,PIONEER MEDICAL GROUP,-2.617628,51.510306
509.49,THE CREST FAMILY PRACTICE,-2.596274,51.428746
134.56999999999996,WORTHEN MEDICAL PRACTICE,-3.000165,52.635224
918.27,NESTON MEDICAL CENTRE,-3.064349,53.291818
372.33,KIRKDALE MEDICAL CENTRE,-2.973842,53.433523
595.8499999999998,WITHNELL HEALTH CENTRE,-2.556663,53.692491
1920.73,DARWEN HEALTHLINK,-2.471427,53.695744
1240.02,ST.MARY'S HEALTH CENTRE,-2.729589,53.747433
750.8600000000001,DAVID MEDICAL CENTRE,-2.268652,53.43186
480.12999999999994,DR ABBAS,-0.841253,52.26834
255.22000000000008,FACCINI HOUSE SURGERY,-0.189379,51.389682
616.63,EDLESBOROUGH SURGERY,-0.588625,51.868423
328.94000000000005,DR GS KALKAT'S PRACTICE,0.103861,51.527941
303.5499999999999,JRB HEALTHCARE BEECHDALE SURGERY,-1.198142,52.961504
103.11,THE LYNWOOD SURGERY,-0.29964,51.528594
225.99,CHURCH VIEW MEDICAL CENTRE,-2.960328,50.935622
2082.15,WOODLANDS FAMILY MEDICAL CENTRE,-1.321204,54.561215
209.86,ASKAM SURGERY,-3.210918,54.183705
1955.3,FERRYHILL AND CHILTON MEDICAL PRACTICE,-1.556828,54.689838
878.9800000000001,COLLIERY COURT MEDICAL GROUP,-1.460703,54.949762
803.6000000000001,GRANGE PARK SURGERY,-1.7481080000000002,53.912695
1482.7000000000005,THE COUNTY PRACTICE,-1.069884,52.70073000000001
1937.38,BEECHFIELD MEDICAL CENTRE,-0.145012,52.787253
764.92,GRIMETHORPE SURGERY,-1.378978,53.573614
616.57,THE OAKWOOD SURGERY,-1.073937,53.506609
940.82,PAPWORTH SURGERY,-0.11749200000000001,52.252071
1170.55,ORCHARD SURGERY,0.944176,52.678309
1263.5300000000002,DR JK MARSDEN'S PRACTICE,-0.436528,51.894968
1038.2,MALTINGS SURGERY,-0.337918,51.751851
535.76,HANWELL HEALTH CENTRE (NAISH),-0.334375,51.510263
1018.39,WHITLEY HOUSE SURGERY,0.455723,51.726539
1351.61,WEST ROAD SURGERY,0.70187,51.544989
406.54,JOYDENS WOOD MEDICAL CENTRE,0.166397,51.42449
2684.61,TRAFALGAR MEDICAL GROUP PRACTICE,-1.092485,50.785331
814.75,EASTFIELD HOUSE SURGERY,-1.323251,51.395555
879.3000000000003,RECTORY MEADOW SURGERY,-0.6175,51.669079
1149.88,TUDOR LODGE SURGERY,-2.975378,51.332396
806.6599999999999,PRAZE-AN-BEEBLE SURGERY,-5.309264,50.173753
1320.5500000000004,CAMBRIAN MEDICAL PRACTICE,-3.047774,52.86281
516.11,PENN SURGERY,-2.145001,52.568567
815.3700000000001,FIRDALE MEDICAL CENTRE,-2.537387,53.253804
918.5,HALL GREEN SURGERY,-2.741349,53.540745
244.51,SARAF MEDICAL PRACTICE,-2.076954,53.561455
190.31,LATIMER HEALTH CENTRE,-0.049503,51.54659
428.11,DELL MEDICAL CENTRE,0.328114,51.480258
483.61,KIRKSTALL LANE MEDICAL CENTRE,-1.587333,53.816942
732.8099999999998,WHITCHURCH SURGERY,-1.340372,51.230256
392.68,DR NEWMAN,-1.975441,50.719722
1.03,GATDOC OOH,-1.580781,54.93938000000001
434.83000000000015,THE TRINITY MEDICAL CENTRE,0.085815,51.478803
11.329999999999998,CARE UK OOH,1.210633,52.034014
1.92,PONTELAND RD WIC,-1.656804,54.991604
1.12,IC24 LTD (HWLH OOH),0.891514,51.129106
693.9800000000004,KIRKBY COMMUNITY PRIMARY CARE CENTRE (3),-1.248741,53.10176
711.9200000000002,BERKLEY PRACTICE,-2.024533,52.58916
1114.25,BELLE VALE HEALTH CENTRE,-2.859752,53.392035
657.9999999999998,ELIZABETH STREET SURGERY,-3.043658,53.820839
883.31,RAMSBOTTOM MEDICAL PRACTICE,-2.319287,53.64878
286.25,THE WHITSWOOD PRACTICE,-2.253502,53.455769
1182.92,WOODLANDS MEDICAL PRACTICE,-2.142182,53.545559
734.7200000000001,BROOKS BAR MEDICAL CENTRE,-2.261969,53.461412
480.55,BROOK HOUSE SURGERY,-1.445882,50.921794
283.64,ASHVILLE SURGERY,-0.201145,51.476255
528.9400000000002,THE VILLAGE MEDICAL CTR,-0.512653,52.128152
4.38,DR HANTSDOC N OOH,-1.109918,51.280633
10.49,GP COLLABORATIVE OOH,-1.455965,53.409821
338.97,ST NEOTS HEALTH CENTRE,-0.267116,52.228966
9.2,HMR BARDOC OOH,-2.288591,53.59553
9.44,HOLYWELL AT LANGLEY HOUSE HCT,-0.391206,51.683651
5.92,NEAS HAST CCG,-1.712365,54.969713
1828.78,PRIORY MEDICAL CENTRE,-1.588641,52.285051
24.2,MODALITY ANN JONES FAMILY HEALTH CENTRE,-1.871333,52.462659
287.0200000000001,BALDWINS LANE SURGERY,-1.846405,52.414514
295.33,TUDOR PRACTICE STOCKLAND GREEN,-1.857329,52.52388199999999
771.7000000000002,CENTRAL SURGERY,-2.74261,53.456686
2399.07,ASH TREES SURGERY,-2.769484,54.129481
389.63999999999993,FAMILY PRACTICE,-2.486748,53.750552
506.97,MONARCH MEDICAL CENTRE,-2.316823,53.564198
945.5,LEESBROOK SURGERY,-2.07266,53.53879
520.4,WALTON SURGERY,1.335453,51.973564
355.50999999999993,LINCOLN GREEN MEDICAL CENTRE,-1.525196,53.802098
465.97,PARKGATE SURGERY,-1.548606,54.523273
406.1700000000001,DALTON TM,-2.643772,53.529393
179.44000000000003,POLLARD ROW SURGERY,-0.064328,51.528266
1.46,HARROGATE OOH,-1.517573,53.993807
1.72,MIRIAM MINOR EMERGENCY,-3.04649,53.39824599999999
3.44,NORTH CMHT,-4.126897,50.430114
43.59,WIRRAL HEART SUPPORT,-3.026531,53.380029
8.349999999999998,RUSHCLIFFE URGENT CARE SERVICE,-1.100495,52.924252
3.44,PML NEIGHBOURHOOD HUB (BANBURY),-1.349027,52.057771
750.05,BALDERTON SURGERY,-0.7864679999999998,53.052881
381.66,ULVERSTON COMMUNITY HEALTH CENTRE,-3.097833,54.198882
2.29,LCW WLCCG OOH,-0.217218,51.522362
82.31,MALLING HEALTH AT STOKE ALDERMOOR,-1.479565,52.402142
390.42,DENMARK ROAD SURGERY,-0.06725100000000002,51.393136
3.84,VC WEST LANCS HC-UCC,-2.871252,53.564616
997.1599999999999,MEIR PARK & WESTON COYNEY MEDICAL PRACT,-2.094889,52.966305
463.56,HAMSTEAD ROAD SURGERY,-1.919012,52.504474
607.5400000000002,OAKWOOD SURGERY,-1.858645,52.444556
267.64,SURGERY AUBERY ROAD,-1.846411,52.46633
245.18000000000004,MOXLEY MEDICAL CENTRE,-2.051113,52.560033
834.65,NORTH PARK HEALTH CENTRE,-2.995994,53.458392
360.8,MEDICARE UNIT SURGERY,-2.69241,53.725239
689.36,LOSTOCK MEDICAL CENTRE,-2.328128,53.45458000000001
426.93,THE GROVE MEDICAL PRACTICE,-0.362401,51.55534
338.83,THE GAMSTON MEDICAL CTR.,-1.100495,52.924252
589.22,LANGLEY MEDICAL PRACTICE,-0.299929,51.390825
408.6499999999999,THE DURU PRACTICE,-2.116945,53.543824
1.62,ERDINGTON GP HEALTH & WELLBEING WIC,-1.840871,52.522486
0.3,CRISIS RESPONSE TEAM,-2.186902,53.52264
57.31,CENTRAL DURHAM GP EXT'D ACCESS SERVICE,-1.56716,54.7787
273.97,SHAP MEDICAL PRACTICE,-2.677931,54.52889
2502.5400000000004,AUCKLAND MEDICAL GROUP,-1.678996,54.648085
1074.4499999999996,THE GLEN MEDICAL GROUP,-1.52187,54.97385
1674.37,ASHBY TURN PRIMARY CARE PARTNERS,-0.6542,53.566147
3943.59,HAXBY GROUP PRACTICE,-1.081866,54.019329
330.1700000000001,BRADFORD MOOR PRACTICE,-1.7218490000000002,53.797834
2254.94,ASH GROVE,-1.245572,53.704968
1357.2199999999998,MILLVIEW MEDICAL CENTRE,-0.30904,52.981326
601.3500000000001,HOLLIES MEDICAL CENTRE,-1.494834,53.363179
87.37,VERITAS HEALTH CENTRE,-1.481026,53.354257
1467.68,BRETTON MEDICAL PRACTICE,-0.281891,52.590431
1104.9199999999996,LONG STRATTON MEDICAL PARTNERSHIP,1.229088,52.491027
1238.7399999999998,THE NEVELLS ROAD SURGERY,-0.22942,51.980882
819.8399999999998,THE HEALTH CENTRE PRACTICE,-0.020738999999999997,52.048757
605.09,HIGHFIELD SURGERY,-0.459233,51.766434
411.82000000000005,BELGRAVIA SURGERY,-0.14856,51.495004
196.35,COLLINGWOOD ROAD SURGERY,0.638271,51.802938
856.1799999999998,CHAPEL STREET SURGERY,0.051144,50.79327
1140.81,STOCK HILL SURGERY,0.031768,51.312089
371.18,CLAREMONT MEDICAL CENTRE,-0.306132,51.390808
762.87,WATERFRONT AND SOLENT SURGERY,-1.403379,50.870013
1351.95,NORTH ROAD SUITE RAVENSTHORPE HEALTH CTR,-1.661589,53.677829
1103.48,CASTLE MEAD MEDICAL CENTRE,-1.367743,52.541052
871.5499999999998,RADCLIFFE-ON-TRENT. HEALTH CENTRE,-1.03822,52.946139
654.53,RISE PARK SURGERY,-1.174951,53.011477
468.56,MANCHESTER ROAD SURGERY,-1.521086,53.380573
897.4699999999998,CHERRY HINTON MEDICAL CENTRE,0.177635,52.187459
861.4699999999998,THE MEDICI MEDICAL PRACTICE,-0.418382,51.874494
512.5600000000001,PENSHURST GARDENS SURGERY,-0.272812,51.616129
304.0300000000001,ELLIS PRACTICE,-0.276552,51.563894
122.94,ORCHARD END,0.539532,51.091415
560.07,NEW ELTHAM AND BLACKFEN MEDICAL CENTRE,0.074199,51.434495
599.4300000000002,THE GROVE MEDICAL CENTRE,-2.513702,50.953273
1675.1,BISHOPS WALTHAM SURGERY,-1.212149,50.95528
690.28,THE WILLESDEN MEDICAL CENTRE,-0.233873,51.547532
425.91,EASTMEAD AVENUE SURGERY,-0.36274,51.531443
156.22999999999996,KINCORA DOCTORS SURGERY,-0.412216,51.511666
177.90000000000003,DR M GOYAL'S PRACTICE,0.156711,51.540066
564.4300000000002,TOLLGATE MEDICAL CENTRE,0.056362,51.515573
311.03,HETHERINGTON GROUP PRACTICE,-0.12823,51.460932
244.35,SELHURST MEDICAL PRACTICE,-0.088969,51.390012
1008.38,THE WATERFIELD PRACTICE,-0.733923,51.409204
363.61,JERICHO HEALTH CENTRE,-1.265958,51.760293
636.3299999999998,PONTESBURY MEDICAL PRAC,-2.887922,52.650521
1038.38,TUTBURY HEALTH CENTRE,-1.686361,52.858454
878.5599999999998,TEAN SURGERY,-1.988036,52.954415
441.05000000000007,WAKE GREEN SURGERY,-1.883357,52.446103
477.19,THORNLEY STREET MEDICAL CENTRE,-2.125789,52.58843
803.83,MEREPARK MEDICAL CENTRE,-2.300747,53.093285
748.7899999999998,RAINHILL VILLAGE SURGERY,-2.763813,53.41631
465.1700000000001,MILE LANE HEALTH CENTRE,-2.335248,53.587814
614.4600000000002,NEW ISLINGTON MEDICAL CENTRE,-2.219472,53.4829
1293.7500000000002,CLARENDON MEDICAL CENTRE,-2.079951,53.45264
721.3,BRAITHWAITE RD SURGERY,-2.574985,53.477412
666.8000000000002,WOODGRANGE MEDICAL PRACTICE,0.025253,51.548596
210.90000000000003,JARVIS MEDICAL PRACTICE,-2.095095,53.537786
273.85,DR SP TALPAHEWA,-0.260303,51.616115
6.250000000000001,IC24 LTD (NORFOLK & WISBECH OOH),0.891514,51.129106
422.79,BRANDON MEDICAL PRACTICE,0.6233,52.448489
527.9599999999999,BOLTON MEDICAL CENTRE,-2.431399,53.56543
424.1,THE MANSELL ROAD PRACTICE,-0.358969,51.525654
752.4400000000002,WESTCROFT HEALTH CENTRE,-0.795699,52.006367
30.9,FOUNDATIONS,-1.257899,54.563441
11.51,(FRACTURE CLINIC) NORTH OOH,-0.883829,52.236068
238.9,READING WALK-IN HEALTH CENTRE,-0.9758960000000002,51.454809
0.8500000000000002,MERSEYCARE NHS TRUST - NMP,-2.933499,53.407265
19.52,NORTH TYNESIDE CARE PLUS,-1.456596,55.011193
3.84,KINGSTON CCG SLDUC OOH,-0.283378,51.412517
1293.6800000000005,LOWTHER MEDICAL CENTRE,-3.586392,54.545056
1218.7600000000002,COLLEGE LANE SURGERY,-1.336292,53.644573
1039.49,THE SURGERY CLIFTON ROAD,-1.737497,53.013356
596.1199999999999,THE ORCHARD MED PRACTICE,-1.231693,52.533972
2516.1,MUNRO MEDICAL CENTRE,-0.147427,52.794037
537.5500000000002,MOSBOROUGH HEALTH CENTRE,-1.364873,53.325238
734.7800000000002,ORCHARD SURGERY MELBOURN,0.020092,52.080651
1389.4499999999996,HIGH STREET SURGERY,1.756043,52.482123
761.0,ANDAMAN SURGERY,1.715485,52.45691600000001
3035.2900000000004,STANMORE MEDICAL GROUP,-0.204612,51.913274
693.65,PUCKERIDGE & STANDON SURGERY,0.019374,51.888296
1344.4999999999998,KING GEORGE SURGERY,-0.206096,51.907416
508.73999999999984,COMMONWEALTH HEALTH CENTRE,0.36308,51.463166
473.05,KEATS GROUP PRACTICE,-0.17103,51.555534
390.7800000000001,BURNT ASH SURGERY,0.009913000000000002,51.452782
916.62,HILLVIEW MEDICAL CENTRE,-0.557727,51.315501
1108.15,DOWNING STREET GROUP PRACTICE,-0.7989009999999998,51.212905
211.80000000000004,ASHBURTON PARK MEDICAL CENTRE,-0.064221,51.384147
636.1500000000002,TAMWORTH HOUSE MEDICAL CENTRE.,-0.146254,51.40122
799.4699999999998,PARKSIDE PRACTICE,-1.353169,50.970948
418.28,ST.PETERS SURGERY,-1.372792,50.897829
229.89,NEATH HILL HEALTH CENTRE,-0.747321,52.060411
562.2399999999999,BATHEASTON MEDICAL CENTRE,-2.317387,51.406032
1379.3200000000004,DARTMOUTH MEDICAL PRACTICE,-3.580811,50.351157
1162.51,DARTFORD EAST HEALTH CENTRE,0.236914,51.440747
992.1400000000001,CHURCH STREET PRACTICE,-0.459783,51.37345
800.62,THE GREYSWOOD PRACTICE,-0.144853,51.419489
409.71,BOLINGBROKE MEDICAL CENTRE (THMP),-0.168282,51.45617
668.36,LEYBOURNE SURGERY,-1.88721,50.758437
1234.36,THE BORDER PRACTICE,-0.740565,51.240995
1046.94,PATFORD HOUSE PARTNERSHIP,-2.005519,51.437601
349.6400000000001,CHATHAM STREET SURGERY,-0.981895,51.455924
1366.5600000000004,THE CROSS KEYS PRACTICE,-0.830848,51.723655
921.13,WHITELADIES MEDICAL GROUP,-2.612382,51.465097
499.53,HILLCREST SURGERY,-2.431687,51.311982
1015.5300000000003,DEVON SQUARE SURGERY,-3.60508,50.529985
527.08,ESTOVER SURGERY,-4.0952,50.411271
781.8499999999998,THE ROYAL WELL SURGERY,-2.0815,51.906706
597.5600000000002,APSLEY SURGERY,-2.187008,53.035377
737.0300000000002,THE LIMES SURGERY MEDICAL CENTRE,-2.114052,52.456884
429.7800000000001,ASHFIELD ROAD SURGERY,-2.132841,52.62604399999999
864.88,NORTHGATE MEDICAL CENTRE,-2.892972,53.19509300000001
1144.3099999999995,RIVERSIDE SURGERY,-3.006197,53.372004
1087.1,LAYTON MEDICAL CENTRE,-3.027291,53.827425
1452.68,HT PRACTICE,-2.110496,53.478305
706.96,WESTLEIGH MEDICAL PRACTICE,-2.526024,53.510851
184.47000000000003,MEDICUS HEALTH PARTNERS-CURZON AVENUE,-0.036518,51.645435
347.0,WINDMILL SURGERY,-1.48555,52.449933
386.92,ARNOS GROVE MEDICAL CENTR,-0.129838,51.615476
111.36,ST.QUINTIN HEALTH CENTRE,-0.220325,51.519199
450.44000000000005,PARK COMMUNITY PRACTICE,-1.871717,53.725678
47.89,NT&H COMM CARDIAC N,-1.227837,54.702398
1.46,CAMDEN COMMUNITY NURSING,-0.131658,51.53665
0.61,CHELTENHAM LOCALITY NURSE PRESCRIBER,-2.176389,51.847073
88.36999999999998,CARDIAC SERVICE STOKE AND NORTH,-2.109085,52.810605
385.95,MELROSE SURGERY,-1.287301,54.609397
1017.05,BLACKETTS MEDICAL PRACTICE,-1.559007,54.527221
786.5200000000002,DR A SINHA,-0.108523,53.567689
1279.2399999999998,WILLINGTON SURGERY,-1.566835,52.850285
388.63,UPWELL STREET SURGERY,-1.434724,53.406424
799.1400000000001,LAKENHAM SURGERY,1.296577,52.6183
1097.4899999999998,MANOR FARM MEDICAL CENTRE,0.690513,52.648544
949.0499999999998,PLOWRIGHT MEDICAL CENTRE,0.686691,52.655577
1303.8200000000004,REGAL CHAMBERS SURGERY,-0.275959,51.952843
371.32,STANHOPE SURGERY,-0.032073,51.688002
340.72,THE GARWAY MEDICAL PRACTICE,-0.185494,51.515392
1091.59,BEECHWOOD SURGERY,0.292731,51.608567
523.41,THE NIGHTINGALE PRACTICE,-0.062434,51.558261
917.18,THE GRAHAM PRACTICE,0.048721,51.541534
662.8999999999999,ISLAND HEALTH,-0.013513,51.495357
1307.5299999999995,STANFORD MEDICAL CENTRE,-0.148293,50.838378
683.68,NEWINGTON ROAD SURGERY,1.399222,51.343459
1107.6599999999996,BELVEDERE MEDICAL CENTRE,0.144376,51.482567
1445.71,ST.LAWRENCE SURGERY,-0.390026,50.823979
1731.6000000000006,MID SUSSEX HEALTH CARE,-0.175279,50.933719
895.1100000000001,THE WHITELEY SURGERY,-1.266072,50.88262
3754.97,ACORN HEALTH PARTNERSHIP,-1.114058,51.245047
6149.5700000000015,PORTSDOWN GROUP PRACTICE,-1.080952,50.812876
1470.4100000000005,THE ELMS PRACTICE,-0.976476,50.789794
1170.54,ESPLANADE SURGERY,-1.158697,50.731943
455.33,GLASTONBURY HEALTH CENTRE,-2.712893,51.148733
1880.5700000000006,MAYFIELD SURGERY,-2.13456,52.982709
663.4,BRIDGE MEDICAL,-1.506726,55.038077
178.78,WINDSOR MEDICAL CENTRE,-1.622157,53.693875
1159.0600000000004,ASHBOURNE MEDICAL PRACTICE,-1.737589,53.012862
996.3400000000001,THE UPPINGHAM SURGERY,-0.723557,52.594972
1101.7800000000002,ABBEY MEDICAL GROUP,-1.119194,53.100674
693.84,LOWMOOR ROAD SURGERY,-1.244634,53.100062
807.1699999999998,BIRLEY HEALTH CENTRE,-1.396985,53.340317
1454.08,PARKFIELD MEDICAL CENTRE,-0.179588,51.695129
398.37,REDWOOD PRACTICE,-0.359614,51.461125
295.8900000000001,SUNRISE MEDICAL CENTRE,-0.382255,51.51087
649.1,THE THORPE BAY SURGERY,0.757986,51.534599
252.23999999999995,HOLBORN MEDICAL CENTRE,-0.118539,51.522233
233.59000000000003,BRICK LANE SURGERY,-0.048612,51.657327
214.76,ABBEY COURT,0.26122,51.137755
388.07000000000005,ELM LODGE SURGERY,-0.096232,51.451506
996.88,HUDSON (SEYMOUR HOUSE),-0.292773,51.462401
756.4199999999998,OPEN DOOR SURGERY,-0.155581,51.443166
751.2200000000001,THE LIGHTHOUSE GROUP PRACTICE,-1.0805049999999998,50.796551
1295.77,THE ORCHARD PARTNERSHIP,-1.865867,51.077878
1518.7199999999998,WHADDON MEDICAL CENTRE,-0.7662759999999998,52.000308
600.37,SONNING COMMON HEALTH CTR,-0.982114,51.515603
1860.5800000000006,LANDER MEDICAL PRACTICE,-5.055864,50.259982
404.06000000000006,BROSELEY MEDICAL PRACTICE,-2.481266,52.611554
228.42000000000004,BONEY HAY SURGERY,-1.926768,52.690328
456.96,BEECH TREE MEDICAL PRACTICE,-1.252936,52.377534
841.7899999999998,ALUM ROCK MEDICAL CENTRE,-1.850664,52.489901
147.69,GREENFIELD MEDICAL CENTRE,-1.855764,52.491684
536.4100000000001,THE SURGERY,-2.605295,53.024859
743.38,PARKGATE SURGERY,-2.882743,53.564772
940.59,MARPLE MEDICAL PRACTICE,-2.064954,53.39495
15.32,STORTHFIELD HOUSE,-1.332746,53.097559
285.29,CLOVER CITY PRACTICE,-1.46659,53.38187
3.55,WLCCG EXTENDED HOURS HUBS,-0.217218,51.522362
727.5499999999997,ASPATRIA MEDICAL GROUP,-3.337992,54.762123
3179.67,WILLIAM BROWN CENTRE,-1.33142,54.757994
556.55,WELLSPRING MEDICAL PRACT.,-1.564066,55.037289
531.02,RED HOUSE MEDICAL CENTRE,-1.424063,54.925457
1049.22,COLNE VALLEY GROUP PRACTICE,-1.9282130000000002,53.602096
150.05,FAMILY DOCTORS,-1.440964,53.798248
1084.1,ROYSTON GROUP PRACTICE,-1.451018,53.600005
279.63,SOUTHEY GREEN MEDICAL CTR,-1.477666,53.419051
1487.63,IVRY STREET MEDICAL PRACTICE,1.148624,52.064021
381.77,NORTH FULHAM SURGERY,-0.199224,51.486415
56.10999999999999,FULHAM CROSS MEDICAL CENTRE,-0.214067,51.482774
36.74,LAI CHUNG FONG QUEENS PARK HEALTH CENTRE,-0.205826,51.530911
773.2799999999999,NEWBURY GROUP PRACTICE,0.085981,51.576435
2474.0,HARDWICKE HOUSE GROUP PRACTICE,0.725792,52.0382
1161.7999999999995,WHEATFIELD SURGERY,-0.495144,51.904445
234.84,BRAMPTON HEALTH CENTRE,-0.277386,51.586099
312.91,DOCKLANDS MEDICAL CENTRE,-0.021143,51.491152
565.9300000000002,BELMONT SURGERY,0.340829,51.061952
337.11,LONG CATLIS ROAD SURGERY,0.595579,51.348325
418.83,ABBEY WOOD SURGERY,0.11653,51.497094
453.07,WOOLSTONE MEDICAL CENTRE,-0.036776,51.438421
614.93,MINET GREEN HEALTH PRACTICE,-0.105204,51.475715
856.7899999999998,SOUTHGATE MEDICAL GROUP,-0.194559,51.102316
637.6999999999998,NEW ADDINGTON GROUP PRACTICE,-0.018557,51.344382
512.74,BANBURY ROAD MEDICAL CENTRE,-1.263535,51.774771
2127.350000000001,THE ARMADA FAMILY PRACTICE,-2.571861,51.413438
1161.72,STAFFORD MEDICAL GROUP,-2.914755,51.35259
792.6899999999998,BROCKWORTH SURGERY,-2.156696,51.844575
1805.29,SEVERN VALLEY MEDICAL PRACTICE,-2.235045,52.190415
1115.2899999999997,DAWLEY MEDICAL PRACTICE,-2.466781,52.664322
1112.17,LEEK HEALTH CENTRE,-2.019347,53.105691
752.8800000000001,CHASE MEADOW HEALTH CENTRE,-1.608604,52.268838
99.59,HILL TOP PRACTICE,-2.011775,52.537791
420.06,MAGHULL HEALTH CENTRE (DR SAPRE),-2.943932,53.515597
710.89,LIME SQUARE MEDICAL CENTRE,-2.164901,53.473649
344.37999999999994,WINDERMERE SURGERY,-2.205709,53.55956
1559.19,BEESTON VILLAGE SURGERY,-1.569152,53.772415
213.5,HATTON MEDICAL PRACTICE,-0.433285,51.457879
348.08,BLURTON MEDICAL CENTRE,-2.156565,52.972002
65.71,GREAT CHAPEL STREET MEDICAL CENTRE,-0.134097,51.51508
0.61,HASTINGS AND ROTHER OOH,0.891514,51.129106
3.44,A&E GPS,-2.629091,53.55774
1067.14,BIRBECK MEDICAL GROUP,-2.742581,54.656125
557.82,BEWICK ROAD SURGERY,-1.601653,54.956398
482.06,WENLOCK ROAD SURGERY,-1.455226,54.972635
1607.52,WINTERTON MEDICAL PRACTICE,-0.606876,53.652511
804.0399999999998,THE OLD SCHOOL MEDICAL PRACTICE,-1.1424040000000002,53.916163
882.1400000000001,KEIGHLEY ROAD SURGERY,-1.893907,53.754239
944.9,MULBERRY STREET MEDICAL PRACTICE,-1.66397,53.794738
957.48,CHATSWORTH ROAD MEDICAL CENTRE,-1.467337,53.231374
1383.7800000000007,CRICH MEDICAL PRACTICE,-1.482573,53.084327
695.0500000000002,MEXBOROUGH HEALTH CENTRE,-1.279795,53.494237
1802.92,ST VINCENT MEDICAL CENTRE,-1.124029,53.525476
726.47,LUDHAM AND STALHAM GREEN SURGERIES,1.534423,52.709131
0.14,HAVEN COURT,-1.428468,54.971208
926.93,BENTHAM ROAD HEALTH CENTRE,-2.50627,53.73058399999999
609.72,CRESWELL AND LANGWITH MEDICAL CENTRE,-1.215835,53.262654
22.0,UHMB COMMUNITY NMP,-2.799232,54.042726
1709.14,NORWOOD MEDICAL CENTRE,-3.222974,54.119201
575.1600000000002,BEECHWOOD GROUP PRACTICE,-3.545472,54.642376
1566.5000000000002,DENMARK STREET SURGERY,-1.552252,54.538825
1103.7399999999998,WELL CLOSE MEDICAL GROUP,-2.006127,55.77245799999999
1124.36,PALLION FAMILY PRACTICE,-1.414195,54.908604
686.6500000000002,PICTON MEDICAL CENTRE,-1.77624,53.807296
1222.7400000000005,PARKSIDE MEDICAL CENTRE,-0.021998,52.981526
2440.3,ORCHARD MEDICAL PRACTICE,-1.206764,53.141121
1534.0,THE BURNS PRACTICE,-1.12309,53.520707
714.0199999999999,WINCOBANK MEDICAL CENTRE,-1.416316,53.419405
561.7700000000002,UEA MEDICAL CENTRE,1.241391,52.622369
520.2900000000001,THE VILLAGE SURGERY,-0.168135,51.648069
105.88,THE STREATFIELD MEDICAL CENTRE,-0.30083,51.595343
221.09,THE CHELSEA PRACTICE,-0.166915,51.486814
600.21,ST. BARTHOLOMEWS SURGERY,0.051755,51.532409
924.2000000000002,RYDAL,0.020102,51.608432
1178.5000000000002,GROSVENOR & ST JAMES MEDICAL CENTRE,0.264349,51.137424
389.46,KING GEORGE ROAD SURGERY,0.518518,51.348911
97.06,THE THREE ZERO SIX MEDICAL CENTRE,-0.076403,51.450741
211.67,VIRGINIA WATER MEDICAL PRACTICE,-0.568235,51.403367
541.61,NEW OTTERSHAW SURGERY,-0.526005,51.361938
151.09999999999997,THE ALTON PRACTICE,-0.239471,51.44914
4726.1100000000015,THE WILLOW GROUP,-1.143034,50.800579
875.77,ALEXANDER HOUSE SURGERY,-0.7520019999999998,51.293749
1339.83,RIDGEWAY VIEW FAMILY PRACTICE,-1.7915709999999998,51.524175
738.59,GREEN MEADOWS SURGERY,-0.677163,51.426939
673.7900000000002,PORT VIEW SURGERY,-4.214351,50.40735
1046.13,CHURCHDOWN SURGERY,-2.171559,51.882487
1107.1999999999996,STANMORE HOUSE SURGERY,-2.231468,52.391138
895.7099999999998,WARGRAVE HOUSE SURGERY,-2.712261,52.055418
832.4800000000001,VENTNOR MEDICAL CENTRE,-1.203791,50.594548
775.21,THE HALL PRACTICE,-0.561016,51.606986
606.86,WEST VIEW SURGERY,-2.50212,51.411923
235.25000000000003,HARTLAND SURGERY,-4.482549,50.992721
1074.5800000000004,STATION DRIVE SURGERY,-2.715141,52.370132
2431.5600000000004,SOLIHULL HEALTHCARE PARTNERSHIP,-1.775235,52.419642
776.2799999999999,CONCEPT HOUSE SURGERY,-2.98492,53.449136
1537.7199999999998,ADELAIDE STREET SURGERY,-3.048397,53.817351
975.22,LOCKWOOD GP SURGERY,-2.989833,53.850947
211.02,CAVENDISH HEALTH CENTRE,-0.148092,51.519331
1353.2800000000002,BROWNLOW GROUP PRACTICE,-2.96585,53.405021
250.27000000000004,HEATHROW MEDICAL CENTRE,-0.433924,51.49302
394.05,THE ENTERPRISE PRACTICE,-0.320613,51.601113
573.13,ODDFELLOWS HALL & ST CLEMENTS,0.327906,51.480703
0.31,COMMUNITY GERIATRICIAN SERVICE,-1.568473,53.81497099999999
276.7,CHAUCER SURGERY,-1.45237,52.515151
795.62,THE ENDEAVOUR PRACTICE,-1.235397,54.575047
798.2300000000001,THE LAKES MEDICAL PRACTICE,-2.742581,54.656125
632.1,EAST PARADE SURGERY,-1.529793,53.996354
458.85,FIELDHEAD SURGERY,-1.639379,53.831787
399.58,BASLOW HEALTH CENTRE,-1.617823,53.246144
2440.890000000001,OSMASTON SURGERY,-1.467954,52.911084
287.11,ASQUITH SURGERY,-1.117116,52.601489
994.34,HOLBEACH MEDICAL CENTRE,0.014430000000000002,52.804778
355.7600000000001,YEADING MEDICAL CENTRE,-0.397019,51.533634
247.39,MAYFAIR MEDICAL CENTRE,-0.150172,51.513536
716.27,SUN LANE,1.087469,51.071536
504.77,LYDDEN SURGERY,1.23991,51.163193
427.43,THE CHURCH VIEW PRACTICE,0.609995,51.363412
323.34,TRIANGLE GROUP PRACTICE,-0.011071,51.457798
1025.45,SELSDON PARK MEDICAL PRACTICE,-0.06457300000000002,51.342409
446.44000000000005,LAMBOURN SURGERY,-1.526933,51.504696
1028.5,BICESTER HEALTH CENTRE,-1.157239,51.896742
1079.47,FOWEY RIVER PRACTICE,-4.635394,50.337915
1310.29,KNOWLE HOUSE SURGERY,-4.134098,50.40863
1321.5,HOLTS HEALTH CENTRE,-2.406966,51.931555
967.32,CUMBERLAND HOUSE,-2.145844,52.901549
662.84,BILBROOK MEDICAL CENTRE,-2.181749,52.624775
439.29999999999984,VALE OF RED HORSE,-1.510351,52.15797
1160.1,BALSALL COMMON & MERIDEN GROUP PRACTICE,-1.643862,52.394956
779.55,LANCE LANE MEDICAL CENTRE,-2.911916,53.396196
393.71,DR A GUPTA BENIM MEDICAL CENTRE,-2.947804,53.419395
1194.7200000000005,DINAS LANE MEDICAL CENTRE,-2.861513,53.417388
5697.8600000000015,LANCASTER MEDICAL PRACTICE,-2.797202,54.047583
121.91,DR GWD BHIMA,-2.154239,53.611617
1690.8199999999995,RIVERSIDE MEDICAL CENTRE,-2.672299,53.748112
289.05,LITTLETOWN FAMILY MED PRACT,-2.134298,53.529137
612.1399999999999,NEW COURT SURGERY,-2.30878,52.113538
491.29999999999984,THE BARHAM & CLAYDON SURGERY,1.109866,52.110175
712.6299999999999,SWANWOOD PARTNERSHIP,0.519034,51.613356
27.19,NIGHTINGALE HOUSE,-0.159747,51.449354
330.54,CROWN WOOD MEDICAL CENTRE,-0.736934,51.395919
36.44,CITY REACH HEALTH SERVICES,1.288137,52.633042
768.36,THE JUNCTION SURGERY,-1.759212,53.643662
29.630000000000006,DORKING HEALTHCARE LLP,-0.333421,51.225985
3.85,BADGER GROUP OOH,-1.8778259999999998,52.477589
271.19,GREAT BRIDGE HEALTH CENTRE,-2.02775,52.527792
2.01,PELC REDBRIDGE OOH,0.066648,51.55684
1.18,BCH URGENT CARE CENTRE,-2.583357,51.412858
37.53,COMMUNITY NURSING (SOUTH TEES),-1.215564,54.570237
6.56,DARLINGTON PALLIATIVE CARE,-1.567053,54.529074
614.64,GREENWOOD SURGERY,0.605168,51.653143
1.02,EN HERTS ACUTE IN-HOURS VISITING SERVICE,-0.191727,51.782567
0.59,MERTON CCG-CLCH (NMP),-0.199155,51.47377
0.96,GP SERVICES - GP HUBS,-0.175734,51.240416
1243.38,MIDDLE CHARE MEDICAL GROUP,-1.573113,54.855636
551.48,I J HEALTHCARE,-1.531354,54.88104
345.9100000000001,OAK GLEN SURGERY,-1.816352,53.854799
1344.69,WELLINGTON HOUSE,-1.634561,53.714775
1393.4199999999996,SKELMANTHORPE FAMILY DOCTORS,-1.650686,53.591604
1896.14,LEIGH VIEW MEDICAL PRACTICE,-1.558358,53.728574
357.83,OAKWOOD SURGERY,-1.4290459999999998,52.941386
616.08,THE KAKOTY PRACTICE,-1.473444,53.5464
335.4600000000001,PHOENIX PRIMARY CARE (SOUTH) LTD,-0.435422,51.918016
1.72,NEWCASTLE GP IN MOLINEUX WIC,-1.583491,54.977507
5.54,NORTH NORFOLK HUB 2 (BIRCHWOOD),1.38334,52.820065
583.65,GILDERSOME HEALTH CENTRE,-1.6293,53.756554
683.73,HAZELMERE MEDICAL CENTRE,-1.16453,52.57337
642.04,BURNGREAVE SURGERY,-1.459815,53.393327
765.97,FELTWELL SURGERY,0.527056,52.48268
920.7900000000002,QUEENS PARK HEALTH CENTRE,-0.493075,52.133151
384.16,ALBANY PRACTICE,-0.310054,51.48676
283.11,CASSIDY ROAD MEDICAL CENTRE,-0.199015,51.479154
3436.4500000000007,COLCHESTER MEDICAL PRACTICE,0.909325,51.890029
718.1099999999999,ROWHEDGE SURGERY,0.945058,51.85767
315.85,DR VM PATEL,0.228776,51.561113
172.64,THE HEATHCOTE PRIMARY CARE CENTRE,0.062768,51.593832
917.5100000000001,ESHER GREEN SURGERY,-0.370196,51.375782
266.65000000000003,CHILDS (THAMESIDE),-0.326599,51.427449
580.4699999999998,THE CHESSER SURGERY,-0.177303,51.374927
784.9199999999998,MOREDON MEDICAL CENTRE,-1.8070689999999998,51.582197
737.52,ASHFIELD MEDICAL CENTRE,-0.7382729999999998,52.019666
991.46,BUGBROOKE MEDICAL PRACTICE,-1.005426,52.211409
1762.31,TRESCOBEAS SURGERY,-5.085333,50.15531
754.04,BUDSHEAD MEDICAL PRACTICE,-4.150289,50.417443
551.2400000000001,TEIGN ESTUARY MEDICAL GROUP,-3.496462,50.5456
628.6300000000001,MITCHELDEAN SURGERY,-2.488369,51.865935
614.18,LUSON,-3.229566,50.977398
1420.0099999999998,HARESFIELD HOUSE SURGERY,-2.202996,52.194829
247.35,HEDNESFORD MEDICAL PRACTICE,-2.000697,52.71233
1878.92,LAUREL HOUSE SURGERY,-1.692825,52.636563
986.41,HANDSWORTH WOOD MED.CTR.,-1.928196,52.51303299999999
232.82,ROTTON PARK MEDICAL CENTRE,-1.947079,52.482162
802.6799999999998,LONGFORD PRIMARY CARE CENTRE,-1.48555,52.449933
1534.36,TETTENHALL MEDICAL PRACTICE,-2.159502,52.600723
1836.1300000000006,READESMOOR MEDICAL GROUP PRACTICE,-2.216792,53.163762
806.2800000000003,NEWTOWN SURGERY,-2.735705,53.362158
2425.87,ROPE GREEN MEDICAL CENTRE,-2.453958,53.06655
564.88,PENNY LANE SURGERY,-2.915004,53.389404
429.7099999999999,ABINGDON FAMILY HEALTH CARE CENTRE,-2.943503,53.440571
1926.49,WINGATE MEDICAL CENTRE,-2.874647,53.488385
1891.32,AINSDALE MEDICAL CENTRE,-3.03882,53.602403
624.21,CORNERSTONE SURGERY,-2.457402,53.58815500000001
750.73,BARLBOROUGH MEDICAL PRACTICE,-1.284471,53.289528
432.73,VICTORIA PARK HEALTH CENTRE,-1.1192,52.619071
611.3500000000001,THE WRAGBY SURGERY,-0.301337,53.287948
2146.77,SOUTH GRANGE MEDICAL GROUP PRACTICE,-1.166506,54.56995500000001
518.01,QUEEN STREET MEDICAL PRACTICE,-3.589063,54.546567
517.36,OLD FORGE SURGERY,-2.079758,54.623041
426.14,EGTON SURGERY,-0.7552379999999999,54.445555
819.2099999999998,VESPER ROAD,-1.615337,53.827318
479.79,GLADSTONE HOUSE SURGERY,-1.307927,52.968816
197.07,THE PRACTICE-SAYEED,-1.106589,52.63081700000001
883.4399999999998,GLEADLESS MEDICAL CENTRE,-1.451325,53.356551
1131.6399999999996,TRAMWAYS AND MIDDLEWOOD MEDICAL CENTRES,-1.515268,53.418958
527.91,LANGSTONE WAY SURGERY,-0.210815,51.606981
168.7,ELMTREES SURGERY,-0.335968,51.550787
1370.22,TULASI MEDICAL CENTRE,0.12448900000000002,51.561005
417.9800000000001,THE MILLER PRACTICE,-0.092165,51.551419
1197.61,WARRIOR SQUARE SURGERY,0.562007,50.852963
1079.9499999999996,SNODLAND MEDICAL PRACTICE,0.441488,51.326053
305.7100000000001,SUTTON VALENCE GROUP PRACTICE,0.59403,51.211195
1029.5000000000002,LEITH HILL PRACTICE,-0.322969,51.150452
1107.51,THE GROVES MEDICAL CENTRE,-0.26224,51.410048
939.88,THE MARINE & OAKRIDGE PARTNERSHIP,-1.806532,50.722838
335.56999999999994,MALTHOUSE MEADOWS SURGERY,-2.568038,50.668698
1037.7800000000002,THE STAUNTON SURGERY,-0.978019,50.851067
1028.88,PORT ISAAC SURGERY,-4.824594,50.589808
636.03,THE CORINTHIAN SURGERY,-2.0815,51.906706
1528.04,ST JOHNS HOUSE SURGERY,-2.25911,52.18874
584.4400000000002,CASTLEFIELDS,-2.129518,52.801013
503.2300000000001,ADDERLEY GREEN SURGERY,-2.135511,52.991714
401.23,HARBURY SURGERY,-1.458027,52.236759
403.18,DR BILAS,-2.063063,52.612824
873.88,BLUNDELLSANDS SURGERY,-3.041273,53.484452
1837.08,QUEEN SQUARE MEDICAL PRACTICE,-2.800994,54.046219
234.18,DILL HALL SURGERY,-2.390844,53.754996
984.73,WEST TIMPERLEY MEDICAL CENTRE,-2.353117,53.402699
513.84,MARUS BRIDGE PRACTICE,-2.643772,53.529393
135.71,SUMMERLEE MEDICAL CENTRE,-0.652145,52.337022
74.65999999999998,HEALTH E1,-0.07152500000000002,51.518304
381.55000000000007,SLAG LANE MC,-2.575634,53.47856899999999
209.72000000000003,THE GRANGE MEDICAL CENTRE,-0.262039,52.57839
111.41,CAXTON HOUSE SURGERY,-1.382415,53.575347
1.16,OUT OF HOURS CENTRE,-1.842798,54.869081
452.97,WESTCOTES MEDICAL CENTRE,-1.153587,52.63133199999999
27.75,PRIMARY HEALTHCARE DARLINGTON,-1.561958,54.528141
3.8,WEST MERTON ACCESS HUB,-0.210281,51.409967
5.92,DERBY CITY SOUTH HEALTHCARE LTD,-1.531656,52.891817
474.53,REDGATE MEDICAL CENTRE,-2.987659,51.126385
671.77,GREAT WITLEY SURGERY,-2.361004,52.291152
926.14,MADELEY PRACTICE,-2.345126,52.999856
1050.62,GREEN RIDGE SURGERY,-1.8710349999999998,52.428433
565.66,RIVER BROOK MEDICAL CENTRE,-1.913809,52.43303
724.17,BUNBURY MEDICAL PRACTICE,-2.649377,53.116827
575.76,MURDISHAW,-2.662128,53.323997
725.3099999999998,ROCK COURT SURGERY,-2.916187,53.411597
1015.34,POPLAR HOUSE SURGERY,-3.03076,53.754721
1332.17,QUEENSWAY MEDICAL CENTRE,-2.995384,53.846569
1256.84,CASTLETON HEALTH CENTRE,-2.18229,53.597034
606.44,HAVEN HEALTH,1.327039,51.96536
1173.9900000000002,DR KK CHAN & PARTNERS,-2.489022,53.524185
124.15,DANEHOUSE MEDICAL PRACTICE,-2.238948,53.791326
845.8899999999999,SWANSWELL MEDICAL CENTRE,-1.816529,52.432515
349.2000000000001,DR MALIK - KENT ELMS HC,0.664114,51.563831
272.48,CITY ROAD MEDICAL CENTRE,-0.091116,51.527895
3.79,SALFORD GP OUT OF HOURS,-2.323424,53.487545
45.14,LEICESTER CITY ASSIST PRACTICE,-1.136115,52.637338
397.8400000000001,BOTOLPH BRIDGE COMMUNITY HEALTH CENTRE,-0.261557,52.562595
199.55,SHORTSTOWN MEDICAL CENTRE,-0.432463,52.110853
23.21,MK URGENT CARE SERVICES OOH,-0.7357599999999997,52.026384
2.5500000000000003,NOTTINGHAM CITYCARE,-1.155769,52.951832
0.9900000000000002,VC SKELMERSDALE UCC,-2.773401,53.549935
1243.8399999999995,THE HAWTHORNS SURGERY,-1.825965,52.538746
946.45,PARK HOUSE MEDICAL CENTRE,-2.805295,53.42670699999999
849.0799999999998,SOUTH KING STREET MEDICAL CENTRE,-3.047855,53.816775
578.6500000000002,DR A CALOW'S PRACTICE,-2.503837,53.742584
680.25,ST MARY'S MEDICAL CENTRE,-2.108554,53.543625
1735.17,CHEADLE MEDICAL PRACTICE,-2.213539,53.393745
522.43,GREEN STREET GREEN MED CT,0.089996,51.354366
561.72,3/ST ANDREWS MEDICAL CENTRE,-2.339619,53.484875
761.5399999999998,HORIZON HEALTH CENTRE,-2.965121,51.331294
6.28,ANN MARIE HOWES CENTRE,-1.7785380000000002,52.464805
407.35,BLACKFRIARS,-2.254244,53.484135
20.72,FIRST COMMUNITY HEALTH & CARE,-0.170767,51.235608
7.679999999999999,BEDSER HUB,-0.556304,51.315132
0.68,AIREBOROUGH COMMUNITY CARE,-1.684881,53.866663
315.45,CALDBECK SURGERY,-3.050622,54.749864
790.17,OXFORD STREET SURGERY,-3.5505760000000004,54.64373
92.34999999999998,WRAYSDALE HOUSE SURGERY,-3.076077,54.367247
1808.18,SAVILLE MEDICAL GROUP,-1.609598,54.976095
938.95,COOK BF,-0.357512,53.780969
454.94,PEELER HOUSE SURGERY,-0.438756,53.72252
807.7699999999999,DR INGRAM & PTRS,-1.526892,54.136451
1790.8200000000004,LINGWELL CROFT SURGERY,-1.535053,53.749986
423.82,HOUNSFIELD SURGERY,-0.811033,53.183702
615.7000000000002,LENSFIELD MEDICAL PRACTICE,0.124449,52.198365
577.89,CEDAR BROOK PRACTICE,-0.41413199999999994,51.534092
19.12,THE ROYAL MEWS SURGERY,-0.145223,51.498764
458.0999999999999,ROSE VILLA SURGERY,0.506616,51.566232
640.8600000000001,ADELAIDE MEDICAL CENTRE,-0.161257,51.543548
284.99,DR DHITAL PRACTICE,-0.003074,51.587786
241.99,HOLLINGTON SURGERY,0.872487,51.151423
1062.0,WOODLANDS HEALTH CENTRE,0.38485,51.18077
258.69,NORHEADS LANE SURGERY,0.026739,51.314542
389.07,HARTLAND WAY SURGERY,-0.045782,51.374372
495.54,BOYATT WOOD SURGERY,-1.36001,50.977856
399.67,GREEN PRACTICE,-0.371755,51.468263
445.54,THE ABBOTSBURY PRACTICE,-0.397406,51.579266
1050.41,NUFFIELD HOUSE HEALTH CENTRE,0.112828,51.774439
1142.9199999999996,MARTINS OAK SURGERY,0.483675,50.91716
352.9500000000001,THE GLEBE FAMILY PRACTICE,0.544473,51.383164
561.4800000000001,MALLING HEALTH BLUE SUITE,0.609995,51.363412
903.21,KNOLL MEDICAL PRACTICE,0.101068,51.375411
145.99,CLIFTON RISE FAMILY PRACTICE,-0.03143300000000001,51.476334
178.68,BLACKFRIARS MEDICAL PRACTICE,-0.105775,51.505364
1517.0100000000002,HASLEMERE HEALTH CENTRE,-0.707586,51.092107
906.06,FARNHAM DENE MEDICAL PRACTICE,-0.777405,51.200549
601.2099999999998,THE DORCHESTER RD SURGERY,-2.457512,50.625193
360.17,CRONDALL NEW SURGERY,-0.858386,51.237211
545.33,ST.JAMES SURGERY,-1.989956,51.352926
192.22,CORDWALLIS ROAD SURGERY,-0.7240259999999998,51.528097
1328.4199999999996,BOTLEY MEDICAL CENTRE,-1.299442,51.753753
404.8,ST. MARY'S SURGERY,-2.479869,51.326082
1004.69,QUEEN'S MEDICAL CENTRE,-4.057196,51.080161
1742.8800000000006,BRUNEL MEDICAL PRACTICE,-3.516948,50.479349
474.87000000000006,EXMOOR MEDICAL CENTRE,-3.544825,51.038507
274.89,CHADDESLEY SURGERY,-2.158038,52.361961
1863.6000000000006,THE MANOR PRACTICE,-1.8236169999999998,52.55816
302.32000000000005,CHARLES ROAD SURGERY,-1.850621,52.4722
567.04,DUNCAN STREET PRIMARY CARE PARTNERSHIP,-2.126602,52.57346999999999
782.22,DR JUDE'S PRACTICE - RIVERSIDE,-2.943016,53.398876
803.5799999999998,WESTOVER SURGERY,-5.07501,50.148927
180.03,LANGTHORNE SHARMA FAMILY PRACTICE,0.0021,51.555415
129.37,THE MANOR PARK PRACTICE,0.057339,51.55393
1530.7299999999998,WEST MEADS SURGERY,-0.701481,50.788299
592.17,TRENTHAM MEWS MEDICAL CENTRE,-2.189898,52.970452
389.32,WILLESDEN GREEN SURGERY,-0.216091,51.553773
104.22,THE SUMMITT PRACTICE,0.04536,51.539588
0.36,SELDOC HEALTHCARE,-0.283378,51.412517
0.68,PARKFIELD (H) MINOR EMERGENCY,-3.00005,53.363076
5.76,PRUH URGENT CARE CENTRE,0.059146,51.366243
128.53,PBORO WEEKEND HOURS GP PILOT,-0.279386,52.583921
34.29,WIDNES GP EXTRA SERVICE,-2.735705,53.362158
624.0400000000002,DR THORNILEY-WALKER & PARTNERS,-1.460703,54.949762
110.06000000000002,DR U AKBAR,-1.777945,53.803569
1324.67,BROOKROYD HOUSE,-1.67818,53.707224
414.94000000000005,AIREBOROUGH FAMILY PRACTICE,-1.684881,53.866663
1358.36,BUSHLOE SURGERY,-1.116921,52.583283
1427.2800000000002,THE BURBAGE SURGERY,-1.361645,52.53009599999999
210.37,PASLEY ROAD HEALTH CENTRE (TK KHONG),-1.146741,52.591287
1305.9599999999996,NETTLEHAM MEDICAL PRACTICE,-0.476253,53.262865
151.38,HAROLD STREET MEDICAL CENTRE,-1.492871,53.393121
314.36,UNIVERSITY HEALTH SERVICE HEALTH CENTRE,-1.482709,53.380323
880.05,LEISTON SURGERY,1.575953,52.207708
581.62,HEATHFIELDE MEDICAL CENTRE,-0.179797,51.585238
409.63,BRENTFIELD MEDICAL CENTRE,-0.260251,51.550588
607.23,DR NAVIN KUMAR,0.70187,51.544989
200.65,RUSTON STREET CLINIC,-0.027306,51.536264
989.73,SCHOOL HILL MEDICAL PRACTICE,0.012064,50.873469
1587.4800000000002,MOTE,0.545625,51.246876
1118.2700000000002,SHEPPERTON MEDICAL PRACTICE,-0.453153,51.396402
1767.7800000000007,GRAYSHOTT SURGERY,-0.745626,51.110093
967.27,THE MANOR PRACTICE,-0.234983,50.835138
433.37,HAMPTON HILL MEDICAL CENTRE,-0.354892,51.427508
250.25,CLAPHAM JUNCTION MEDICAL PRACTICE,-0.173908,51.465969
205.77,OLD SCHOOL HOUSE SURGERY,-1.604408,51.376032
1153.77,WINSCOMBE SURGERY,-2.830537,51.315196
1895.4,PEMBROKE MEDICAL GROUP,-3.560246,50.445527
2.47,ST PETER'S URGENT TREATMENT CENTRE,-0.52706,51.377832
350.6500000000001,PRIORY ROAD SURGERY,0.589253,50.860828
1733.4000000000005,SWANSCOMBE HEALTH CENTRE,0.28731,51.424657
363.44999999999993,ELTHAM PARK SURGERY,0.061023,51.4547
566.29,JAMES O'RIORDAN MEDICAL CENTRE,-0.212686,51.385157
1933.39,WISTARIA & MILFORD SURGERIES,-1.547285,50.760041
256.07,27 BEAUMONT STREET,-1.26216,51.755081
592.8800000000001,WIDCOMBE SURGERY,-2.354321,51.376371
1087.88,ST LUKES MEDICAL CENTRE,-3.517636,50.394313
437.37,FRITHWOOD SURGERY,-2.162379,51.729707
1206.2,HILLVIEW MEDICAL CENTRE,-1.951153,52.305568
821.88,GORDON STREET SURGERY,-1.644613,52.810998
527.56,LONGTON MEDICAL CENTRE,-2.770123,53.417492
902.97,PRIMROSE SURGERY,-2.357311,53.456159
1340.89,DR AHMAD & PTNRS,-2.595925,53.522279
370.21,THE OLD DAIRY HEALTH CENTRE,-0.091201,51.436586
679.6,THE ISLAND SURGERY,0.591014,51.520226
611.15,JS MEDICAL PRACTICE,-0.078706,51.589103
1148.9,GATEWAY PRIMARY CARE,-1.352431,53.429997
0.59,BRADFORD DERMATOLOGY SERVICE,-1.781103,53.830481
195.71,ESSINGTON MEDICAL CENTRE,-2.056915,52.63194
226.6,SUMMERFIELD GP SURG & URGENT CARE CENTRE,-1.937353,52.487686
420.99,THE WILLASTON SURGERY,-3.011643,53.292908
7.429999999999999,SOUTH KENT GROUP,1.118942,51.075872
1.46,WHITTINGTON HEALTH (ISLINGTON),-0.139066,51.566482
1.68,URGENT CARE CENTRE NORTHWICK PARK HOSP,-0.322037,51.575407
6.88,SLEAFORD EXTENDED ACCESS K2,-0.406507,52.997784
981.46,STONELEIGH SURGERY,-2.770704,54.227277
470.16,BROWNEY HOUSE SURGERY,-1.670679,54.800313
853.5200000000002,TOWNHEAD SURGERY,-2.276903,54.070534
361.87000000000006,HORNE STREET SURGERY,-1.871717,53.725678
752.6499999999999,HONLEY SURGERY,-1.791936,53.602386
683.77,GOSBERTON MEDICAL CENTRE,-0.159263,52.869915
1389.26,THE MANOR SURGERY,-1.216371,52.925036
435.46,PROSPECT MEDICAL PRACTICE,1.285656,52.643921
859.3299999999998,THE GARDEN CITY PRACTICE,-0.209287,51.797151
371.78,MAPESBURY MEDICAL GROUP,-0.209473,51.551496
787.7199999999998,RIVERMEAD GATE MED.CTR.,0.472887,51.740849
303.5100000000001,ROMAN WAY MEDICAL CENTRE,-0.10550599999999999,51.544561
485.14,CHOLMLEY GARDENS SURGERY,-0.195423,51.552261
651.23,ESSEX LODGE,0.026685000000000004,51.527915
646.48,GROVELANDS MEDICAL CENTRE,-0.112028,51.620685
1931.35,HIGH GLADES MEDICAL CENTRE,0.551301,50.878354
965.8,ST JAMES' SURGERY,1.315702,51.128516
495.14,OXSHOTT MEDICAL PRACTICE,-0.360843,51.333099
965.27,BRIDGE MEDICAL CENTRE,-0.166439,51.117364
517.44,LAVENDER HILL GROUP PRACTICE,-0.15683,51.466044
1154.8100000000004,THE CRANBORNE PRACTICE,-1.9192779999999998,50.919773
1198.7,ST.MARY'S SURGERY,-1.397475,50.905746
712.8100000000003,NEW FOREST MEDICAL GROUP,-1.576665,50.81471
1118.9599999999996,SWALLOWFIELD MEDICAL PRACTICE,-0.958531,51.378289
925.48,CHERRYMEAD SURGERY,-0.700228,51.608271
1252.0100000000007,HORFIELD HC,-2.576275,51.489998
717.2099999999998,CARNON DOWNS SURGERY,-5.091905,50.22345
571.73,WHITE HOUSE SURGERY,-1.705957,51.983554
463.16999999999985,SPRINGMEAD SURGERY  CHARD,-2.967972,50.869562
701.01,CHURCH STRETTON MEDICAL CENTRE,-2.806169,52.537286
1049.91,DR KS UPTON'S PRACTICE,-1.986582,52.988358
1402.57,KINGSWAY MEDICAL CENTRE,-1.289009,54.606459
540.48,WARWICK ROAD SURGERY,-2.928541,54.893858
593.0400000000002,PRUDHOE MEDICAL GROUP,-1.853822,54.96186
998.7600000000001,TALBOT MEDICAL CENTRE,-1.440661,54.973054
947.98,NOVA SCOTIA MEDICAL CNTR,-1.373051,53.747561
785.56,ARTHUR MEDICAL CENTRE,-1.422636,53.001503
1455.03,WOODVILLE SURGERY,-1.5365030000000002,52.770685
1330.5400000000004,NEWBOLD VERDON MED.PRACT.,-1.34334,52.634612
889.7899999999998,PORTLAND MEDICAL PRACTICE,-0.539074,53.22371999999999
1314.7900000000004,TORKARD HILL MEDICAL CTRE,-1.207389,53.029901
417.05,BAKERSFIELD MEDICAL CENTRE,-1.104957,52.960219
729.2099999999998,HIGH STREET PRACTICE,-1.458313,53.597926
1014.0099999999996,VILLAGE SURGERY,-1.251934,53.39421
128.9,ALLENBY CLINIC,-0.376261,51.531514
1803.2,DR PUZEY DR KOTHARI AND DR NANDA,0.705992,51.582107
790.5899999999997,DR BAKER & PARTNERS,0.548167,51.570733
296.44000000000005,INGREBOURNE MEDICAL CENTRE,0.210579,51.600308
522.39,THE ORDNANCE UNITY CENTRE FOR HEALTH,-0.039073,51.672653
580.65,CROUCH HALL ROAD SURGERY,-0.127301,51.579178
1146.88,CENTRAL SURGERY,-0.299929,51.390825
1081.14,ST PAUL'S SURGERY,-1.32139,51.065963
616.17,SHEET STREET SURGERY,-0.605507,51.479648
1560.28,HEDENA HEALTH,-1.204547,51.76203
555.24,BLOXHAM SURGERY,-1.372977,52.018108
827.8499999999998,KINGTON MEDICAL PRACTICE,-3.022556,52.199361
1552.3600000000006,SEVERN FIELDS MEDICAL PRACTICE,-2.721619,52.728047
328.9899999999999,SELLY OAK HEALTH CENTRE,-1.939144,52.438251
1923.53,PEELHOUSE MEDICAL PLAZA,-2.72256,53.372135
1285.8800000000006,CUMBERLAND HOUSE SURGERY,-2.990437,53.638743
803.46,LANE ENDS SURGERY,-2.727014,53.770173
147.17,HOLLINS GROVE SURGERY,-2.477472,53.705346
638.8599999999999,WHITTAKER LANE MED CENTRE,-2.268645,53.528488
994.4200000000002,WEST GORTON MEDICAL PRACTICE,-2.203859,53.46720500000001
237.21000000000006,OLDHAM FAMILY PRACTICE,-2.116945,53.543824
505.09,SHAY LANE MEDICAL CENTRE (PATEL),-2.31556,53.372189
5.090000000000001,AT HOME SERVICE,-0.10603,51.438104
19.62,GP HUBS - GP HEALTH PARTNERS LTD,-0.266331,51.334184
0.61,SALFORD ACUTE HOME VISITING SERVICE,-2.33763,53.484827
0.5,NORTH COTSWOLDS IMPROVED ACCESS,-2.239997,51.862659
1782.5900000000006,BIRTLEY MEDICAL GROUP,-1.576441,54.891881
1140.16,THE LEEDS ROAD PRACTICE,-1.535156,53.980466
625.3700000000001,APOLLO COURT MEDICAL CENTRE,-1.524816,53.542364
1044.41,THE LAKESIDE PRACTICE,-1.148909,53.61549599999999
605.88,FOXHILL MEDICAL CENTRE,-1.501327,53.429911
528.4200000000001,WESTWOOD CLINIC,-0.269054,52.591395
915.6500000000002,THEOBALD MEDICAL CENTRE,-0.285584,51.661381
716.51,SUDBURY & ALPERTON MEDICAL CENTRE,-0.298046,51.536916
99.9,THE SURGERY,-0.184519,51.497627
1270.38,CHURCHILL MEDICAL CENTRE,-0.018466,51.618226
1169.8199999999995,THE CHESTERFIELD DRIVE PRACTICE,1.132012,52.07623
1090.17,COMBS FORD SURGERY,0.995999,52.180181
556.93,CAULDWELL MEDICAL CENTRE,-0.472495,52.128265
713.38,PRIORY MEDICAL CENTRE,-0.50567,52.167181
503.71000000000015,HILLVIEW SURGERY,-0.318331,51.540536
170.83,DR HAFFIZ,-0.119262,51.539321
205.89,SANDRINGHAM PRACTICE,-0.067207,51.547773
26.66,ESK ROAD MEDICAL CENTRE,0.024266,51.522454
445.05,MONTPELIER SURGERY,-0.149079,50.827148
689.5299999999999,THE AVENUE SURGERY,-0.113425,50.844357
1870.81,REACH HEALTHCARE,0.52408,51.337756
436.2300000000001,SELLINDGE SURGERY,1.002785,51.103536
1266.8100000000004,LAKESIDE MEDICAL,0.122454,51.496518
514.86,CAMBERLEY HEALTH CENTRE,-0.754069,51.324435
1595.87,HARBOUR VIEW HEALTHCARE,-0.27437,50.833817
1020.29,NEW POND ROW SURGERY,-0.322292,50.824911
425.51,FLOOD (ESSEX HOUSE),-0.247469,51.472541
1292.71,WILSON PRACTICE,-0.966958,51.153736
514.9699999999999,WOLLASTON AND BOZEAT SURGERIES,-0.674311,52.252471
1294.7599999999998,LEAP VALLEY MEDICAL CENTRE,-2.487852,51.496541
1108.5599999999997,KINGSTEIGNTON MEDICAL PRACTICE,-3.597395,50.54898
919.73,ST.LEVAN SURGERY,-4.177328,50.383921
1225.6699999999996,STIRCHLEY MEDICAL PRACTICE,-2.433777,52.655188
847.94,LUDLOW - PORTCULLIS,-2.715958,52.368905
780.47,BARTON,-1.725223,52.761751
533.89,RED LION SURGERY,-2.030614,52.693241
159.07999999999996,DADHANIA SURGERY,-1.491047,52.405815
265.38000000000005,ST JAMES MEDICAL PRACTICE1,-2.097323,52.514234
208.95,HAWTHORNS MEDICAL CENTRE,-1.967268,52.501507
326.19,BROWNLOW AT MARYBONE,-2.987806,53.411269
524.4499999999999,MORETON MEDICAL CENTRE,-3.110005,53.39886
669.31,LITTLE LEVER HEALTH CENTRE 1,-2.370624,53.55981800000001
512.48,WOODBANK SURGERY,-2.308802,53.60507
684.8499999999998,DRS HANIF &  BANNURU,-2.184157,53.484308
113.28,4/LOWER BROUGHTON MEDICAL PRACTICE,-2.258808,53.49359
1166.15,BRINNINGTON SURGERY,-2.132367,53.427651
873.1600000000003,CONWAY ROAD MEDICAL PRACTICE,-2.303561,53.417873
497.5399999999999,DESFORD MEDICAL CENTRE,-1.296116,52.627473
165.21,DR VIJE'S SURGERY,-1.650877,52.617569
322.5,HIGHFIELD HEALTH,-1.395746,50.932777
75.97,DR R SHARMA'S PRACTICE,-0.096482,51.499125
84.29999999999998,HALF PENNY STEPS HEALTH CENTRE,-0.206044,51.526213
2265.5600000000004,NORTON MEDICAL CENTRE,-1.308737,54.588737
3909.52,CARLISLE HEALTHCARE,-2.930647,54.893714
219.2,PEEL PARK SURGERY,-1.731903,53.806791
905.12,MAYBUSH MEDICAL CENTRE,-1.489249,53.670273
1229.95,THE GOLDEN BROOK PRACTICE,-1.272531,52.901553
918.1999999999998,IBSTOCK HOUSE SURGERY,-1.401818,52.684869
1011.8,RUSKINGTON SURGERY,-0.400977,53.048226
1555.64,BARNBY GATE SURGERY,-0.8049699999999999,53.074931
696.86,DUKE MEDICAL CENTRE,-1.455657,53.378576
473.14,FALKLAND HOUSE SURGERY,-1.514423,53.359728
1101.6900000000003,PRIORY FIELDS SURGERY,-0.179856,52.332272
471.77,BOURN SURGERY,-0.063404,52.193155
628.6900000000002,COACHMANS MEDICAL PRACTICE,-0.203875,51.096335
944.8599999999999,MILTON KEYNES VILLAGE SURG,-0.697865,52.043891
563.3499999999998,DRS DE ROSA & WILLIAMS,-2.167857,52.569265
56.9,CHILD AND FAMILY SERVICES,-1.5080049999999998,52.413401
1.41,COMMUNITY CARDIOLOGY SERVICE,0.15356,51.455555
1.24,INTERMEDIATE CARE-GP SERVICE,-2.130253,53.548188
27.53,BASSETLAW HEALTH PARTNERSHIP,-0.950634,53.325451
1.92,MERIDIAN HOUSE - AIREWHARFE CMHT,-1.895521,53.873987
1435.79,FIELDHOUSE MEDICAL GROUP,-0.112579,53.564436
1580.3100000000004,HEREWARD MEDICAL CENTRE,-0.380913,52.768626
1100.25,SAXON CROSS SURGERY,-1.273642,52.931099
1984.85,PENISTONE GROUP PMS PRACTICE,-1.630732,53.523565
497.0399999999999,THE NAYAR PRACTICE,-1.1933790000000002,53.480824
478.32,DR RAOLU'S PRACTICE,-1.204348,53.423549
1489.5,THE PARK SURGERY,1.7292759999999998,52.606218
282.68,EAST BARNET HEALTH CENTRE,-0.166424,51.646339
557.34,LANFRANC MEDICAL CENTRE,-0.332746,51.561586
388.57,THE TUDOR HOUSE MEDICAL CENTRE,-0.266689,51.564495
659.58,LABURNUM HEALTH CENTRE,0.151208,51.560662
76.52999999999999,NEW NORTH HEALTH CENTRE,-0.091592,51.537534
1257.4000000000005,HOVE MEDICAL CENTRE,-0.19539,50.845024
573.75,PRIMECARE PMS (SOUTH STREET),-0.012448,51.476194
360.01,THE GARDENS SURGERY,-0.066803,51.46061
1311.76,FORT HOUSE SURGERY,-0.412578,51.37881
1293.9900000000002,OXTED HEALTH CENTRE,9.9e-05,51.257686
865.2999999999998,THE WRYTHE GREEN SURGERY,-0.171312,51.371749
938.6499999999999,THE LAWN MEDICAL CENTRE,-1.7619029999999998,51.547821
964.1499999999999,NORDEN HOUSE SURGERY,-0.882727,51.944924
204.20000000000005,ST MARY'S HEALTH CENTRE,-6.308668,49.911605
1369.37,TOPSHAM SURGERY,-3.462097,50.683825
646.73,BAMPTON SURGERY,-1.55034,51.729032
916.95,WOODLANDS MEDICAL CENTRE,-1.258898,51.603637
1981.6099999999994,PETROC GROUP PRACTICE,-4.943163,50.430739
1714.1400000000006,TAVYSIDE HEALTH CENTRE,-4.145976,50.545824
1405.6400000000006,EAST QUAY MEDICAL CENTRE,-3.000471,51.135669
326.44,BREDON HILL SURGERY,-2.104857,52.030166
701.6499999999999,HAGLEY SURGERY,-2.144103,52.420783
397.0,KNOCKIN MEDICAL CENTRE,-2.993042,52.79343
117.35,YARDLEY MEDICAL CENTRE,-1.828397,52.463189
417.58,PHOENIX FAMILY CARE,-1.51543,52.390005
3722.78,ASHTON MEDICAL GROUP,-2.089184,53.489361
1168.5100000000002,BRADSHAW MEDICAL CENTRE,-2.688594,53.537889
299.96,SAVILE TOWN MEDICAL CTR.,-1.625804,53.68222900000001
169.88,LIMEFIELD ROAD MEDICAL PRACTICE,-2.26047,53.506995
609.7400000000001,THE ORCHARD SURGERY,-0.324352,50.828062
101.85,THE MATTHEWMAN PRACTICE,-0.149281,51.545823
3.33,RICHARDSON COMMUNITY HOSPITAL,-1.9161529999999998,54.545708
233.49,LAKESIDE SURGERY,-1.310932,53.52812
265.42,THE DANBY PRACTICE,-0.907874,54.468317
384.3500000000001,VALLEY VIEW SURGERY,-1.731903,53.806791
1333.5699999999995,THE NORTH LEEDS MEDICAL PRACTICE,-1.534037,53.843332
1325.1900000000005,IVY GROVE SURGERY,-1.402822,53.042198
693.46,FRIAR GATE SURGERY,-1.485624,52.924816
837.2400000000001,NAVENBY CLIFF VILLAGES SURGERY,-0.526297,53.103518
910.7799999999997,THE LINDEN MEDICAL GROUP,-1.273642,52.931099
844.96,ASKERN MEDICAL PRACTICE,-1.148909,53.61549599999999
462.0,BUTE HOUSE MEDICAL CENTRE,-0.423966,51.880162
598.1999999999998,LICHFIELD GROVE SURGERY,-0.19329,51.599604
579.48,GURU NANAK MEDICAL CENTRE,-0.387151,51.511774
15.36,WESTMINSTER SCHOOL,-0.128107,51.498762
276.76,SOUTH GREEN SURGERY,0.430504,51.613411
238.59,RICHMOND ROAD MEDICAL CENTRE,-0.065532,51.543051
586.1900000000002,THE LAWSON PRACTICE,-0.079465,51.533775
818.93,LEYTON HEALTHCARE 4TH FLOOR,-0.013313,51.559894
199.68,FRANCIS ROAD MEDICAL CENTRE,-0.003831,51.561975
1313.6600000000005,OLD SCHOOL SURGERY,0.100722,50.772062
477.03,UNIVERSITY MEDICAL CENTRE,1.062127,51.296198
449.51,ST STEPHENS HOUSE SURGERY,-0.305726,51.31772
682.1900000000002,PARK VIEW HEALTH PARTNERSHIP,-0.137252,50.961825
784.26,LAMBTON ROAD MEDICAL PRACTICE,-0.231169,51.411219
1030.04,LORDSHILL HEALTH CENTRE,-1.448733,50.940999
1027.04,BYFIELD MEDICAL CENTRE,-1.242893,52.174071
503.0799999999999,CAMBRIDGE HOUSE,-2.144827,53.024433
1084.42,ARBURY MEDICAL CENTRE,-1.497961,52.51662
375.23,CHURCH LANE - KHAN,-1.793962,52.487056
391.7600000000001,SOHO ROAD PRIMARY CARE CENTRE,-1.934945,52.503094
192.12,PARK HOUSE SURGERY,-1.942965,52.54446
225.31,BEECHDALE CENTRE,-2.007339,52.600867
1436.49,HOLES LANE MEDICAL CENTRE,-2.545107,53.399828
810.9399999999998,LACHE HEALTH CENTRE,-2.914326,53.173615
952.5199999999996,DINGLE PARK PRACTICE,-2.972885,53.38633
2010.7,RAINBOW MEDICAL CENTRE,-2.705931,53.435389
427.17,BEECHWOOD SURGERY,-3.009057,53.871568
1556.2899999999993,HEYWOOD HEALTH,-2.239335,53.58736999999999
921.35,THE GILL MEDICAL PRACTICE,-2.398384,53.524288
815.2799999999999,GLOUCESTER HOUSE MEDICAL CENTRE,-2.352599,53.447337
188.27000000000004,PAK HEALTH CENTRE,-1.856091,52.490749
128.72000000000003,WALFORD STREET  TIVIDALE,-2.059752,52.513192
592.6200000000001,LITTLE LONDON SURGERY,-1.979284,52.574984
640.4400000000002,STRETTON MEDICAL CENTRE,-2.577017,53.339489
118.49,THE DALE MEDICAL PRACTICE,-2.154239,53.611617
213.23,WALNUT ST MED CTR (LEICESTER MED GROUP),-1.138855,52.624601
375.9500000000001,FIR TREE,-2.878691,53.44930600000001
39.69,CAMBRIDGE ACCESS SURGERY,0.138701,52.20875
2.31,NELPCT OUT OF HOURS SERVICE,-0.096229,53.544858
8.74,ANGEL LODGE,-1.50929,53.683308
389.16,ETTINGSHALL MEDICAL CENTRE,-2.092879,52.570364
310.47,RUSHEY MEAD HEALTH CENTRE,-1.103823,52.663187
596.03,ST ANN'S ROAD SURGERY,-0.08783399999999998,51.581428
1265.74,LEIGH FAMILY PRACTICE,-2.511927,53.493519
384.1,THE PRACTICE FELTHAM,-0.411086,51.446367
610.7999999999998,HENDON WAY SURGERY,-0.241873,51.579182
9.07,SPECIALIST NURSE,-1.517573,53.993807
25.08,TAURUS HEALTHCARE LTD,-2.71099,52.05708
53.32,NC GPA PLUS,-1.152649,52.954624
368.99,CARTMEL SURGERY,-2.946985,54.199165
2069.62,ALNWICK MEDICAL GROUP,-1.6967470000000002,55.410086
743.42,NETHERFIELD HOUSE,-1.548435,55.063632
1787.3100000000004,PRACTICE 3  MEDICAL CENTRE  BRIDLINGTON,-0.201064,54.084715
1170.63,THE ALMONDBURY SURGERY,-1.751311,53.631868
424.11,NEWLAND SURGERY,-1.424247,53.695146
3198.23,BEACON MEDICAL PRACTICE,0.331219,53.157472
177.81,GREENFIELDS MEDICAL CENTRE (YVS RAO),-1.168583,52.966506
768.12,TREETON MEDICAL CENTRE,-1.354708,53.384994
1389.2099999999996,MEADOWGREEN HEALTH CENTRE,-1.480804,53.326831
3781.03,BOROUGHBURY MEDICAL CENTRE,-0.245486,52.577858
1243.21,THE ROOKERY MEDICAL CENTRE,0.405573,52.245158
4.6000000000000005,COMMUNITY MATRONS,-2.095555,52.599722
7.56,SJUH GPS IN A+E,-1.520359,53.806869
1044.0499999999997,CRUDDAS PARK SURGERY,-1.630965,54.968173
511.69,THE CHESTNUTS & HALLGATE SURGERY,-0.403621,53.778985
693.2900000000002,HAWORTH MEDICAL PRACTICE,-1.954883,53.831322
860.7100000000002,FIELDHEAD SURGERY,-1.854229,53.641358
937.25,CROFTON AND SHARLSTON MED PRAC,-1.427042,53.656573
1766.6699999999996,SHIRES HEALTHCARE,-1.215692,53.202513
699.8099999999998,ORCHARD SURGERY,-1.278154,52.836522
1031.22,ST GEORGES MED PRACTICE,-1.132346,52.930754
251.64,WELBECK SURGERY,-1.147823,52.979645
1013.43,WICKHAM MARKET MEDICAL CENTRE,1.363674,52.151842
796.6199999999997,TODDINGTON MEDICAL CENTRE,-0.530482,51.945856
250.89,THE RANDOLPH SURGERY,-0.186852,51.529819
270.39000000000004,DR YADAVA N PRACTICE,0.334586,51.476703
390.49,ST.PAUL'S WAY MEDICAL CTR,-0.024483,51.517862
1467.13,THORNHILLS MEDICAL PRACTICE,0.440958,51.300117
1213.5700000000004,OAKLANDS HEALTH CENTRE,1.08253,51.069106
325.49,HEXTABLE SURGERY,0.182972,51.409182
870.76,LONGCROFT CLINIC,-0.192332,51.325314
400.0300000000001,THE ROEHAMPTON SURGERY,-0.242431,51.451154
1218.14,WYKE REGIS & LANEHOUSE MEDICAL PRACTICE,-2.475127,50.594634
430.84,WHITCHURCH SURGERY,-0.8426209999999998,51.882174
618.55,CRICK MEDICAL PRACTICE,-1.135861,52.343212
1339.8799999999997,KINGSWOOD HEALTH CENTRE,-2.499974,51.462895
1269.5300000000002,THE VILLAGE SURGERY,-2.219972,53.033945
1873.5,BIDDULPH VALLEY SURGERY,-2.178498,53.116111
298.74,RIVERSIDE SURGERY,-1.699518,52.632337
1128.23,THREE VILLAGES MEDICAL PRACTICE,-2.146398,52.465406
639.7700000000002,STONE CROSS MEDICAL CENTRE,-1.982689,52.545444
1791.7400000000002,STOCKTON HEATH MED.CENTRE,-2.582161,53.37195
926.05,THE VILLAGE SURGERIES GROUP,-2.771265,53.124246
901.0600000000003,ILEX VIEW MEDICAL PRACTICE,-2.280663,53.70081
561.56,SHIFA SURGERY,-2.475999,53.757295
2035.23,CHORLTON FAMILY PRACTICE,-2.279717,53.443773
630.66,OLDHAM MEDICAL SERVICES,-2.111235,53.52535699999999
623.43,MELROSE SURGERY,-0.9598620000000002,51.451692
127.26,DR R KAPUR & PARTNERS,-1.119092,52.631036
613.22,LEADGATE SURGERY,-1.805988,54.860562
1126.79,ACLE MEDICAL PARTNERSHIP,1.548667,52.640969
446.38,PEEL CROFT,-1.6339549999999998,52.799271
1247.7499999999998,MARTONSIDE MEDICAL CENTRE,-1.220329,54.553175
554.17,ROCKLIFFE COURT SURGERY,-1.544074,54.483444
1811.08,BEDLINGTONSHIRE MED.GROUP,-1.598682,55.1322
398.68000000000006,WESTBOURNE SURGERY,-1.8061,53.650937
891.58,MIDDLESTOWN,-1.600562,53.650545
526.37,DR WEBB AND PARTNERS,-1.308041,52.968251
1092.11,GOYT VALLEY MEDICAL PRACTICE,-1.983113,53.3305
322.52,CASTLE STREET MEDICAL CENTRE,-1.293753,53.229627
590.8500000000001,SILVERDALE MEDICAL CENTRE,-1.090548,52.672318
2267.7000000000007,HOLT MEDICAL PRACTICE,1.116042,52.914476
1119.81,HOWARD HOUSE SURGERY,1.349626,51.96149
1647.0899999999995,PARKBURY HOUSE SURGERY,-0.334063,51.756766
477.82,UXENDON CRESCENT SURGERY,-0.292809,51.572063
255.07,STERNDALE SURGERY,-0.221441,51.498326
790.89,AEGIS MEDICAL CENTRE,0.467525,51.57556
317.42,AMWELL GROUP PRACTICE,-0.11081700000000001,51.528043
1075.1700000000003,MEOPHAM MEDICAL CENTRE,0.359744,51.368901
671.39,WESTERHAM PRACTICE,0.070437,51.266465
537.47,FORGE CLOSE SURGERY,0.016555,51.377137
1094.73,STEYNING HEALTH CENTRE,-0.329972,50.890666
1487.6099999999994,LAVANT ROAD SURGERY,-0.781051,50.853385
393.63000000000005,THORNTON & VALLEY PARK SURGERY,-0.120709,51.388871
432.98,JOHNSON (SHEEN LANE),-0.267239,51.465848
164.14,BEGG PRACTICE,-0.179391,51.459968
695.2299999999998,MOORDOWN MEDICAL CENTRE,-1.874485,50.756212
354.79,LITTLEDOWN SURGERY,-1.833439,50.741638
666.3000000000002,EMMER GREEN SURGERY,-0.972861,51.483584
1051.79,WOLVERTON HEALTH CENTRE,-0.814934,52.054197
2655.46,ST THOMAS MEDICAL GROUP,-3.54518,50.714472
455.94,YOXALL,-1.7931740000000003,52.767984
138.51000000000002,GREET MEDICAL PRACTICE,-1.857778,52.453195
460.33,PEDMORE MEDICAL PRACTICE,-2.118211,52.457029
1031.7300000000002,BOSWORTH MEDICAL CENTRE,-1.7536330000000002,52.480569
1814.2,THE PARK MEDICAL PRACTICE,-2.739045,53.77018
266.81,CROSSWAYS PRACTICE,-3.023992,53.484655
588.0700000000002,THE OLD DISPENSARY,-1.987226,50.803427
400.48,STROUD GREEN MEDICAL CENTRE,-0.114328,51.570059
2.88,CBS OOH,-1.233579,53.134573
0.53,EASTBOURNE  HAILSHAM & SEAFORD OOH,0.891514,51.129106
1.22,INTERMEDIATE CARE (THE PEELE),-2.259671,53.385779
3.12,LCW HOUNSLOW CCG OOH,-0.217218,51.522362
1543.64,WEST SOMERSET HEALTHCARE,-3.3186760000000004,51.161419
1106.0600000000004,WEM AND PREES MEDICAL PRACTICE,-2.722566,52.859338
470.5299999999999,ALL SAINTS SURGERY,-1.644121,52.794285
1696.1,CENTRAL SURGERY,-1.265473,52.371743
885.08,OMNIA PRACTICE,-1.839082,52.475709
288.93000000000006,SCHOOLACRE ROAD SURGERY,-1.785797,52.497659
1174.4900000000002,DORRIDGE SURGERY,-1.752074,52.372757
998.6400000000001,MORETON CROSS GROUP PRACTICE,-3.111975,53.403551
1464.7099999999994,WITTON MEDICAL CENTRE,-2.507553,53.740232
297.1500000000001,WALMERSLEY ROAD MEDICAL PRACTICE,-2.289525,53.599849
780.98,WEST COMMON LANE TEACHING PRACTICE,-0.682441,53.57473100000001
272.61,QUEENS ROAD SURGERY,-1.474524,52.522119
396.3,BEVAN HEALTHCARE CIC,-1.753352,53.795581
745.9199999999998,RIVERSIDE MEDICAL PRACTICE,-1.315584,54.56887
13.330000000000002,MEDICUS HEALTH PARTNERS-ENFIELD ISLAND,-0.016992,51.668586
48.96,MERSEYCARE NHS TRUST,-2.826417,53.424035
991.07,RISING BROOK,-2.118782,52.787133
69.71,BLOOMSBURY SURGERY,-1.871892,52.49324300000001
393.08,ST JAMES MEDICAL PRACTICE2,-2.097323,52.514234
137.89,KHAN MEDICAL PRACTICE,-2.000799,52.613174
368.39,LINGHOLME HEALTH CENTRE,-2.744752,53.457769
2027.47,PEEL HOUSE MEDICAL PRACTICE,-2.365995,53.75089200000001
579.0600000000002,ASHURST PRIMARY CARE,-2.772723,53.563208
1535.5499999999995,RED BANK GROUP PRACTICE,-2.323706,53.560143
1073.01,MARPLE BRIDGE SURGERY,-2.053323,53.400594
1537.39,GRASMERE SURGERY,-2.511455,53.503236
