total_cost,name,longitude,latitude
3627.39,COLVILLE HEALTH CENTRE,-0.206231,51.515837
2876.07,BRICKFIELDS SURGERY,0.605168,51.653143
1546.36,TYNEMOUTH MEDICAL PRACTICE,-0.068331,51.586253
6087.160000000002,TRINITY MEDICAL CENTRE,-0.172008,50.831228
6909.84,THE CEDARS SURGERY,1.403174,51.217619
2607.2899999999995,THE KINGS FAMILY PRACTICE,0.534548,51.377821
3291.57,FOUNTAIN PRACTICE,-0.252307,51.350378
1481.4,ST ALBANS MEDICAL CENTRE,-0.302479,51.42195
6762.43,ORCHID HOUSE SURGERY,-1.894499,50.801788
7768.17,THE HADLEIGH PRACTICE,-1.993525,50.761018
10796.580000000002,THREE CHEQUERS MEDICAL PRACTICE,-1.794625,51.071924
6293.1,WEAVERS MEDICAL,-0.733538,52.401531
6488.18,NUFFIELD HEALTH CENTRE,-1.486793,51.786441
8326.940000000002,BARTON SURGERY,-3.473818,50.579848
10192.029999999997,BIDEFORD MEDICAL CENTRE,-4.211785,51.017201
4547.930000000002,CORBETT MEDICAL PRACTICE,-2.148792,52.263269
10724.55,THE WESTGATE PRACTICE,-1.821176,52.683537
2897.13,COBRIDGE SURGERY,-2.187008,53.035377
723.5599999999998,BURBURY MEDICAL CENTRE,-1.9103740000000002,52.502215
4635.1500000000015,PLECK HEALTH CENTRE,-1.9980380000000002,52.574248
2164.16,CORNERSTONE SURGERY,-2.724149,53.454211
1402.18,HIGHER HEYS SURGERY,-2.394094,53.740865
5350.210000000001,ALBION MEDICAL PRACTICE,-2.088476,53.48960400000001
9085.71,DELAMERE MEDICAL PRACTICE,-2.307365,53.450887
987.78,240 WEXHAM ROAD,-0.57838,51.516902
1273.17,LONGFIELD MEDICAL PRACTICE,-2.28357,53.533828
3348.11,THISTLEMOOR MEDICAL CENTRE,-0.254566,52.595274
1231.75,PALACCI (CASTELNAU),-0.238274,51.476873
1943.38,CANTERBURY HEALTH CENTRE,1.082981,51.274249
3.0,GP EXTENDED HOURS,-2.597522,53.389256
1557.22,BANBURY HEALTH CENTRE,-1.334014,52.062032
2731.880000000001,BRERETON SURGERY,-1.924317,52.747482
1229.93,THE LAWNS SURGERY,-0.502907,50.807746
2943.1,OAK TREE HEALTH CENTRE,-1.2409629999999998,51.614986
2299.9200000000005,THE TRINITY MEDICAL PRACTICE,0.760305,51.684982
1574.78,SOHO HEALTH CENTRE,-1.934945,52.503094
505.04,BARNET COPD SERVICE,-0.271242,51.606493
1.5,BECKENHAM BEACON URGENT CARE CENTRE,-0.033209,51.405232
4482.51,BRIERLEY MEDICAL CENTRE,-1.382484,53.594188
10.5,NORWICH IMPROVED ACCESS HUB,1.319958,52.632405
6353.0700000000015,METRO INTERCHANGE SURGERY,-1.602943,54.961848
11026.309999999998,BRIDGE VIEW MEDICAL GROUP,-1.401824,54.919455
3185.58,QUAKERS LANE SURGERY,-1.741713,54.406363
9596.78,HOLLYNS HEALTH & WELLBEING - CLAYTON,-1.81454,53.779166
3018.63,BRIDGE STREET MEDICAL PRACTICE,-1.20716,52.774841
3618.4200000000014,CAYTHORPE & ANCASTER MEDICAL PRACTICE,-0.536327,52.981851
5477.560000000001,PARSON DROVE SURGERY,0.050459,52.660947
2821.16,PRIORS FIELD SURGERY,0.124169,52.388951
2587.9700000000007,DAVENPORT HOUSE SURGERY,-0.354549,51.816177
4360.44,MILLWAY MEDICAL PRACTICE,-0.24359099999999997,51.614985
1046.06,TEMPLE FORTUNE MEDICAL GROUP,-0.197845,51.581101
63.73,MOULSHAM LODGE SURGERY,0.475137,51.716565
1657.9800000000002,WARRIOR SQUARE SURGERY,0.716503,51.539534
643.9,BRAYFORD SQUARE SURGERY,-0.050404,51.514375
630.1700000000002,YORK ROAD SURGERY,0.065859,51.559165
5157.3600000000015,WEST MALLING GROUP PRACTICE,0.407707,51.293351
5676.329999999999,ELMDENE SURGERY,0.263153,51.446098
5147.689999999999,MOAT HOUSE SURGERY,-0.146361,51.259819
991.96,ALEXANDRA SURGERY,-0.205887,51.422912
4495.230000000001,DENHAM MEDICAL CENTRE,-0.502236,51.584564
3428.64,CHEW MEDICAL PRACTICE,-2.629195,51.35619
3936.37,ST.GEORGE'S SURGERY,-2.0815,51.906706
4099.44,CHARING SURGERY,0.791374,51.20971
2264.07,THAMES AVE SURGERY,0.603057,51.36344
8493.67,CANTERBURY MEDICAL PRACTICE,1.128982,51.245539
956.36,TRAFALGAR SURGERY,-0.074414,51.485672
4812.78,THE ORCHARD PRACTICE,-0.303542,51.369116
3335.3900000000012,BALHAM PARK SURGERY,-0.155715,51.440487
434.36,UNIVERSITY HEALTH SERVICE,-1.395714,50.934099
1989.46,LINDEN MEDICAL CENTRE,-0.737415,51.530813
2709.2,OBSERVATORY MEDICAL PRACTICE,-1.265958,51.760293
933.36,CROPREDY SURGERY,-1.320027,52.116731
8269.260000000002,HEART OF BATH,-2.373947,51.376364
3051.9100000000008,BIRCHWOOD MEDICAL PRACTICE,-2.547938,51.446246
2173.35,LOSTWITHIEL SURGERY,-4.668763,50.407892
1861.79,ST SAVIOURS SURGERY,-2.308488,52.130324
3901.42,WERRINGTON VILLAGE SURGERY,-2.098023,53.021659
3477.42,WEST HEATH SURGERY,-1.96202,52.401797
1668.0600000000004,WEST PARK SURGERY,-2.141256,52.587783
1568.94,THE MARSHSIDE SURGERY,-2.963125,53.67143299999999
2756.9600000000005,MERSEYBANK SURGERY,-2.263012,53.42276
1970.31,THE GROVE ROAD PRACTICE,-0.202341,51.358201
905.5399999999998,MOOR PARK MEDICAL PRACTICE,-1.7218490000000002,53.797834
939.5100000000001,UPTON ROCKS PRIMARY CARE,-2.754371,53.373367
1529.29,HANLEY PRIMARY CARE CENTRE,-0.12083699999999999,51.567951
2700.6900000000005,LEYLAND SURGERY,-2.709316,53.689645
207.15,HP NMP'S RUSH CCG,-1.143101,53.130244
1.5,COMMUNITY NURSING,-2.372621,51.358169
3663.969999999999,WELLSBOURNE HEALTHCARE CIC,-0.107386,50.825445
1775.32,CHEVIOT MEDICAL GROUP,-2.01842,55.546525
12167.430000000002,THE CENTRAL SURGERY BARTON,-0.439445,53.684236
2189.98,DEARNE VALLEY HEALTH CENTRE,-1.626482,53.588349
2537.56,MICKLEOVER MEDICAL CENTRE,-1.54633,52.907111
756.8199999999998,THE UNIV OF NOTTINGHAM HEALTH SERV,-1.195942,52.942177
1605.08,LISTER HOUSE SURGERY,-0.4515,51.89192
1125.55,THE ELMS SURGERY,-0.404224,51.661642
865.0399999999998,HOUNSLOW MEDICAL CENTRE,-0.37684,51.469395
1191.68,P A PATEL SURGERY,0.582273,51.56978
1073.55,SANCTA MARIA MEDICAL CENTRE,0.284011,51.507882
10355.03,SEAFORD MEDICAL PRACTICE,0.099275,50.772678
4775.91,BUXTED MEDICAL CENTRE,0.132095,50.989406
300.08,NEW INN SURGERY,-0.545657,51.257698
1232.82,THE WHITEHORSE PRACTICE,-0.097391,51.385869
4043.590000000001,THE HEALTH CENTRE,-0.19711,51.363031
7976.39,WEST END ROAD SURGERY,-1.359281,50.916702
2031.53,TOWER HOUSE SURGERY,-0.770004,51.636372
4767.5,CHURCH STREET PRACTICE,-1.425847,51.598763
3051.510000000001,CLINTON ROAD SURGERY,-5.224966,50.23093
5065.8499999999985,PINHOE SURGERY,-3.469622,50.737528
8212.720000000003,ROSEBANK HEALTH,-2.242194,51.852611
3187.52,MAPLE VIEW MEDICAL PRACTICE,-1.905693,52.31659
2383.21,PRESCOTT SURGERY,-2.852689,52.784345
1109.23,BLOOMSBURY HEALTH CENTRE,-1.876618,52.493743
4591.16,HEATON ROAD SURGERY,-1.579814,54.978269
2675.48,49 MARINE AVENUE SURGERY,-1.451082,55.046268
6165.630000000001,HOUGHTON MEDICAL GROUP ,-1.469175,54.842322
3631.09,HOWDEN MEDICAL PRACTICE,-0.8694039999999998,53.744175
650.79,HANCOCKS ME,-0.41296400000000005,53.782123
5789.609999999999,THE WILSDEN MEDICAL PRACTICE,-1.86138,53.818377
777.0499999999998,COLSTERWORTH SURGERY,-0.619356,52.806388
3098.77,LUNDWOOD MEDICAL CENTRE PMS PRACTICE,-1.438538,53.557711
3237.64,GREASBROUGH MEDICAL CENTRE,-1.372776,53.452893
3654.45,WELLSIDE SURGERY,-0.28478,52.440324
1888.71,CLARE GUILDHALL SURGERY,0.580469,52.078259
2366.7899999999995,LATTIMORE & VILLAGE SURGERY,-0.298547,51.726244
242.4,SOMERSET MEDICAL CENTRE,-0.371127,51.522244
4985.63,CENTRAL UXBRIDGE SURGERY,-0.475739,51.546229
3992.929999999999,WEST MERSEA SURGERY,0.9193420000000002,51.778349
5172.579999999999,HIGHLANDS SURGERY,0.637339,51.548005
3370.869999999999,BALLARDS WALK SURGERY,0.441841,51.573232
5827.09,DOWNLANDS MEDICAL CENTRE,0.244085,50.822919
4624.6,OTFORD MEDICAL PRACTICE,0.191446,51.31358
2418.64,THE HALFWAY SURGERY,0.524157,51.380429
3092.1299999999987,BURNEY STREET PMS,-0.009168,51.479034
2070.8,ELIZABETH HOUSE MEDICAL PRACTICE,-0.050005,51.308093
1362.4199999999996,ADDINGTON MEDICAL PRACTICE,-0.018557,51.344382
598.37,SARAJLIC (STAINES ROAD),-0.357923,51.439672
14295.79,ROYAL CRESCENT SURGERY,-2.452679,50.616587
3723.04,TWYFORD SURGERY,-1.314229,51.019421
854.4699999999998,ABBEY MEDICAL CENTRE,-0.982406,51.453949
2931.7300000000005,ST.BARTHOLOMEWS MEDICAL CENTRE,-1.232108,51.747668
11865.67,THE DOWNEND HEALTH GROUP,-2.505301,51.485109
3243.8100000000013,IDE LANE SURGERY,-3.534972,50.699471
2731.64,THE ARROW SURGERY,-1.861382,52.218546
5460.449999999999,DR SN CLAY AND PARTNERS,-1.832005,52.528641
3276.03,WILLENHAL OAK MEDICAL CENTRE,-1.463131,52.388988
5635.76,WORDSLEY GREEN HEALTH CENTRE,-2.164692,52.480602
13301.230000000005,THE OVER-WYRE MED.CTR.,-2.976492,53.928203
3285.200000000001,FISHERGATE HILL SURGERY,-2.714363,53.75445500000001
2117.15,THE SINGH MEDICAL PRACTICE,-2.213622,53.512042
4776.220000000001,PARK VIEW GROUP PRACTICE,-2.160577,53.445476
693.6599999999999,FAMILY SURGERY,-2.346055,53.396194
122.73,STROKE PATHWAY AND REHABILITATION CENTRE,-1.461102,53.37116700000001
51.84,NWR COMMUNITY SERVICES,-1.014748,51.449145
71.3,URGENT CARE,0.475497,50.850706
510.54,CRANBROOK MEDICAL PRACTICE,-3.416198,50.746596
9.3,GOSPORT PRIMARY CARE ACCESS CENTRE,-1.148081,50.793062
6913.52,WHITLEY BAY HEALTH CENTRE,-1.43996,55.04141
5663.74,BLACKBURN RD.MEDICAL CTR.,-1.664718,53.731348
10423.65,MARKET HARBOROUGH MED.CTR,-0.924843,52.477084
1274.92,COMMUNITY HEALTH CENTRE (ZS OSAMA),-1.113421,52.632387
4175.71,TRAMWAYS MEDICAL CENTRE (O'CONNELL),-1.503023,53.402044
5346.52,SAFFRON HEALTH PARTNERSHIP,-0.264459,52.084232
2025.69,GLADSTONE MEDICAL CENTRE,-0.24612,51.558731
1921.69,ST MARTINS MEDICAL CENTRE,-0.424566,51.577646
1721.4299999999996,ABRIDGE SURGERY,0.12458,51.653631
1388.14,ELSDALE STREET SURGERY,-0.049094,51.543033
3696.71,STOPSLEY VILLAGE PRACTICE,-0.394147,51.901132
6221.95,SHEFFORD HEALTH CENTRE,-0.321643,52.034788
1732.0799999999995,VALE DRIVE MEDICAL PRACTICE,-0.194727,51.648828
2010.38,THE FRYENT WAY SURGERY,-0.280565,51.582963
2990.67,BELMONT MEDICAL CENTRE,-0.478036,51.548264
1839.82,PORTLAND ROAD PRACTICE,-0.208019,51.507366
8529.67,AUDLEY MILLS SURGERY,0.607129,51.584978
2650.5,STRATFORD HEALTH CENTRE,0.004714,51.544651
1526.15,THE STROUDLEY WLK HTH CTR,-0.017533,51.527214
4120.259999999998,ST JOHN'S MEDICAL PRACTICE,0.195249,51.285009
4729.969999999998,BEXLEY GROUP PRACTICE,0.10965599999999999,51.465832
3850.05,DERRY DOWNS SURGERY,0.116651,51.385174
2930.45,UPPER NORWOOD GROUP PRACTICE,-0.08482,51.413308
1404.3600000000006,THE MOORINGS MEDICAL PRACTICE,-0.095892,51.322229
3712.47,THE TOLLERFORD PRACTICE,-2.571586,50.778924
5684.85,BLACKTHORN HEALTH CENTRE,-1.327194,50.876037
1216.57,JUBILEE FIELD SURGERY,-2.191875,51.484091
1242.06,DANES CAMP MEDICAL CENTRE,-0.904374,52.205152
3412.9999999999995,THORNBURY HEALTH CENTRE - BURNEY,-2.517723,51.612861
3502.9500000000007,ELM HAYES SURGERY,-2.492756,51.300546
3267.8,CULVERHAY SURGERY,-2.348649,51.638921
5619.72,SHAWBIRCH MEDICAL CENTRE,-2.531858,52.718121
7710.800000000002,THE DOVE MEDICAL PRACTICE,-1.864605,52.535155
7159.480000000001,MOSS GROVE SURGERY,-2.1699,52.498674
8116.58,WARLEY MEDICAL CENTRE,-2.006757,52.468122
3398.1999999999994,SPRINGFIELDS MEDICAL CENTRE,-2.597522,53.389256
6509.070000000002,WEAVER VALE PRACTICE,-2.696866,53.325561
7164.190000000001,GLOVERS LANE SURGERY,-2.971961,53.488314
1912.62,OLIVE MEDICAL CENTRE,-2.484193,53.752309
2426.3100000000004,HALLIWELL SURGERY 1,-2.431738,53.588322
3167.910000000001,HEATON MERSEY MED.PRACT.,-2.205118,53.412519
839.4199999999998,VILLAGE SURGERY,-0.255874,51.399503
1290.91,SOMERS TOWN MEDICAL CENTRE,-0.130607,51.529916
453.55000000000007,FITZMAURICE (KEW),-0.283117,51.475875
1929.24,WOOTTON VALE HEALTHY LIVING CENTRE,-0.527951,52.093688
3705.02,ST LUKE'S HEALTH CENTRE,0.7293039999999998,51.551
16392.76,THE MEDICAL GROUP,-1.628911,54.748296
5685.14,GLENPARK MEDICAL CENTRE,-1.640096,54.953229
740.6500000000002,DR KHALIQ,-1.799612,53.663276
7230.24,ROBIN LANE HEALTH AND WELLBEING CENTRE,-1.661311,53.79500899999999
2009.67,LAUREL BANK SURGERY,-1.587333,53.816942
4160.880000000001,HUGGLESCOTE SURGERY,-1.365684,52.71103
2603.17,HEALTH CARE COMPLEX  KIRKBY,-1.244634,53.100062
3398.92,RED HOUSE SURGERY,0.129161,52.214906
2245.140000000001,KINGS HEAD MEDICAL PRACTICE,-0.011448,51.635688
424.16,BRIMPTON HOUSE,0.699534,51.835776
2157.74,THE AZAD PRACTICE,0.044868,51.531234
2550.9699999999993,NEWHOLME SURGERY,-2.74261,53.456686
18.0,BRIGHTON STATION WALK-IN,-0.141323,50.827937
1.5,SW INTEGRATED TEAM MALVERN,-2.178135,52.192339
13.5,COMMUNITY NURSES,-2.500977,51.462504
2252.42,LUNESDALE SURGERY,-2.602213,54.200573
9188.720000000003,COQUET MEDICAL GROUP,-1.580504,55.332599
1012.22,THE GLENDALE SURGERY,-2.01842,55.546525
2215.0500000000006,ALLERTON MEDICAL CENTRE,-1.533879,53.826921
5436.760000000001,SPILSBY SURGERY,0.098963,53.173049
2274.24,BRIDGEWAY PRACTICE,-1.147343,52.943574
7163.029999999999,THORNE MOOR MEDICAL PRACTICE,-0.966348,53.613648
7902.100000000002,MANOR AND PARK GROUP PRACTICE,-1.42716,53.373705
2075.17,SOLE BAY H/C,1.6664740000000002,52.336325
2607.5400000000004,DR PS BATH'S PRACTICE,-0.394147,51.901132
863.75,WATERSIDE MEDICAL CENTRE,-0.363984,51.502165
3741.09,MELBOURNE HOUSE SURGERY,0.451756,51.749214
5282.26,LITTLE WALTHAM & GT NOTLEY SURGERY,0.477622,51.787396
3828.41,AMPTHILL PRACTICE,-0.137293,51.5346
2021.95,THE NORTH LONDON HEALTH CENTRE,-0.11243199999999999,51.617571
2503.7900000000004,THE WILLOWS PRACTICE,0.104416,51.60776
7742.7599999999975,ST.PETER'S MEDICAL CENTRE,-0.135237,50.831002
7812.2199999999975,HIGHPARKS MEDICAL PRACTICE,0.496762,51.434213
3504.28,YALDING,0.429804,51.221188
2929.6,CRAWLEY DOWN HEALTH CENTRE,-0.07762099999999998,51.122557
1036.98,BIRDHURST MEDICAL PRACTICE,-0.092613,51.365279
6545.15,FORESTSIDE MEDICAL PRACTICE,-1.416173,50.851823
1151.04,BENTLEY VILLAGE SURGERY,-0.87992,51.189933
4153.819999999999,DR KUMAR & PARTNER STUDFALL MEDICAL CTR,-0.704816,52.495882
7316.09,CASTLE PLACE PRACTICE,-3.492865,50.908884
4266.03,COTSWOLD MEDICAL PRACTICE,-1.75678,51.886317
5908.570000000002,GLASTONBURY SURGERY,-2.721853,51.148462
7518.2,NUNWELL SURGERY,-2.507177,52.187931
3095.31,CLEOBURY MORTIMER SURGERY,-2.485608,52.377502
5306.36,MEDINA HEALTHCARE,-1.298686,50.697239
4415.89,BEDFORD STREET SURGERY,-0.729782,51.995784
5099.62,ALCHESTER MEDICAL GROUP,-1.138371,51.891398
5783.940000000002,GREENWAY COMMUNITY PRACTICE,-2.611274,51.499595
6934.490000000002,THREE SPIRES MEDICAL PRACTICE,-5.055864,50.259982
4745.88,DEAN CROSS SURGERY,-4.095355,50.358939
4623.470000000001,SOUTHOVER MEDICAL PRACTICE,-3.528075,50.474733
4819.26,NEW VALLEY PRACTICE,-3.654492,50.792383
3481.39,THE STOKE ROAD SURGERY ,-2.068173,51.94667
9277.05,HIGHBRIDGE MEDICAL CENTRE,-2.979117,51.227372
5251.86,CANTILUPE SURGERY,-2.712261,52.055418
3532.91,MYTTON OAK MEDICAL PRACT.,-2.797762,52.707667
1637.6799999999994,DRS SHAH & TALPUR,-2.194635,52.974032
4692.1399999999985,DR VSR CHADALAVADA,-2.139143,53.0416
4604.92,HAWKESLEY MEDICAL PRACTICE,-1.937498,52.39544
1046.66,KEYNELL COVERT,-1.911857,52.408441
4006.82,PARK MEDICAL CENTRE,-2.873099,53.202665
4804.72,NORWOOD SURGERY,-2.97819,53.65000799999999
5589.440000000001,WHALLEY MEDICAL CENTRE,-2.406348,53.819793
524.5,SLAIDBURN HEALTH CENTRE,-2.444001,53.967313
6251.820000000002,PIKES LANE 1,-2.446348,53.572728
485.71,DR PATHAK ND,-1.9843959999999998,52.51273
2654.76,STRELLEY HEALTH CENTRE (COCKRILL),-1.227726,52.973231
2139.6,PHOENIX MEDICAL PRACTICE,0.48126899999999995,51.328805
1513.5000000000002,NETHERTON SURGERY,-2.97236,53.488626
1230.1,DILSTON MEDICAL CENTRE,-1.640355,54.976621
1.5,INTERGRATED COMMUNITY PAEDIATRIC SERVICE,-2.384279,53.582354
1376.8699999999994,NORTH CHELMSFORD NHS HCC,0.510815,51.750584
1345.4699999999998,KIRKHOLT MEDICAL PRACTICE,-2.162243,53.59832
3.0,GPHP - GP IN A&E,-0.273231,51.325518
1342.77,DR AZIM & PARTNERS,-0.225729,51.579655
3.0,BARTON MOSS SECURE CHILDREN'S HOME,-2.39687,53.468834
1331.65,BHF HIGHGATE SURGERY,-1.378978,53.573614
3448.98,SEASCALE HEALTH CENTRE,-3.479998,54.396756
1927.45,WIDDRINGTON SURGERY,-1.62051,55.240248
2478.04,RIPLEY MEDICAL CENTRE,-1.405723,53.04704
1079.49,DE MONTFORT SURGERY,-1.141192,52.6286
4981.509999999998,DENABY MEDICAL PRACTICE,-1.245792,53.490666
4514.300000000001,MENDLESHAM MEDICAL GROUP,1.0816,52.251866
2264.93,UPTON ROAD SURGERY,-0.401058,51.656689
5141.25,DOLPHIN HOUSE SURGERY,-0.029818,51.810791
1970.95,THE EVERGLADE MEDICAL PRACTICE,-0.24421,51.601578
2133.58,FRIERN BARNET MEDICAL CENTRE,-0.155988,51.613267
669.34,THE CIVIC MEDICAL CENTRE,-0.337497,51.587155
4380.550000000001,THE GOLD STREET SURGERY,0.240471,52.021716
5984.219999999998,THE HOLLIES,0.610574,51.555461
1265.4399999999996,THE LEIGH SURGERY,0.656153,51.555504
1633.2299999999998,WEST HAMPSTEAD MEDICAL CENTRE,-0.196578,51.55004
3870.41,STAUNTON GROUP PRACTICE,-0.112926,51.599388
5037.29,SOUTHBROOM SURGERY,-1.989037,51.352288
2466.640000000001,THE DOWNLAND PRACTICE,-1.312402,51.463442
1520.32,BLAKENEY SURGERY,-2.476364,51.759117
4077.64,WELLS HEALTH CENTRE,-2.655326,51.203403
5727.150000000002,RIVERSIDE MED.PRACTICE,-2.755278,52.709209
2511.15,CHANCERY LANE SURGERY,-1.521755,52.536173
3093.4,NECHELLS PRACTICE,-1.876618,52.493743
4436.97,THE LIMES MEDICAL CENTRE,-1.974677,52.58065500000001
2146.7,TOWNFIELD HEALTH CENTRE,-3.064248,53.378798
916.22,PRINGLE STREET SURGERY,-2.467594,53.742039
3553.1399999999994,HOPWOOD MEDICAL CENTRE,-2.212052,53.587143
5811.36,THE KILTEARN MEDICAL CTR.,-2.518506,53.068155
9305.360000000002,BROADWAY MEDICAL CENTRE,-3.033843,53.912667
1619.24,EGERTON/DUNSCAR HEALTH CENTRE,-2.426383,53.617589
7283.750000000003,SADDLEWORTH MEDICAL PRACTICE,-2.004957,53.548331
1600.5299999999993,VILLAGE MEDICAL PRACTICE,-2.095994,53.574817
1026.8,EASTGATE SURGERY,-0.519836,51.886145
457.7000000000001,SUMMERFIELD GROUP PRACTICE,-1.937353,52.487686
2225.02,PHOENIX PRIMARY CARE (SOUTH) LTD,-0.441597,51.88973
2545.8,THURROCK HEALTH CENTRE,0.323317,51.477404
6.3100000000000005,SOLENT WEST NMPS,-1.446031,50.92524
3.0,CWP (WEST) PHYSICAL HEALTH,-2.897884,53.2088
1.5,CNWL-MK MEDICAL PRESCRIBER,-0.7357599999999997,52.026384
50.6,CARE UK COVENTRY OOH,-1.5080049999999998,52.413401
6.0,NSC BOSWORTH HUB,-1.7536330000000002,52.480569
17.17,SKEGNESS & COAST GP EXTENDED ACCESS HUB,0.342219,53.188059
827.51,THE OM SURGERY,-1.2057,53.034978
55.82,LINCOLN OOH,-0.519635,53.233575
3223.4399999999987,THE NEW SPRINGWELLS PRACTICE,-0.340804,52.893623
62.42,SAME DAY HEALTH CNTRE COASTAL HEALTHCARE,-2.859565,54.072841
1.5,WHITTINGTON HEALTH (HARINGEY),-0.139066,51.566482
26.4,PARSONS GREEN WIC,-0.199155,51.47377
1527.96,CAMP HILL GP LED HEALTH CENTRE,-1.507061,52.533074
218.5,DONCASTER URGENT CARE & OUT OF HOURS,-1.109062,53.530806
1.5,THE CONFEDERATION HILLINGDON CIC,-0.47790600000000005,51.547653
9.0,SHIRLEY MEDICAL EXTENDED ACCESS LLP,-0.044859,51.375139
1.5,EAST CLUSTER IAGPS,-1.82052,50.747482
2458.65,THE PATEL PRACTICE,-1.1885709999999998,54.661404
6788.629999999997,HOLMSIDE MEDICAL GROUP,-1.66023,54.969004
4972.48,FARROW MEDICAL CENTRE,-1.74312,53.802511
4403.919999999999,PADDOCK AND LONGWOOD FAMILY PRACTICE,-1.80546,53.642119
4298.22,BRAMLEY VILLAGE HEALTH & WELLBEING CTR,-1.623032,53.80781999999999
821.79,SEVERN SURGERY,-1.065583,52.598801
14962.95,BEACHES MEDICAL CENTRE,1.727734,52.577124
2309.94,LINDEN ROAD SURGERY,-0.479248,52.14361
3853.21,CUFFLEY AND GOFFS OAK MEDICAL PRACTICE,-0.113106,51.708171
1.5,SOUTH WIGSTON ASYLUM SERVICE,-1.12559,52.63753
1.5,PRIMARY CARE ACCESS HUB (SOUTH STOKE),-2.102853,52.97847
12.6,NEAS SOUTH TYNESIDE CCG,-1.712365,54.969713
75.9,GP SERVICES-CRAWLEY HUB,-0.175734,51.240416
60.66,PROCARE HEALTH SERVICES,-0.708282,51.091746
230.35,GLOUCESTER (CARE UK) OOH,-2.30608,51.879263
1.5,EXTENDED ACCESS PCD CONISBROUGH GROUP,-1.237653,53.482282
7173.97,THE GARTH,-1.055444,54.532597
6065.54,THE GABLES MEDICAL GROUP,-1.564429,55.140811
2194.9,HAYDON BRIDGE & ALLENDALE MEDICAL PRACT,-2.250059,54.975681
7039.270000000001,SPRING TERRACE HEALTH CENTRE,-1.450673,55.010941
6306.25,PRACTICE ONE,-0.201064,54.084715
5518.630000000001,CHURCH STREET SURGERY,-1.583343,53.681523
4658.680000000001,SOUTH WIGSTON HEALTH CTR.,-1.129183,52.580452
1309.23,BRAMCOTE SURGERY,-1.244985,52.935604
5053.05,CAMPINGLAND SURGERY,0.690978,52.645997
8225.33,LEIGHTON ROAD SURGERY,-0.66795,51.915779
3495.870000000001,WILLOW TREE FAMILY DOCTORS,-0.265224,51.589337
1772.57,QUEENS WALK PRACTICE,-0.312985,51.524803
3578.590000000001,HIGH STREET SURGERY  EPPING,0.113402,51.700812
9661.940000000004,OLD ROAD SURGERY,1.148421,51.795466
1579.83,HIGH STREET SURGERY,0.223589,51.561554
3918.0,THE LIMEHOUSE PRACTICE,-0.028747,51.511253
120.36,MEDICUS HEALTH PARTNERS-WILLOW HOUSE,-0.07659,51.654209
1511.8300000000004,MAIDSTONE RD RAINHAM SURGERY,0.600379,51.36233
1734.39,BANK HOUSE SURGERY,0.069949,51.359218
2275.44,FORDBRIDGE MEDICAL CENTRE,-0.46301,51.431269
3102.8,EVERSLEY MEDICAL CENTRE,-0.11191300000000001,51.388514
3223.36,YORK MEDICAL PRACTICE,-0.325697,51.449369
2071.58,BERRYLANDS SURGERY,-0.299929,51.390825
6816.62,CRICKET GREEN MEDICAL PRACTICE,-0.174025,51.404579
2952.01,CARRINGTON HOUSE SURGERY,-0.749217,51.632299
581.59,PROSPECT HOUSE SURGERY,-0.705258,51.701136
478.14,WEMBURY SURGERY,-4.072566,50.32186
2497.33,HOLLYOAKS MEDICAL CENTRE,-1.869052,52.377979
4860.710000000001,WOODSETTON MEDICAL CENTRE,-2.10089,52.537994
5796.470000000001,SHERWOOD HOUSE MEDICAL PRACTICE,-1.959426,52.473851
2366.67,GARSTON FAMILY HEALTH CENTRE,-2.89683,53.353909
4750.420000000001,COMMONFIELD RD SURGERY,-3.086369,53.370187
5395.43,THE BORCHARDT MEDICAL CENTRE,-2.237795,53.434307
1005.81,WERNETH MEDICAL PRACTICE,-2.126938,53.53497
626.86,CHAPEL MEDICAL CENTRE,-2.418293,53.449094
1119.8200000000004,DR VICTORIA MUIR'S PRACTICE,-0.151358,51.490651
4604.74,WELLFIELD MEDICAL CENTRE,-2.242019,53.512545
8944.809999999998,NEWLANDS MEDICAL CENTRE,-1.226035,54.571931
5295.240000000002,WIGTON GROUP MEDICAL PRACTICE,-3.159002,54.820303
3436.07,THE FAMILY PRACTICE,-3.229282,54.116755
10605.94,SKERNE MEDICAL GROUP,-1.4488,54.654032
10992.160000000002,ST ANDREWS SURGERY,-0.361958,53.735566
2964.240000000001,COWGILL SURGERY,-1.814543,53.781952
4610.54,VILLAGE SURGERY,-1.485797,52.896347
1044.9099999999996,THE GLENSIDE COUNTRY PRACTICE,-0.537958,52.75451
1243.32,PLEASLEY SURGERY,-1.250873,53.175809
2098.580000000001,BACON LANE SURGERY,-0.275903,51.605078
5059.34,THE MEDICAL CENTRE  DR JEFFERIES & PARTN,-0.212607,51.481206
1187.06,MEANWHILE GARDEN MEDICAL CENTRE,-0.203126,51.522228
9234.600000000002,THE LIMES MEDICAL CENTRE,0.123958,51.706179
2025.89,CHIGWELL MEDICAL CENTRE,0.083876,51.60551
1244.0500000000004,NORTH AVENUE SURGERY,0.735187,51.546618
1219.85,ROSERTON STREET SURGERY,-0.010049,51.498482
761.5699999999998,MEDICUS HEALTH PARTNERS- BUSH HILL PARK,-0.066545,51.63953
6023.320000000002,ALBION PLACE MEDICAL PRACTICE,0.529542,51.274206
1744.7099999999994,OLD PARSONAGE SURGERY,0.460418,51.112785
2815.53,TRIVENI PMS,0.058438,51.490321
3688.84,HAWTHORNS SURGERY,-0.175174,51.241163
3897.99,TRINITY MEDICAL CENTRE,-0.158437,51.437554
935.31,MITCHAM FAMILY PRACTICE,-0.167118,51.410109
3951.11,THE WELLBRIDGE PRACTICE,-2.225354,50.679039
3647.62,THE HARVEY PRACTICE,-1.993525,50.761018
10529.479999999998,HOMEWELL.CURLEW PRACTICE,-0.978019,50.851067
5247.47,SPA MEDICAL CENTRE,-2.126012,51.366868
1473.6,COOKHAM MEDICAL CENTRE,-0.725805,51.558356
3297.7899999999995,THE MISBOURNE SURGERY,-0.558045,51.607786
6679.300000000001,ORCHARD MEDICAL CENTRE,-2.510659,51.462087
3969.75,LYNGFORD PARK,-3.090916,51.036442
6343.400000000002,STAFFORD HEALTH AND WELLBEING,-2.123291,52.817722
905.72,BOURNBROOK VARSITY MEDICAL CENTRE,-1.929903,52.445713
999.27,CAUSEWAY GREEN ROAD SURGERY,-2.014697,52.484564
7520.320000000002,PATTERDALE LODGE MED CTRE,-2.64461,53.452446
6186.650000000002,SUNLIGHT GROUP PRACTICE,-3.00005,53.363076
2039.5500000000006,SHAY LANE MEDICAL CENTRE (KELMAN),-2.31556,53.372189
4943.04,BLYTH ROAD MEDICAL CENTRE,-1.20365,53.422231
2492.63,CENTRAL MEDICAL CENTRE,-0.245977,52.587
3045.1999999999994,HARBOUR MEDICAL PRACTICE,0.324489,50.797353
6.3,URGENT CARE CTR (FCMS) OOH,-3.015863,53.820616
5425.4,MORRAB SURGERY,-5.538987,50.116924
6809.870000000003,WILLOW BANK SURGERY,-2.102853,52.97847
4095.76,EVERGREEN PRIMARY CARE CENTRE,-0.059836,51.623784
175.61,BHC NON MEDICAL PRESCRIBERS,0.010423,51.377216
152.4,BARDOC GP OOH,-2.427769,53.590447
3.0,BANES ENHANCED MEDICAL SERVICE (BEMS+),-2.372621,51.358169
7.8,BROOMFIELD DOCTOR IN ED,0.465993,51.774654
1.5,CCG ACUTE VISITING SERVICE,-2.178123,53.021853
28.4,LGI GPS IN A+E,-1.551744,53.801445
1.5,M&A AHVS (PICS),-1.238124,52.98146
3910.68,BARBOURNE HEALTH CENTRE,-2.224952,52.208752
2033.34,CRAVEN ARMS SURGERY,-2.835416,52.442323
11359.790000000005,THE HAYMARKET HEALTH CTR,-2.211781,53.060343
3457.8,GOLDENHILL MEDICAL CENTRE,-2.221385,53.076901
4833.66,JIGGINS LANE MEDICAL CENTRE,-1.995411,52.436801
1174.52,DARTMOUTH MEDICAL CENTRE,-2.005409,52.520435
3257.01,ARRAN MEDICAL CENTRE,-1.748679,52.50386700000001
3759.6,CHAPEL LANE SURGERY,-3.061428,53.557075
3650.39,HEATHERLANDS MED CTR,-3.089543,53.381475
2826.55,GUTTERIDGE MEDICAL CENTRE,-2.691248,53.769881
1686.0100000000007,TOWN HALL SURGERY,-2.092973,53.478374
2099.68,LILFORD PARK SURGERY,-2.511455,53.503236
861.09,PEEL PRECINCT SURGERY,-0.198814,51.534421
2647.5199999999995,CATHEDRAL MEDICAL CENTRE,0.275488,52.413145
72.33,NDUC NEWCASTLE GATESHEAD OOH,-1.58819,55.01931999999999
68.5,ANTICOAG SERV YARDLEY WOOD,-1.859168,52.418648
183.34,MARSDEN INTERMEDIATE CARE,-1.696689,53.676075
68.3,EXTENDED ACCESS PRIMARY CARE HUB,-0.079465,51.533775
41.7,LCW WLCCG OOH,-0.217218,51.522362
664.91,MALLING HEALTH AT STOKE ALDERMOOR,-1.479565,52.402142
44.1,THGPCG SERVICE OOH,-0.004927,51.514483
1808.1,DENMARK ROAD SURGERY,-0.06725100000000002,51.393136
34.86,VC WEST LANCS HC-UCC,-2.871252,53.564616
11.17,HOME VISITING SERVICE,-2.165957,53.412542
4114.85,MEIR PARK & WESTON COYNEY MEDICAL PRACT,-2.094889,52.966305
1507.4799999999998,HAMSTEAD ROAD SURGERY,-1.919012,52.504474
1952.61,OAKWOOD SURGERY,-1.858645,52.444556
332.06,SURGERY AUBERY ROAD,-1.846411,52.46633
1945.5200000000007,MOXLEY MEDICAL CENTRE,-2.051113,52.560033
7752.78,NORTH PARK HEALTH CENTRE,-2.995994,53.458392
1497.5,MEDICARE UNIT SURGERY,-2.69241,53.725239
3706.63,LOSTOCK MEDICAL CENTRE,-2.328128,53.45458000000001
1762.6099999999994,THE GROVE MEDICAL PRACTICE,-0.362401,51.55534
1065.9,THE GAMSTON MEDICAL CTR.,-1.100495,52.924252
2248.02,LANGLEY MEDICAL PRACTICE,-0.299929,51.390825
1.5,TELFORD OOH,-2.732712,52.740396
1140.1699999999996,THE DURU PRACTICE,-2.116945,53.543824
233.71,ERDINGTON GP HEALTH & WELLBEING WIC,-1.840871,52.522486
8.25,CRISIS RESPONSE TEAM,-2.186902,53.52264
22.5,CENTRAL DURHAM GP EXT'D ACCESS SERVICE,-1.56716,54.7787
1288.57,SHAP MEDICAL PRACTICE,-2.677931,54.52889
16354.31,AUCKLAND MEDICAL GROUP,-1.678996,54.648085
8660.660000000002,THE GLEN MEDICAL GROUP,-1.52187,54.97385
8981.259999999998,ASHBY TURN PRIMARY CARE PARTNERS,-0.6542,53.566147
19399.47,HAXBY GROUP PRACTICE,-1.081866,54.019329
1366.14,BRADFORD MOOR PRACTICE,-1.7218490000000002,53.797834
10022.47,ASH GROVE,-1.245572,53.704968
5396.11,MILLVIEW MEDICAL CENTRE,-0.30904,52.981326
2653.13,HOLLIES MEDICAL CENTRE,-1.494834,53.363179
334.17,VERITAS HEALTH CENTRE,-1.481026,53.354257
5497.01,BRETTON MEDICAL PRACTICE,-0.281891,52.590431
5772.589999999998,LONG STRATTON MEDICAL PARTNERSHIP,1.229088,52.491027
5493.100000000001,THE NEVELLS ROAD SURGERY,-0.22942,51.980882
4998.71,THE HEALTH CENTRE PRACTICE,-0.020738999999999997,52.048757
3663.54,HIGHFIELD SURGERY,-0.459233,51.766434
2080.26,BELGRAVIA SURGERY,-0.14856,51.495004
1103.74,COLLINGWOOD ROAD SURGERY,0.638271,51.802938
4443.130000000001,CHAPEL STREET SURGERY,0.051144,50.79327
3595.1900000000005,STOCK HILL SURGERY,0.031768,51.312089
1545.8599999999994,CLAREMONT MEDICAL CENTRE,-0.306132,51.390808
3170.73,WATERFRONT AND SOLENT SURGERY,-1.403379,50.870013
1121.68,GREEN PRACTICE,-0.371755,51.468263
1549.25,THE ABBOTSBURY PRACTICE,-0.397406,51.579266
7288.78,NUFFIELD HOUSE HEALTH CENTRE,0.112828,51.774439
3584.74,MARTINS OAK SURGERY,0.483675,50.91716
2569.37,THE GLEBE FAMILY PRACTICE,0.544473,51.383164
3659.1,MALLING HEALTH BLUE SUITE,0.609995,51.363412
4901.1,KNOLL MEDICAL PRACTICE,0.101068,51.375411
1368.87,CLIFTON RISE FAMILY PRACTICE,-0.03143300000000001,51.476334
1605.66,BLACKFRIARS MEDICAL PRACTICE,-0.105775,51.505364
6369.47,HASLEMERE HEALTH CENTRE,-0.707586,51.092107
3503.350000000001,FARNHAM DENE MEDICAL PRACTICE,-0.777405,51.200549
3987.8,THE DORCHESTER RD SURGERY,-2.457512,50.625193
1474.64,CRONDALL NEW SURGERY,-0.858386,51.237211
2746.62,ST.JAMES SURGERY,-1.989956,51.352926
781.63,CORDWALLIS ROAD SURGERY,-0.7240259999999998,51.528097
6214.530000000002,BOTLEY MEDICAL CENTRE,-1.299442,51.753753
2131.0,ST. MARY'S SURGERY,-2.479869,51.326082
5257.47,QUEEN'S MEDICAL CENTRE,-4.057196,51.080161
10959.54,BRUNEL MEDICAL PRACTICE,-3.516948,50.479349
2221.6399999999994,EXMOOR MEDICAL CENTRE,-3.544825,51.038507
879.51,CHADDESLEY SURGERY,-2.158038,52.361961
6827.46,THE MANOR PRACTICE,-1.8236169999999998,52.55816
1009.35,CHARLES ROAD SURGERY,-1.850621,52.4722
3079.88,DUNCAN STREET PRIMARY CARE PARTNERSHIP,-2.126602,52.57346999999999
6223.940000000001,DR JUDE'S PRACTICE - RIVERSIDE,-2.943016,53.398876
2568.57,WESTOVER SURGERY,-5.07501,50.148927
548.8599999999999,LANGTHORNE SHARMA FAMILY PRACTICE,0.0021,51.555415
275.84,THE MANOR PARK PRACTICE,0.057339,51.55393
4049.56,WEST MEADS SURGERY,-0.701481,50.788299
2066.0200000000004,TRENTHAM MEWS MEDICAL CENTRE,-2.189898,52.970452
767.9800000000001,WILLESDEN GREEN SURGERY,-0.216091,51.553773
555.5600000000001,THE SUMMITT PRACTICE,0.04536,51.539588
144.62,SELDOC HEALTHCARE,-0.283378,51.412517
9.0,PARKFIELD (H) MINOR EMERGENCY,-3.00005,53.363076
28.8,PBORO WEEKEND HOURS GP PILOT,-0.279386,52.583921
38.86,WIDNES GP EXTRA SERVICE,-2.735705,53.362158
4374.669999999999,DR THORNILEY-WALKER & PARTNERS,-1.460703,54.949762
563.87,DR U AKBAR,-1.777945,53.803569
7293.179999999998,BROOKROYD HOUSE,-1.67818,53.707224
3112.21,AIREBOROUGH FAMILY PRACTICE,-1.684881,53.866663
5432.46,BUSHLOE SURGERY,-1.116921,52.583283
5903.490000000002,THE BURBAGE SURGERY,-1.361645,52.53009599999999
1234.31,PASLEY ROAD HEALTH CENTRE (TK KHONG),-1.146741,52.591287
6342.950000000003,NETTLEHAM MEDICAL PRACTICE,-0.476253,53.262865
1503.0,HAROLD STREET MEDICAL CENTRE,-1.492871,53.393121
462.24,UNIVERSITY HEALTH SERVICE HEALTH CENTRE,-1.482709,53.380323
3172.88,LEISTON SURGERY,1.575953,52.207708
1301.06,HEATHFIELDE MEDICAL CENTRE,-0.179797,51.585238
2394.8100000000004,BRENTFIELD MEDICAL CENTRE,-0.260251,51.550588
1893.9500000000005,DR NAVIN KUMAR,0.70187,51.544989
1267.56,RUSTON STREET CLINIC,-0.027306,51.536264
2097.75,SCHOOL HILL MEDICAL PRACTICE,0.012064,50.873469
6852.720000000001,MOTE,0.545625,51.246876
5528.640000000001,SHEPPERTON MEDICAL PRACTICE,-0.453153,51.396402
5166.710000000001,GRAYSHOTT SURGERY,-0.745626,51.110093
5496.89,THE MANOR PRACTICE,-0.234983,50.835138
2799.41,HAMPTON HILL MEDICAL CENTRE,-0.354892,51.427508
912.12,CLAPHAM JUNCTION MEDICAL PRACTICE,-0.173908,51.465969
1410.5599999999995,OLD SCHOOL HOUSE SURGERY,-1.604408,51.376032
5447.3600000000015,WINSCOMBE SURGERY,-2.830537,51.315196
12664.479999999998,PEMBROKE MEDICAL GROUP,-3.560246,50.445527
8.559999999999999,ST PETER'S URGENT TREATMENT CENTRE,-0.52706,51.377832
1678.49,PRIORY ROAD SURGERY,0.589253,50.860828
7771.540000000003,SWANSCOMBE HEALTH CENTRE,0.28731,51.424657
2094.649999999999,ELTHAM PARK SURGERY,0.061023,51.4547
3272.9700000000007,JAMES O'RIORDAN MEDICAL CENTRE,-0.212686,51.385157
8638.03,WISTARIA & MILFORD SURGERIES,-1.547285,50.760041
819.0399999999998,27 BEAUMONT STREET,-1.26216,51.755081
2013.95,WIDCOMBE SURGERY,-2.354321,51.376371
7410.789999999997,ST LUKES MEDICAL CENTRE,-3.517636,50.394313
2315.23,FRITHWOOD SURGERY,-2.162379,51.729707
5099.54,HILLVIEW MEDICAL CENTRE,-1.951153,52.305568
4007.66,GORDON STREET SURGERY,-1.644613,52.810998
2819.29,LONGTON MEDICAL CENTRE,-2.770123,53.417492
2991.59,PRIMROSE SURGERY,-2.357311,53.456159
5733.169999999999,DR AHMAD & PTNRS,-2.595925,53.522279
872.0499999999998,THE OLD DAIRY HEALTH CENTRE,-0.091201,51.436586
4999.58,THE ISLAND SURGERY,0.591014,51.520226
2086.600000000001,JS MEDICAL PRACTICE,-0.078706,51.589103
5894.169999999999,GATEWAY PRIMARY CARE,-1.352431,53.429997
27.5,BRADFORD DERMATOLOGY SERVICE,-1.781103,53.830481
1300.7,ESSINGTON MEDICAL CENTRE,-2.056915,52.63194
1024.3,SUMMERFIELD GP SURG & URGENT CARE CENTRE,-1.937353,52.487686
10.64,HAVERING CCG,0.179796,51.579247
1227.5,THE WILLASTON SURGERY,-3.011643,53.292908
106.6,SOUTH KENT GROUP,1.118942,51.075872
201.3,SUTTON COMMUNITY SERVICES,-0.183642,51.380313
37.87,WHITTINGTON HEALTH (ISLINGTON),-0.139066,51.566482
149.82999999999996,URGENT CARE CENTRE NORTHWICK PARK HOSP,-0.322037,51.575407
3220.8699999999994,STONELEIGH SURGERY,-2.770704,54.227277
2312.04,BROWNEY HOUSE SURGERY,-1.670679,54.800313
5237.9000000000015,TOWNHEAD SURGERY,-2.276903,54.070534
867.6,HORNE STREET SURGERY,-1.871717,53.725678
3357.6999999999994,HONLEY SURGERY,-1.791936,53.602386
3765.14,GOSBERTON MEDICAL CENTRE,-0.159263,52.869915
4358.080000000001,THE MANOR SURGERY,-1.216371,52.925036
4007.820000000001,PROSPECT MEDICAL PRACTICE,1.285656,52.643921
3207.58,THE GARDEN CITY PRACTICE,-0.209287,51.797151
2371.2500000000005,MAPESBURY MEDICAL GROUP,-0.209473,51.551496
3951.3,RIVERMEAD GATE MED.CTR.,0.472887,51.740849
2417.14,ROMAN WAY MEDICAL CENTRE,-0.10550599999999999,51.544561
660.86,CHOLMLEY GARDENS SURGERY,-0.195423,51.552261
3453.120000000001,ESSEX LODGE,0.026685000000000004,51.527915
2338.380000000001,GROVELANDS MEDICAL CENTRE,-0.112028,51.620685
11578.160000000005,HIGH GLADES MEDICAL CENTRE,0.551301,50.878354
4537.52,ST JAMES' SURGERY,1.315702,51.128516
1076.67,OXSHOTT MEDICAL PRACTICE,-0.360843,51.333099
3303.89,BRIDGE MEDICAL CENTRE,-0.166439,51.117364
2876.0,LAVENDER HILL GROUP PRACTICE,-0.15683,51.466044
3943.52,THE CRANBORNE PRACTICE,-1.9192779999999998,50.919773
7031.569999999999,ST.MARY'S SURGERY,-1.397475,50.905746
1856.3000000000006,NEW FOREST MEDICAL GROUP,-1.576665,50.81471
4000.28,SWALLOWFIELD MEDICAL PRACTICE,-0.958531,51.378289
4038.99,CHERRYMEAD SURGERY,-0.700228,51.608271
6883.340000000001,HORFIELD HC,-2.576275,51.489998
2018.24,CARNON DOWNS SURGERY,-5.091905,50.22345
1772.5099999999998,WHITE HOUSE SURGERY,-1.705957,51.983554
4258.56,SPRINGMEAD SURGERY  CHARD,-2.967972,50.869562
2207.07,CHURCH STRETTON MEDICAL CENTRE,-2.806169,52.537286
2999.92,DR KS UPTON'S PRACTICE,-1.986582,52.988358
6767.519999999999,KINGSWAY MEDICAL CENTRE,-1.289009,54.606459
4360.309999999999,WARWICK ROAD SURGERY,-2.928541,54.893858
4342.740000000002,PRUDHOE MEDICAL GROUP,-1.853822,54.96186
13129.870000000004,TALBOT MEDICAL CENTRE,-1.440661,54.973054
2904.36,NOVA SCOTIA MEDICAL CNTR,-1.373051,53.747561
3193.7500000000014,ARTHUR MEDICAL CENTRE,-1.422636,53.001503
4633.89,WOODVILLE SURGERY,-1.5365030000000002,52.770685
3786.4600000000014,NEWBOLD VERDON MED.PRACT.,-1.34334,52.634612
4821.240000000002,PORTLAND MEDICAL PRACTICE,-0.539074,53.22371999999999
6182.71,TORKARD HILL MEDICAL CTRE,-1.207389,53.029901
1614.67,BAKERSFIELD MEDICAL CENTRE,-1.104957,52.960219
4545.120000000001,HIGH STREET PRACTICE,-1.458313,53.597926
6253.9699999999975,VILLAGE SURGERY,-1.251934,53.39421
1104.0200000000002,ALLENBY CLINIC,-0.376261,51.531514
10419.890000000003,DR PUZEY DR KOTHARI AND DR NANDA,0.705992,51.582107
2846.9,DR BAKER & PARTNERS,0.548167,51.570733
1820.0,INGREBOURNE MEDICAL CENTRE,0.210579,51.600308
2595.330000000001,THE ORDNANCE UNITY CENTRE FOR HEALTH,-0.039073,51.672653
951.48,CROUCH HALL ROAD SURGERY,-0.127301,51.579178
6517.419999999997,CENTRAL SURGERY,-0.299929,51.390825
3973.010000000001,ST PAUL'S SURGERY,-1.32139,51.065963
2960.13,SHEET STREET SURGERY,-0.605507,51.479648
7563.629999999997,HEDENA HEALTH,-1.204547,51.76203
1708.7600000000002,BLOXHAM SURGERY,-1.372977,52.018108
3785.2,KINGTON MEDICAL PRACTICE,-3.022556,52.199361
7135.890000000001,SEVERN FIELDS MEDICAL PRACTICE,-2.721619,52.728047
1758.7000000000005,SELLY OAK HEALTH CENTRE,-1.939144,52.438251
6956.59,PEELHOUSE MEDICAL PLAZA,-2.72256,53.372135
6283.870000000001,CUMBERLAND HOUSE SURGERY,-2.990437,53.638743
4704.25,LANE ENDS SURGERY,-2.727014,53.770173
1454.4199999999996,HOLLINS GROVE SURGERY,-2.477472,53.705346
2862.450000000001,WHITTAKER LANE MED CENTRE,-2.268645,53.528488
5855.549999999998,WEST GORTON MEDICAL PRACTICE,-2.203859,53.46720500000001
1610.3100000000004,OLDHAM FAMILY PRACTICE,-2.116945,53.543824
803.41,SHAY LANE MEDICAL CENTRE (PATEL),-2.31556,53.372189
13.05,AT HOME SERVICE,-0.10603,51.438104
135.21,NMP CASTLE POINT AND ROCHFORD CCG,0.702782,51.583955
17.71,MFT CHILDRENS COMMUNITY SERVICES,-2.25528,53.390625
106.02,NON MEDICAL PRESCRIBERS,-0.8019889999999998,51.797983
7.2,WYRE FOREST ADMISSION PREVENTION TEAM,-2.261161,52.386056
158.87,GP HUBS - GP HEALTH PARTNERS LTD,-0.266331,51.334184
7.8,NORTH COTSWOLDS IMPROVED ACCESS,-2.239997,51.862659
10827.5,BIRTLEY MEDICAL GROUP,-1.576441,54.891881
4087.95,THE LEEDS ROAD PRACTICE,-1.535156,53.980466
3705.88,APOLLO COURT MEDICAL CENTRE,-1.524816,53.542364
7140.43,THE LAKESIDE PRACTICE,-1.148909,53.61549599999999
4439.420000000001,FOXHILL MEDICAL CENTRE,-1.501327,53.429911
2996.91,WESTWOOD CLINIC,-0.269054,52.591395
3267.65,THEOBALD MEDICAL CENTRE,-0.285584,51.661381
1830.19,SUDBURY & ALPERTON MEDICAL CENTRE,-0.298046,51.536916
204.02,THE SURGERY,-0.184519,51.497627
5143.77,CHURCHILL MEDICAL CENTRE,-0.018466,51.618226
5597.24,THE CHESTERFIELD DRIVE PRACTICE,1.132012,52.07623
4717.26,COMBS FORD SURGERY,0.995999,52.180181
1927.9600000000007,CAULDWELL MEDICAL CENTRE,-0.472495,52.128265
2695.480000000001,PRIORY MEDICAL CENTRE,-0.50567,52.167181
2772.21,HILLVIEW SURGERY,-0.318331,51.540536
1426.83,DR HAFFIZ,-0.119262,51.539321
1074.77,SANDRINGHAM PRACTICE,-0.067207,51.547773
81.31999999999998,ESK ROAD MEDICAL CENTRE,0.024266,51.522454
1286.17,MONTPELIER SURGERY,-0.149079,50.827148
5341.6500000000015,THE AVENUE SURGERY,-0.113425,50.844357
11258.679999999997,REACH HEALTHCARE,0.52408,51.337756
2309.51,SELLINDGE SURGERY,1.002785,51.103536
5751.839999999998,LAKESIDE MEDICAL,0.122454,51.496518
3945.14,CAMBERLEY HEALTH CENTRE,-0.754069,51.324435
6508.109999999999,HARBOUR VIEW HEALTHCARE,-0.27437,50.833817
3939.219999999999,NEW POND ROW SURGERY,-0.322292,50.824911
1238.8000000000004,FLOOD (ESSEX HOUSE),-0.247469,51.472541
5851.219999999998,WILSON PRACTICE,-0.966958,51.153736
3177.9100000000008,WOLLASTON AND BOZEAT SURGERIES,-0.674311,52.252471
3543.15,LEAP VALLEY MEDICAL CENTRE,-2.487852,51.496541
6115.11,KINGSTEIGNTON MEDICAL PRACTICE,-3.597395,50.54898
5864.199999999999,ST.LEVAN SURGERY,-4.177328,50.383921
8450.660000000002,STIRCHLEY MEDICAL PRACTICE,-2.433777,52.655188
3683.88,LUDLOW - PORTCULLIS,-2.715958,52.368905
4113.700000000002,BARTON,-1.725223,52.761751
2976.66,RED LION SURGERY,-2.030614,52.693241
354.61,DADHANIA SURGERY,-1.491047,52.405815
1316.84,ST JAMES MEDICAL PRACTICE1,-2.097323,52.514234
847.3099999999998,HAWTHORNS MEDICAL CENTRE,-1.967268,52.501507
2314.81,BROWNLOW AT MARYBONE,-2.987806,53.411269
2727.21,MORETON MEDICAL CENTRE,-3.110005,53.39886
2455.01,LITTLE LEVER HEALTH CENTRE 1,-2.370624,53.55981800000001
2021.7900000000006,WOODBANK SURGERY,-2.308802,53.60507
6170.679999999998,DRS HANIF &  BANNURU,-2.184157,53.484308
898.52,4/LOWER BROUGHTON MEDICAL PRACTICE,-2.258808,53.49359
10022.509999999998,BRINNINGTON SURGERY,-2.132367,53.427651
3694.56,CONWAY ROAD MEDICAL PRACTICE,-2.303561,53.417873
1676.3299999999995,DESFORD MEDICAL CENTRE,-1.296116,52.627473
1394.21,DR VIJE'S SURGERY,-1.650877,52.617569
411.56,HIGHFIELD HEALTH,-1.395746,50.932777
342.54,DR R SHARMA'S PRACTICE,-0.096482,51.499125
976.0100000000001,HALF PENNY STEPS HEALTH CENTRE,-0.206044,51.526213
12864.070000000003,NORTON MEDICAL CENTRE,-1.308737,54.588737
23282.68,CARLISLE HEALTHCARE,-2.930647,54.893714
1297.3599999999994,PEEL PARK SURGERY,-1.731903,53.806791
4891.1500000000015,MAYBUSH MEDICAL CENTRE,-1.489249,53.670273
3765.44,THE GOLDEN BROOK PRACTICE,-1.272531,52.901553
5600.000000000001,IBSTOCK HOUSE SURGERY,-1.401818,52.684869
4521.730000000001,RUSKINGTON SURGERY,-0.400977,53.048226
5946.940000000002,BARNBY GATE SURGERY,-0.8049699999999999,53.074931
6027.999999999999,DUKE MEDICAL CENTRE,-1.455657,53.378576
435.64,FALKLAND HOUSE SURGERY,-1.514423,53.359728
5948.240000000002,PRIORY FIELDS SURGERY,-0.179856,52.332272
1720.8099999999995,BOURN SURGERY,-0.063404,52.193155
3804.48,COACHMANS MEDICAL PRACTICE,-0.203875,51.096335
2661.05,MILTON KEYNES VILLAGE SURG,-0.697865,52.043891
2104.84,DRS DE ROSA & WILLIAMS,-2.167857,52.569265
1.5,COMMUNITY PAEDIATRICIANS-SOUTHWARK,-0.081097,51.474092
60.6,INTERMEDIATE CARE-GP SERVICE,-2.130253,53.548188
355.36,BASSETLAW HEALTH PARTNERSHIP,-0.950634,53.325451
9806.759999999997,FIELDHOUSE MEDICAL GROUP,-0.112579,53.564436
4254.530000000002,HEREWARD MEDICAL CENTRE,-0.380913,52.768626
3756.75,SAXON CROSS SURGERY,-1.273642,52.931099
7830.579999999999,PENISTONE GROUP PMS PRACTICE,-1.630732,53.523565
4367.13,THE NAYAR PRACTICE,-1.1933790000000002,53.480824
4213.600000000001,DR RAOLU'S PRACTICE,-1.204348,53.423549
9321.2,THE PARK SURGERY,1.7292759999999998,52.606218
852.8299999999998,EAST BARNET HEALTH CENTRE,-0.166424,51.646339
1160.44,LANFRANC MEDICAL CENTRE,-0.332746,51.561586
762.8099999999998,THE TUDOR HOUSE MEDICAL CENTRE,-0.266689,51.564495
4819.16,LABURNUM HEALTH CENTRE,0.151208,51.560662
969.95,NEW NORTH HEALTH CENTRE,-0.091592,51.537534
4489.6,HOVE MEDICAL CENTRE,-0.19539,50.845024
3221.87,PRIMECARE PMS (SOUTH STREET),-0.012448,51.476194
2030.33,THE GARDENS SURGERY,-0.066803,51.46061
3578.4099999999994,FORT HOUSE SURGERY,-0.412578,51.37881
6283.050000000001,OXTED HEALTH CENTRE,9.9e-05,51.257686
5672.880000000001,THE WRYTHE GREEN SURGERY,-0.171312,51.371749
3213.4300000000007,THE LAWN MEDICAL CENTRE,-1.7619029999999998,51.547821
3270.17,NORDEN HOUSE SURGERY,-0.882727,51.944924
752.23,ST MARY'S HEALTH CENTRE,-6.308668,49.911605
4040.5,TOPSHAM SURGERY,-3.462097,50.683825
3745.45,BAMPTON SURGERY,-1.55034,51.729032
5183.130000000001,WOODLANDS MEDICAL CENTRE,-1.258898,51.603637
10297.029999999997,PETROC GROUP PRACTICE,-4.943163,50.430739
4821.130000000001,TAVYSIDE HEALTH CENTRE,-4.145976,50.545824
7215.74,EAST QUAY MEDICAL CENTRE,-3.000471,51.135669
1613.15,BREDON HILL SURGERY,-2.104857,52.030166
2361.81,HAGLEY SURGERY,-2.144103,52.420783
1392.05,KNOCKIN MEDICAL CENTRE,-2.993042,52.79343
524.5500000000001,YARDLEY MEDICAL CENTRE,-1.828397,52.463189
1666.57,PHOENIX FAMILY CARE,-1.51543,52.390005
14763.17,ASHTON MEDICAL GROUP,-2.089184,53.489361
5758.379999999999,BRADSHAW MEDICAL CENTRE,-2.688594,53.537889
551.32,SAVILE TOWN MEDICAL CTR.,-1.625804,53.68222900000001
82.87999999999998,LIMEFIELD ROAD MEDICAL PRACTICE,-2.26047,53.506995
4161.940000000001,THE ORCHARD SURGERY,-0.324352,50.828062
330.68,THE MATTHEWMAN PRACTICE,-0.149281,51.545823
29.0,RICHARDSON COMMUNITY HOSPITAL,-1.9161529999999998,54.545708
1613.5699999999995,LAKESIDE SURGERY,-1.310932,53.52812
831.7799999999999,THE DANBY PRACTICE,-0.907874,54.468317
1766.67,VALLEY VIEW SURGERY,-1.731903,53.806791
3339.59,THE NORTH LEEDS MEDICAL PRACTICE,-1.534037,53.843332
4643.64,IVY GROVE SURGERY,-1.402822,53.042198
2748.78,FRIAR GATE SURGERY,-1.485624,52.924816
4345.06,NAVENBY CLIFF VILLAGES SURGERY,-0.526297,53.103518
2650.95,THE LINDEN MEDICAL GROUP,-1.273642,52.931099
6334.76,ASKERN MEDICAL PRACTICE,-1.148909,53.61549599999999
3089.83,BUTE HOUSE MEDICAL CENTRE,-0.423966,51.880162
1035.61,LICHFIELD GROVE SURGERY,-0.19329,51.599604
1163.9400000000005,GURU NANAK MEDICAL CENTRE,-0.387151,51.511774
67.0,WESTMINSTER SCHOOL,-0.128107,51.498762
984.7199999999997,SOUTH GREEN SURGERY,0.430504,51.613411
888.2199999999998,RICHMOND ROAD MEDICAL CENTRE,-0.065532,51.543051
4479.870000000001,THE LAWSON PRACTICE,-0.079465,51.533775
3298.5200000000004,LEYTON HEALTHCARE 4TH FLOOR,-0.013313,51.559894
683.2000000000002,FRANCIS ROAD MEDICAL CENTRE,-0.003831,51.561975
5873.94,OLD SCHOOL SURGERY,0.100722,50.772062
400.13000000000005,UNIVERSITY MEDICAL CENTRE,1.062127,51.296198
2369.43,ST STEPHENS HOUSE SURGERY,-0.305726,51.31772
1238.54,PARK VIEW HEALTH PARTNERSHIP,-0.137252,50.961825
3989.409999999999,LAMBTON ROAD MEDICAL PRACTICE,-0.231169,51.411219
8603.639999999998,LORDSHILL HEALTH CENTRE,-1.448733,50.940999
2022.76,BYFIELD MEDICAL CENTRE,-1.242893,52.174071
3170.25,CAMBRIDGE HOUSE,-2.144827,53.024433
4554.52,ARBURY MEDICAL CENTRE,-1.497961,52.51662
3310.24,CHURCH LANE - KHAN,-1.793962,52.487056
1534.91,SOHO ROAD PRIMARY CARE CENTRE,-1.934945,52.503094
815.9699999999998,PARK HOUSE SURGERY,-1.942965,52.54446
2047.93,BEECHDALE CENTRE,-2.007339,52.600867
5321.64,HOLES LANE MEDICAL CENTRE,-2.545107,53.399828
3778.279999999999,LACHE HEALTH CENTRE,-2.914326,53.173615
6765.620000000003,DINGLE PARK PRACTICE,-2.972885,53.38633
11901.79,RAINBOW MEDICAL CENTRE,-2.705931,53.435389
1534.0699999999995,BEECHWOOD SURGERY,-3.009057,53.871568
7208.549999999997,HEYWOOD HEALTH,-2.239335,53.58736999999999
4022.13,THE GILL MEDICAL PRACTICE,-2.398384,53.524288
3348.69,GLOUCESTER HOUSE MEDICAL CENTRE,-2.352599,53.447337
223.74,PAK HEALTH CENTRE,-1.856091,52.490749
729.5499999999998,WALFORD STREET  TIVIDALE,-2.059752,52.513192
5493.07,LITTLE LONDON SURGERY,-1.979284,52.574984
1300.15,STRETTON MEDICAL CENTRE,-2.577017,53.339489
734.2099999999998,THE DALE MEDICAL PRACTICE,-2.154239,53.611617
629.9799999999998,WALNUT ST MED CTR (LEICESTER MED GROUP),-1.138855,52.624601
1337.4200000000005,FIR TREE,-2.878691,53.44930600000001
382.64,CAMBRIDGE ACCESS SURGERY,0.138701,52.20875
40.5,NELPCT OUT OF HOURS SERVICE,-0.096229,53.544858
1775.2900000000004,ETTINGSHALL MEDICAL CENTRE,-2.092879,52.570364
66.5,WALK IN CENTRE (WIC),-1.784934,51.563016
32.260000000000005,HP NMP'S NN & E CCG,-1.143101,53.130244
1540.14,RUSHEY MEAD HEALTH CENTRE,-1.103823,52.663187
2392.68,ST ANN'S ROAD SURGERY,-0.08783399999999998,51.581428
5673.22,LEIGH FAMILY PRACTICE,-2.511927,53.493519
886.6,THE PRACTICE FELTHAM,-0.411086,51.446367
1423.69,HENDON WAY SURGERY,-0.241873,51.579182
51.04,NHS FYLDE & WYRE CCG,-2.881037,53.789498
267.53,SPECIALIST NURSE,-1.517573,53.993807
55.85,TAURUS HEALTHCARE LTD,-2.71099,52.05708
95.7,NC GPA PLUS,-1.152649,52.954624
6.3,THE FLOWERS HUB,-1.438061,53.418053
1644.21,CARTMEL SURGERY,-2.946985,54.199165
10305.089999999998,ALNWICK MEDICAL GROUP,-1.6967470000000002,55.410086
4911.7,NETHERFIELD HOUSE,-1.548435,55.063632
9257.15,PRACTICE 3  MEDICAL CENTRE  BRIDLINGTON,-0.201064,54.084715
3294.71,THE ALMONDBURY SURGERY,-1.751311,53.631868
2942.19,NEWLAND SURGERY,-1.424247,53.695146
26914.44,BEACON MEDICAL PRACTICE,0.331219,53.157472
1031.7799999999997,GREENFIELDS MEDICAL CENTRE (YVS RAO),-1.168583,52.966506
4030.15,TREETON MEDICAL CENTRE,-1.354708,53.384994
4800.75,MEADOWGREEN HEALTH CENTRE,-1.480804,53.326831
10578.260000000002,BOROUGHBURY MEDICAL CENTRE,-0.245486,52.577858
6751.730000000002,THE ROOKERY MEDICAL CENTRE,0.405573,52.245158
24.24,COMMUNITY MATRONS,-2.095555,52.599722
37.36,IC24-THANET CCG OOH,0.891514,51.129106
4.5,MID CLUSTER IAGPS,-1.9731169999999998,50.721987
1.5,AMBER VALLEY HEALTH,-1.3726,53.082351
13.5,SJUH GPS IN A+E,-1.520359,53.806869
9346.160000000002,CRUDDAS PARK SURGERY,-1.630965,54.968173
1462.2800000000002,THE CHESTNUTS & HALLGATE SURGERY,-0.403621,53.778985
3016.14,HAWORTH MEDICAL PRACTICE,-1.954883,53.831322
4353.910000000002,FIELDHEAD SURGERY,-1.854229,53.641358
6806.869999999999,CROFTON AND SHARLSTON MED PRAC,-1.427042,53.656573
12147.239999999998,SHIRES HEALTHCARE,-1.215692,53.202513
2938.8,ORCHARD SURGERY,-1.278154,52.836522
3057.48,ST GEORGES MED PRACTICE,-1.132346,52.930754
881.84,WELBECK SURGERY,-1.147823,52.979645
3516.13,WICKHAM MARKET MEDICAL CENTRE,1.363674,52.151842
2956.53,TODDINGTON MEDICAL CENTRE,-0.530482,51.945856
1560.09,THE RANDOLPH SURGERY,-0.186852,51.529819
2516.61,DR YADAVA N PRACTICE,0.334586,51.476703
2813.7499999999995,ST.PAUL'S WAY MEDICAL CTR,-0.024483,51.517862
6868.03,THORNHILLS MEDICAL PRACTICE,0.440958,51.300117
5513.56,OAKLANDS HEALTH CENTRE,1.08253,51.069106
1623.9999999999993,HEXTABLE SURGERY,0.182972,51.409182
3878.900000000001,LONGCROFT CLINIC,-0.192332,51.325314
2981.49,THE ROEHAMPTON SURGERY,-0.242431,51.451154
9394.56,WYKE REGIS & LANEHOUSE MEDICAL PRACTICE,-2.475127,50.594634
1812.91,WHITCHURCH SURGERY,-0.8426209999999998,51.882174
1854.93,CRICK MEDICAL PRACTICE,-1.135861,52.343212
7701.599999999998,KINGSWOOD HEALTH CENTRE,-2.499974,51.462895
3041.9,THE VILLAGE SURGERY,-2.219972,53.033945
6374.370000000003,BIDDULPH VALLEY SURGERY,-2.178498,53.116111
1132.7400000000002,RIVERSIDE SURGERY,-1.699518,52.632337
6204.02,THREE VILLAGES MEDICAL PRACTICE,-2.146398,52.465406
2980.88,STONE CROSS MEDICAL CENTRE,-1.982689,52.545444
3406.6800000000007,STOCKTON HEATH MED.CENTRE,-2.582161,53.37195
4368.33,THE VILLAGE SURGERIES GROUP,-2.771265,53.124246
5245.890000000001,ILEX VIEW MEDICAL PRACTICE,-2.280663,53.70081
2517.27,SHIFA SURGERY,-2.475999,53.757295
4544.839999999998,CHORLTON FAMILY PRACTICE,-2.279717,53.443773
3930.7,OLDHAM MEDICAL SERVICES,-2.111235,53.52535699999999
2695.1500000000005,MELROSE SURGERY,-0.9598620000000002,51.451692
136.52999999999997,DR R KAPUR & PARTNERS,-1.119092,52.631036
3577.050000000001,LEADGATE SURGERY,-1.805988,54.860562
4894.710000000001,ACLE MEDICAL PARTNERSHIP,1.548667,52.640969
1849.73,PEEL CROFT,-1.6339549999999998,52.799271
6369.31,MARTONSIDE MEDICAL CENTRE,-1.220329,54.553175
2170.85,ROCKLIFFE COURT SURGERY,-1.544074,54.483444
9030.51,BEDLINGTONSHIRE MED.GROUP,-1.598682,55.1322
1416.08,WESTBOURNE SURGERY,-1.8061,53.650937
4856.28,MIDDLESTOWN,-1.600562,53.650545
2753.100000000001,DR WEBB AND PARTNERS,-1.308041,52.968251
4753.419999999998,GOYT VALLEY MEDICAL PRACTICE,-1.983113,53.3305
1752.0800000000006,CASTLE STREET MEDICAL CENTRE,-1.293753,53.229627
1495.44,SILVERDALE MEDICAL CENTRE,-1.090548,52.672318
8500.759999999998,HOLT MEDICAL PRACTICE,1.116042,52.914476
4590.329999999999,HOWARD HOUSE SURGERY,1.349626,51.96149
4363.200000000002,PARKBURY HOUSE SURGERY,-0.334063,51.756766
1307.4999999999998,UXENDON CRESCENT SURGERY,-0.292809,51.572063
981.1,STERNDALE SURGERY,-0.221441,51.498326
1918.25,AEGIS MEDICAL CENTRE,0.467525,51.57556
2686.08,AMWELL GROUP PRACTICE,-0.11081700000000001,51.528043
2975.34,MEOPHAM MEDICAL CENTRE,0.359744,51.368901
3444.48,WESTERHAM PRACTICE,0.070437,51.266465
2406.28,FORGE CLOSE SURGERY,0.016555,51.377137
4785.59,STEYNING HEALTH CENTRE,-0.329972,50.890666
4061.47,LAVANT ROAD SURGERY,-0.781051,50.853385
1519.73,THORNTON & VALLEY PARK SURGERY,-0.120709,51.388871
2116.7200000000007,JOHNSON (SHEEN LANE),-0.267239,51.465848
624.39,BEGG PRACTICE,-0.179391,51.459968
2985.2799999999993,MOORDOWN MEDICAL CENTRE,-1.874485,50.756212
1221.23,LITTLEDOWN SURGERY,-1.833439,50.741638
3532.4,EMMER GREEN SURGERY,-0.972861,51.483584
6098.51,WOLVERTON HEALTH CENTRE,-0.814934,52.054197
9628.820000000003,ST THOMAS MEDICAL GROUP,-3.54518,50.714472
2147.96,YOXALL,-1.7931740000000003,52.767984
878.7,GREET MEDICAL PRACTICE,-1.857778,52.453195
3593.28,PEDMORE MEDICAL PRACTICE,-2.118211,52.457029
10465.64,BOSWORTH MEDICAL CENTRE,-1.7536330000000002,52.480569
9569.44,THE PARK MEDICAL PRACTICE,-2.739045,53.77018
1253.37,CROSSWAYS PRACTICE,-3.023992,53.484655
854.63,THE OLD DISPENSARY,-1.987226,50.803427
1041.2499999999998,STROUD GREEN MEDICAL CENTRE,-0.114328,51.570059
58.86,CBS OOH,-1.233579,53.134573
16.5,EASTBOURNE  HAILSHAM & SEAFORD OOH,0.891514,51.129106
35.52,INTERMEDIATE CARE (THE PEELE),-2.259671,53.385779
7.5,LCW HOUNSLOW CCG OOH,-0.217218,51.522362
7478.17,WEST SOMERSET HEALTHCARE,-3.3186760000000004,51.161419
5373.109999999999,WEM AND PREES MEDICAL PRACTICE,-2.722566,52.859338
2129.64,ALL SAINTS SURGERY,-1.644121,52.794285
6245.43,CENTRAL SURGERY,-1.265473,52.371743
5552.520000000001,OMNIA PRACTICE,-1.839082,52.475709
2382.79,SCHOOLACRE ROAD SURGERY,-1.785797,52.497659
2280.84,DORRIDGE SURGERY,-1.752074,52.372757
5229.33,MORETON CROSS GROUP PRACTICE,-3.111975,53.403551
5359.350000000001,WITTON MEDICAL CENTRE,-2.507553,53.740232
635.29,WALMERSLEY ROAD MEDICAL PRACTICE,-2.289525,53.599849
5054.690000000001,WEST COMMON LANE TEACHING PRACTICE,-0.682441,53.57473100000001
756.39,QUEENS ROAD SURGERY,-1.474524,52.522119
1564.33,BEVAN HEALTHCARE CIC,-1.753352,53.795581
5085.52,RIVERSIDE MEDICAL PRACTICE,-1.315584,54.56887
68.7,MEDICUS HEALTH PARTNERS-ENFIELD ISLAND,-0.016992,51.668586
378.09,MERSEYCARE NHS TRUST,-2.826417,53.424035
5328.58,RISING BROOK,-2.118782,52.787133
1159.3,BLOOMSBURY SURGERY,-1.871892,52.49324300000001
2542.9700000000007,ST JAMES MEDICAL PRACTICE2,-2.097323,52.514234
1072.3,KHAN MEDICAL PRACTICE,-2.000799,52.613174
2383.58,LINGHOLME HEALTH CENTRE,-2.744752,53.457769
9036.710000000003,PEEL HOUSE MEDICAL PRACTICE,-2.365995,53.75089200000001
2825.2,ASHURST PRIMARY CARE,-2.772723,53.563208
8182.000000000003,RED BANK GROUP PRACTICE,-2.323706,53.560143
2203.07,MARPLE BRIDGE SURGERY,-2.053323,53.400594
6072.040000000001,GRASMERE SURGERY,-2.511455,53.503236
4335.920000000001,GRAVESEND MEDICAL CENTRE,0.369986,51.443932
8648.729999999998,PEASE WAY MEDICAL CENTRE,-1.576495,54.618581
2708.76,ELSDON AVENUE SURGERY,-1.525885,55.07062
1730.56,DR WICKREMESINGHE SSG,-0.123521,51.469491
22102.84,TELDOC,-2.435206,52.672614
110.23,HAROLD WOOD WIC,0.225699,51.593184
2214.0,CROSLAND MOOR SURGERY,-1.809637,53.63841
1.5,SW INTEGRATED TEAM WORCESTER,-2.178135,52.192339
1.5,GP EXTENDED ACCESS - HARROGATE,-1.529793,53.996354
5315.83,THE ROSEBERRY PRACTICE,-1.292215,54.611726
6305.880000000001,ST ANDREW'S MEDICAL PRACTICE,-1.598213,54.699634
11422.54,TANFIELD VIEW MEDICAL GROUP,-1.701373,54.869939
717.72,DR MITCHELL,-0.503581,53.72075
3970.46,BEECH HOUSE SURGERY,-1.465892,54.010836
8843.669999999998,MANOR PARK SURGERY,-1.628914,53.814076
5783.68,PARKSIDE SURGERY,-1.391868,53.097732
3627.28,SPINNEY HILL MEDICAL CENTRE,-1.109212,52.637381
1586.3200000000004,SPRINGFIELD MEDICAL CENTRE,-1.195502,53.003599
5653.180000000001,PARKGATE MEDICAL CENTRE,-1.342798,53.455454
3700.89,BURWELL SURGERY,0.331841,52.273327
1590.65,MARTLESHAM SURGERY,1.272068,52.061314
437.0,THE AVENUE SURGERY,-0.319031,51.518389
2134.64,THE LILYVILLE SURGERY,-0.199155,51.47377
1344.34,WEST LONDON MEDICAL CENTRE,-0.454699,51.525731
13654.220000000005,ST.JAMES SURGERY,1.147433,51.787326
2701.17,WITHAM HEALTH CENTRE,0.642876,51.800559
726.4399999999998,QUEENS AVENUE PRACTICE,-0.147916,51.591852
5632.1,SANDWICH MEDICAL PRACTICE,1.337364,51.274071
2106.42,DR RHK SINHA'S PRACTICE,-0.103058,51.482668
934.39,THE ADDISCOMBE SURGERY,-0.061851,51.376293
4748.080000000001,ADELAIDE MEDICAL CENTRE,-1.475274,51.208539
11666.780000000004,THE CAMBRIDGE PRACTICE,-0.76565,51.254364
2036.3300000000006,GREENFORD ROAD MED.CTR.,-0.345702,51.537697
2193.23,THE OAKLAND MEDICAL CENTRE,-0.45129300000000006,51.546055
1191.38,QUEENS WALK MEDICAL CENTRE,-0.393155,51.562716
1107.61,THE ABINGDON HEALTH CENTRE,-0.197138,51.496085
4249.719999999998,THE ARDLEIGH SURGERY,0.985096,51.927073
5350.630000000001,ADDISON HOUSE - HAQUE PRACTICE,0.088979,51.770891
4366.869999999999,ST PETER'S STREET MEDICAL PRACTICE,-0.100772,51.535597
1639.72,ABERFELDY PRACTICE,-0.004927,51.514483
7575.180000000002,STONE CROSS SURGERY,0.289944,50.816757
3440.2200000000007,ELTHAM PALACE PMS,0.053714,51.449946
3385.2500000000005,BROCKBANK (PARK ROAD),-0.334596,51.423912
3955.160000000001,CHAWTON PARK SURGERY,-0.989411,51.139814
3431.53,STOKENCHURCH MEDICAL CTRE,-0.904033,51.660479
2241.2700000000004,MARSHALLS ROAD SURGERY,-0.539225,52.344743
1703.17,HOLLINSWOOD SURGERY,-2.437453,52.673936
1398.2399999999998,ABBOTS BROMLEY SURGERY,-1.880966,52.819974
9306.429999999997,DARWIN MEDICAL CENTRE,-1.831505,52.694061
7096.18,THE OAKS MEDICAL CENTRE,-1.895827,52.552454
986.6,VICTORIA ROAD MEDICAL CTR,-1.887197,52.501868
5716.2400000000025,ST JOHN'S MEDICAL CENTRE,-1.932532,52.626307
1807.46,NEWBRIDGE SURGERY,-2.155299,52.5936
13388.379999999996,THE CORNERSTONE PRACTICE,-2.4524,53.739201
3302.510000000001,TOWNSIDE SURGERY,-2.29898,53.59031
773.82,GOODMAYES MEDICAL CENTRE,0.10990599999999999,51.567626
774.2999999999998,PARK GRANGE MEDICAL CENTRE,-1.775929,53.789415
807.22,ST.GEORGES MEDICAL CENTRE,-0.24612,51.558731
1584.73,HETHERINGTON AT THE PAVILION,-0.116397,51.461633
2042.74,OAKWOOD MEDICAL CENTRE,-0.134269,51.646534
3126.69,SOUTH HERMITAGE SURGERY,-2.752497,52.699728
47.22,PCEC,-2.227711,53.462436
95.6,SMGPF,-2.237795,53.434307
4.5,DCHS DERBY CITY,-1.441882,53.221288
4723.950000000002,REDBURN PARK MEDICAL CENTRE,-1.474775,55.00092
2422.18,CASTLETOWN MEDICAL CENTRE,-1.450848,54.913341
1392.09,ALDBROUGH ST JOHN SURGERY,-1.684645,54.496518
830.6599999999999,EAST PARADE MEDICAL PRACTICE,-1.061835,53.965993
948.43,BARKEREND HC - EL ELIWI,-1.7218490000000002,53.797834
12188.37,SHAFTESBURY MEDICAL CTR.,-1.497858,53.800234
4355.1100000000015,GROBY ROAD MEDICAL CENTRE (ID PATCHETT),-1.150468,52.644337
965.22,ROSEMEAD DRIVE SURGERY,-1.083088,52.5934
212.12,AR-RAZI MEDICAL CENTRE,-1.101204,52.623926
2985.25,BRANSTON & HEIGHINGTON FAMILY PRACTICE,-0.467988,53.195831
5866.190000000001,FOUNTAIN MEDICAL CENTRE,-0.8043829999999998,53.07286
4200.43,OAKENHALL MEDICAL PRACT,-1.199437,53.03661700000001
2765.840000000001,SCAWSBY HEALTH CENTRE PRACTICE,-1.167843,53.53678299999999
8037.600000000002,ST. GEORGE'S MEDICAL CENTRE,0.298817,52.458085
3443.200000000001,LAWNS PRACTICE,1.109092,52.378889
3572.82,CENTRAL SURGERY,0.147747,51.812546
2033.73,CHURCH END MEDICAL CENTRE,-0.253241,51.54757
4059.83,BRENTFORD GROUP PRACTICE,-0.310054,51.48676
1855.67,THE DEVONSHIRE LODGE PRACTICE,-0.397406,51.579266
1334.71,THE HOXTON SURGERY,-0.086829,51.533527
1287.61,LL MEDICAL CARE LTD,0.0021,51.555415
9037.43,JUBILEE MEDICAL CENTRE,0.300332,51.3978
3123.79,LAMBETH WALK GROUP PRACTICE,-0.11259100000000001,51.495609
2906.2499999999995,STANWELL ROAD SURGERY,-0.470567,51.438013
16099.900000000005,THE ADAM PRACTICE,-2.07822,50.757881
2571.030000000001,SOUTHMEAD SURGERY,-0.616953,51.552538
1082.0400000000004,CLIFTON HAMPDEN SURGERY,-1.211451,51.658625
2654.0599999999995,GROOMBRIDGE AND HARTFIELD MED GRP,0.184416,51.113952
4478.980000000001,POND TAIL SURGERY,-0.066728,51.246436
7902.800000000002,THE WALL HOUSE SURGERY,-0.208192,51.241304
1661.43,THE HALING PARK PARTNERSHIP,-0.098109,51.357113
3307.55,THE PRINCE OF WALES SURGERY,-2.457579,50.713502
4528.66,BRANKSOMEWOOD H/CARE CTR,-0.8448069999999998,51.281888
2892.21,THE GROVE SURGERY,-0.735114,52.023651
3246.6799999999994,PROBUS SURGERY,-4.948542,50.290121
9284.030000000002,ABBEY SURGERY,-4.150401,50.546904
4080.2,WHITEACRES MEDICAL CENTRE,-2.300547,52.124716
3562.38,WOODSIDE MEDICAL PRACTICE,-2.466175,52.637949
3742.07,LYME VALLEY MEDICAL CENTRE,-2.22375,53.006305
1698.13,AUDLEM MEDICAL PRACTICE,-2.508717,52.989615
1760.12,KENNETH MACRAE MED CENTRE,-2.786435,53.49903
6201.5700000000015,BODEY MEDICAL CENTRE,-2.214798,53.440636
1439.4299999999996,WOODLANDS MEDICAL PRACTICE,-2.31213,53.406624
2052.65,DR PAL,-2.595495,53.47988
1159.0399999999995,BATH ROAD SURGERY,-0.37684,51.469395
2426.23,CHAPEL ROW SURGERY,-1.17086,51.425877
1049.11,WOODLANDS MEDICAL PRACTICE,-0.170943,51.592914
32.1,NORTH LINCOLNSHIRE OOH,-0.667599,53.587582
5.84,NCH&C COMMUNITY NURSES (WEST),0.410147,52.749129
196.81,HEALTHBRIDGE DIRECT,0.020102,51.608432
107.22,TAMESIDE & GLOSSOP IC NHS FT,-2.071433,53.49153
4.5,EXTENDED HOURS SERVICE-ONE LIFE,-1.214164,54.682342
3931.17,CRAMLINGTON MEDICAL GROUP,-1.591516,55.084481
12144.2,KINGSTON MEDICAL GROUP,-0.349365,53.756137
1066.88,WESTFIELD MEDICAL CENTRE,-1.531703,53.817673
3895.16,VERNON STREET MEDICAL CTR,-1.49039,52.924019
2083.53,STUBLEY MEDICAL CENTRE,-1.488541,53.304986
4157.96,BRIDGE COTTAGE SURGERY,-0.215995,51.830002
3534.2000000000007,GRANGE STREET SURGERY,-0.335878,51.757298
1412.24,CHICHELE ROAD SURGERY,-0.216241,51.55483
1376.41,SHIRLAND ROAD MEDICAL CENTRE,-0.203904,51.5292
2342.46,DR KRISHNAN & PTNR - KENT ELMS HC,0.664114,51.563831
1956.24,CRANHAM HEALTH CENTRE,0.265291,51.568865
2311.14,ST PETER'S SURGERY,1.41893,51.362936
3461.339999999999,LEWISHAM MEDICAL CENTRE,0.004522,51.458513
1926.83,STEWKLEY ROAD SURGERY,-0.71666,51.898041
305.79,SIBFORD SURGERY,-1.479244,52.037614
8135.54,NEW COURT SURGERY,-2.958059,51.345794
5217.76,AXMINSTER MEDICAL PRACTICE,-2.999226,50.780899
5190.299999999998,COLERIDGE MEDICAL CENTRE,-3.2835660000000004,50.751704
2878.4,LYDNEY PRACTICE,-2.529867,51.727913
2121.0600000000004,PRICES MILL SURGERY,-2.224938,51.693801
4523.509999999998,ST. JOHNS SURGERY,-2.059728,52.337612
7045.6,THE ALDERGATE MED.PRACT.,-1.695644,52.639079
5643.410000000002,YARDLEY WOOD HEALTH CENTRE,-1.859168,52.418648
7760.18,MONTAGUE MEDICAL PRACTICE,-0.872899,53.707031
6731.68,EASTGATE MEDICAL GROUP,-1.462815,54.006795
3687.87,HORTON BANK PRACTICE,-1.806018,53.774478
4637.64,MARSH MEDICAL PRACTICE,0.143689,53.445069
8321.369999999999,HUDDERSFIELD ROAD SURGERY,-1.485631,53.558165
11517.950000000004,SWALLOWNEST HEALTH CENTRE,-1.317097,53.362997
7323.200000000003,SHERINGHAM MEDICAL PRACTICE,1.214777,52.939688
7095.53,KNEBWORTH & MARYMEAD MEDICAL PRACTICE,-0.184972,51.866323
479.48,THE HODFORD ROAD PRACTICE,-0.199318,51.569038
1541.6,HAZELDENE MEDICAL CENTRE,-0.275394,51.547592
1762.07,CLOISTER ROAD SURGERY,-0.265589,51.521352
2185.79,ABBEY ROAD MEDICAL PRACTICE,0.005881,51.534784
944.7999999999998,BOUNDARY HOUSE SURGERY,-0.054245,51.632475
4946.79,MANOR PARK MEDICAL CENTRE,0.24261,50.819107
4505.280000000002,CHURCH LANE HEALTH CENTRE,0.941162,50.984187
13725.81,BETHESDA MEDICAL CENTRE,1.414787,51.390277
3363.32,WOODLANDS SURGERY,0.088913,51.439755
2543.5999999999995,LILLIPUT SURGERY,-1.954229,50.711523
7074.670000000001,WESTBURY GROUP PRACTICE,-2.203558,51.252792
7206.039999999997,PENRYN SURGERY,-5.10336,50.167504
6100.080000000003,CROWN MEDICAL CENTRE,-3.080969,51.029111
3020.87,BARN CLOSE SURGERY,-1.859248,52.03627
1805.41,HIGHLEY MEDICAL CENTRE,-2.392978,52.456165
1269.2399999999998,ALVELEY MEDICAL PRACTICE,-2.353309,52.454738
1301.42,WOLSTON SURGERY,-1.392727,52.376806
1684.9699999999998,BALLIOL ROAD SURGERY,-1.471449,52.415924
3243.470000000001,NEWTON MEDICAL CENTRE,-2.638386,53.457172
2544.65,GREASBY GROUP PRACTICE,-3.121417,53.377628
1852.8,LOSTOCK HALL MEDICAL CTR.,-2.688037,53.727502
2757.380000000001,KNOWSLEY MEDICAL CENTRE,-2.300551,53.588497
1039.6,TIMPERLEY HEALTH CENTRE (WESTWOOD),-2.323566,53.397228
9.0,WELLINGBOROUGH EXTENDED ACCESS,-0.695567,52.303398
108.47,ST JOSEPH'S HOSPICE  HACKNEY,-0.056255,51.537053
2599.05,PENINSULA MEDICAL PRACTICE,-2.915665,54.18795600000001
1553.0500000000004,ROSEWORTH SURGERY,-1.61867,55.001366
10658.61,GREENGATES MEDICAL GROUP,-0.418494,53.844343
8443.990000000002,HEBDEN BRIDGE GROUP PRACTICE,-2.010942,53.744036
4425.83,LIMES MEDICAL CENTRE,-1.387885,53.098493
2702.41,CHURCHSIDE MEDICAL PRACTICE,-1.203539,53.146592
2728.02,SELSTON SURGERY,-1.299871,53.070196
3313.96,CRYSTAL PEAKS MEDICAL CENTRE,-1.354473,53.342881
4307.79,LINCOLN HOUSE SURGERY,-0.469093,51.737355
4278.81,STOCKWELL LODGE MED.CTR.,-0.055287,51.713792
1692.3300000000004,SOUTHEND MEDICAL CENTRE,0.708516,51.540069
1173.55,DR DEVARAJA VC PRACTICE,0.44359,51.520015
2136.68,DR PM PATEL,0.219281,51.55632
1700.1899999999996,THE MITCHISON ROAD SURGERY,-0.087357,51.544992
1259.63,FOUNTAYNE ROAD HEALTH CENTRE,-0.065145,51.56442
2551.84,FRAMLINGHAM SURGERY,1.334192,52.227216
800.72,ARCHWAY SURGERY,-0.532167,51.72275
745.39,CHURCH LANE SURGERY,-0.262165,51.574931
784.51,CHISWICK FAMILY DRS PRACTICE,-0.259879,51.493563
1186.92,ACRE SURGERY,-0.411552,51.604465
1357.76,CHOWDHURY,0.233898,51.592339
2149.34,CUMBERLAND MEDICAL CENTRE,0.026047,51.519716
2786.56,ILFORD MEDICAL CENTRE,0.07431899999999998,51.556823
5257.12,RYE MEDICAL CENTRE,0.730363,50.961944
1708.5099999999998,MAIDSTONE RD CHATHAM SURGERY,0.516708,51.361226
1233.63,VASSALL MEDICAL CENTRE,-0.10851199999999998,51.477558
3708.92,WITLEY SURGERY,-0.650163,51.156457
2754.42,FARMHOUSE SURGERY,-1.7595,50.736437
4176.58,JENNER HOUSE SURGERY,-0.7745189999999998,51.294302
2231.6399999999994,LONG BARN LANE SURGERY,-0.967033,51.436181
11234.71,WESTONGROVE PARTNERSHIP,-0.74378,51.76588
4253.140000000001,MILBORNE PORT SURGERY,-2.471962,50.967502
1840.12,OMBERSLEY MEDICAL CENTRE,-2.229023,52.276554
9223.65,FURLONG MEDICAL CENTRE,-2.208139,53.063325
5761.58,NORFOLK STREET SURGERY,-2.182794,53.01602
1612.2799999999993,PARADISE MEDICAL CENTRE,-1.494835,52.426778
3710.95,MAYFIELD MEDICAL CENTRE,-2.093284,52.583046
2987.9000000000005,LEVENSHULME MEDICAL PRACTICE,-2.188524,53.446352
2900.32,HEALD GREEN HEALTH CENTRE 2,-2.229276,53.369878
2131.69,SMITH (RICHMOND LOCK),-0.322897,51.464517
1673.91,CHILLINGTON HEALTH CENTRE,-3.693645,50.272623
1024.4,JUBILEE GARDENS MEDICAL CENTRE,-0.368739,51.521097
2217.9400000000005,BLACKHEATH MED CTR,-3.104694,53.412239
311.77,AMBAR MEDICAL CENTRE,-1.991354,52.575093
378.97,GOLDINGTON ROAD SURGERY,-0.456174,52.140172
1869.78,DMC ST MARYS ISLAND SURGERY,0.538105,51.406776
1575.0200000000002,POPLAR PRIMARY CARE CENTRE,-1.890326,52.43631
16.8,NORTHAMPTONSHIRE OUT OF HOURS SERVICE,-0.683359,52.29767
15370.240000000005,THORNABY & BARWICK MEDICAL GROUP,-1.292128,54.538149
9196.080000000002,BRAMPTON MEDICAL PRACTICE,-2.734846,54.94237
4554.050000000001,RISEDALE SURGERY,-3.224778,54.109942
5717.510000000001,ROWLANDS GILL MEDICAL CENTRE,-1.742896,54.91936
7168.8200000000015,THE SUTTON MANOR SURGERY,-0.315294,53.785759
5838.2,PLANE TREES GROUP PRACTICE,-1.894437,53.730448
7322.6,THORNTON MEDICAL CENTRE,-1.576209,53.791908
9273.260000000002,JESSOP MEDICAL PRACTICE,-1.372226,53.074348
9422.950000000003,THE PARK MEDICAL PRACTICE,-1.432644,52.928801
1463.3300000000004,BRAILSFORD & HULLAND MEDICAL PRACTICE,-1.624927,52.96943
5344.280000000002,MERRIDALE MEDICAL CENTRE (RP TEW),-1.160752,52.620146
5118.340000000001,THE MAYFLOWER MEDICAL PRACTICE,-1.01945,53.431872
5696.09,BASLOW RD  SHOREHAM ST & YORK RD SRGIES,-1.531066,53.316325
2218.46,OVER SURGERY,0.012018,52.314809
5128.61,DR TUN & PARTNERS,-2.583571,53.532102
6579.210000000001,ST.ANTHONY'S HEALTH CENTRE,-1.55655,54.966674
3860.61,MANOR DRIVE MEDICAL CENTRE,-0.24836599999999998,51.380785
184.34,WESTCALL OOH,-0.8315749999999998,51.410524
178.0,NELFT SOUTH WEST ESSEX CS,0.496195,51.591456
1.5,HILLINGDON UCC,-0.461175,51.526077
50.5,EAST STAFFS IMPROVING LIVES,-1.6480290000000002,52.798809
39.5,PCAH - NEW ROMNEY,0.938719,50.987586
6573.1100000000015,BISHOPS CLOSE MEDICAL PRACTICE,-1.599142,54.699817
8169.839999999997,CLEE MEDICAL CENTRE,-0.041433,53.566223
7385.23,WIBSEY & QUEENSBURY MED P,-1.779715,53.767225
1847.67,SOUTHOWRAM SURGERY,-1.831696,53.712293
1083.44,WHITWICK HEALTH CENTRE,-1.3606790000000002,52.742576
8969.37,MARKET SURGERY,-1.345958,53.502635
1787.13,BALDWINS LANE SURGERY,-0.448705,51.654076
2703.4899999999993,DERWENT CRESCENT MEDICAL CENTRE,-0.175285,51.622908
2600.499999999999,THE STANMORE MEDICAL CENTRE,-0.304021,51.60154
1427.55,NEASDEN MEDICAL CENTRE,-0.247382,51.559667
517.2099999999999,BROOK GREEN SURGERY,-0.218145,51.495291
9813.69,ABBEY FIELD MEDICAL CENTRE,0.898575,51.877487
1008.38,JOHN SMITH MEDICAL CENTRE,0.112125,51.538899
1100.81,TOTTENHAM HEALTH CENTRE,-0.068474,51.604755
870.88,DR MOHAMMED GREEN MAN MEDICAL CENTRE,0.015000999999999999,51.571506
5295.210000000001,FAIRFIELD PMS,0.038949,51.483908
2636.38,PARKSIDE MEDICAL CENTRE,-0.092642,51.475826
2677.54,NORK CLINIC,-0.215842,51.326429
2327.32,QUEENHILL MEDICAL PRACTICE,-0.066791,51.34499
2697.42,GRAND DRIVE SURGERY,-0.228811,51.402155
11068.750000000002,THE BOSMERE MEDICAL PRACTICE,-0.990581,50.850232
7195.800000000001,BURNHAM HEALTH CENTRE,-0.662137,51.5349
1674.81,THE LONG BUCKBY PRACTICE,-1.08255,52.30049
13101.79,ASPEN MEDICAL PRACTICE,-2.225797,51.865969
3343.25,GLOUCESTER CITY HEALTH CENTRE,-2.245328,51.860355
8550.93,ABBEY HOUSE MEDICAL PRACTICE,-1.160725,52.260319
6225.100000000001,NORTON BROOK MEDICAL CENTRE,-3.782122,50.288739
1681.8500000000006,SOMERSET BRIDGE MEDICAL CENTRE,-2.995883,51.115105
6690.080000000001,TRENT VALE MEDICAL PRACTICE,-2.201785,52.987386
1217.47,BROOKSIDE SURGERY,-1.399088,52.35048
2076.4,NORTHWAY MEDICAL CENTRE,-2.130997,52.54810500000001
6478.520000000001,MARTON MEDICAL PRACTICE,-3.034524,53.812843
6816.88,CORNISHWAY GROUP PRACTICE,-2.265017,53.379925
3748.75,BRAMHALL HEALTH CENTRE,-2.162929,53.36001
5052.290000000001,MAYNARD COURT SURGERY,0.020165,51.685605
2503.7700000000004,AYLESBURY SURGERY,-1.876053,52.542854
751.33,NEVILLE ROAD SURGERY,-0.443036,51.906419
60.86,UNIV HOSP NORTH DURHAM OOH,-1.593834,54.788497
1263.9499999999996,BOWLING GREEN STREET SURGERY,-1.133096,52.63304599999999
794.5399999999998,BCHC MEDICINES MANAGEMENT,-1.9537779999999998,52.398207
6.0,PML NEIGHBOURHOOD HUB (KIDLINGTON),-1.289236,51.821558
4957.500000000001,YARM MEDICAL PRACTICE,-1.355519,54.50530500000001
2699.21,BENSHAM FAMILY PRACTICE,-1.617038,54.952781
3019.610000000001,BURTON CROFT SURGERY,-1.57692,53.820807
1865.66,EASTMOOR HEALTH CENTRE,-1.476864,53.690004
880.9199999999998,HARTINGTON SURGERY,-1.810816,53.142488
2336.7300000000005,THE PRACTICE BEAUMONT LEYS,-1.15392,52.662296
3273.55,TASBURGH LODGE SURGERY,-0.21375,53.151242
4715.16,SOTHALL & BEIGHTON HEALTH CENTRES,-1.340221,53.337895
1548.63,KINGSWAY SURGERY,-0.437208,51.517478
2445.25,FIVE ELMS MEDICAL PRACTICE,0.14235,51.553315
339.1,SPUR ROAD SURGERY,-0.086621,51.586597
3268.23,THE MEADS SURGERY,0.091624,50.969686
2394.3100000000004,ALBION STREET SURGERY,-0.133965,50.827627
2728.85,BELLEGROVE SURGERY,0.09579,51.464561
4248.92,SOUTH VIEW PARTNERSHIP,0.026125,51.405111
2825.53,CORNERWAYS SURGERY,-0.404519,50.81566
2316.8,CHEAM GP CENTRE,-0.225239,51.368621
1078.35,WALLINGTON MEDICAL CENTRE,-0.129285,51.357345
4680.42,THE BANKS & BEARWOOD MEDICAL CENTRE,-1.9292169999999997,50.768326
1335.6999999999996,MERE SURGERY,-2.265342,51.089873
940.96,RAGSTONE ROAD SURGERY,-0.601832,51.503747
2518.8,COMBE DOWN SURGERY,-2.345599,51.361003
5254.95,WADEBRIDGE & CAMEL ESTUARY PRACTICE,-4.835729,50.514816
1928.29,NORTH PETHERTON SURGERY,-3.013922,51.09139
486.85,HANDSWORTH MEDICAL PRACT.,-1.941212,52.505377
5034.65,EVE HILL MEDICAL PRACTICE,-2.096805,52.512922
1800.4,BEARWOOD MEDICAL CENTRE,-1.97344,52.476903
6675.4,THE GROUP PRACTICE ALFRED SQUIRE ROAD,-2.080754,52.599417
7587.040000000003,WEST DERBY MEDICAL CENTRE,-2.895944,53.431273
1013.52,BEEHIVE SURGERY,-2.419172,53.564161
1180.9700000000005,QUEENS MEDICAL CENTRE,-2.235847,53.50081899999999
5420.51,LANGWORTHY MEDICAL PRACTICE,-2.294771,53.489371
1886.22,LEY HILL SURGERY,-1.983266,52.421346
2245.79,THE CHEYLESMORE SURGERY,-1.503924,52.391324
373.18,DR. B. K. PRASHARA,-2.114816,52.456326
7477.379999999997,ST PETER'S SURGERY,-1.984855,52.594537
8651.589999999998,ORMSKIRK HOUSE SURGERY,-2.74261,53.456686
4555.359999999999,MANOR HEALTH CTR,-3.044493,53.421061
7417.520000000002,THE PENDLE MEDICAL PARTNERSHIP,-2.144307,53.915882
6485.08,3/SPRINGFIELD HOUSE MEDICAL PRACTICE,-2.362019,53.480252
5794.19,PENNINE MEDICAL CENTRE,-2.040966,53.515337
1547.57,THE CROSSROADS SURGERY,-2.770123,53.417492
1808.45,CRESCENT SURGERY,0.106446,51.389854
913.3900000000001,GREEN CEDARS MEDICAL CENTRE,-0.073642,51.616071
1256.04,THE KINGSWAY PRACTICE,-2.135588,53.612168
2376.3499999999995,WHITE HORSE SURGERY,0.343258,51.435153
1.5,LANCS HOUSE UROLOGY,-2.218662,53.592207
20.1,THE ENFIELD PAIN CLINICS,-0.076772,51.66253
73.36999999999998,LAS S.E. LONDON IUC CAS,-0.10903099999999999,51.500174
23.0,WEST KENT GROUP,1.118942,51.075872
1214.4399999999996,CHAPELFORD PRIMARY CARE CENTRE,-2.633066,53.39615799999999
75.5,BRAMHOPE DERMATOLOGY COMMUNITY CLINIC,-1.61581,53.881903
2014.28,BHF LUNDWOOD SURGERY,-1.438538,53.557711
3664.97,DALTON SURGERY,-3.179816,54.155917
3234.8299999999995,THE SELE MEDICAL PRACTICE,-2.095702,54.970372
5204.6,WOODLANDS PARK HEALTH CTR,-1.628825,55.04614
3302.120000000001,CONCORD MEDICAL PRACTICE,-1.524864,54.913411
4464.3200000000015,MARKET WEIGHTON GROUP PRACTICE,-0.674786,53.864903
7470.040000000003,RAJ MEDICAL CENTRE,-0.113968,53.550655
7700.73,MAYFORD HOUSE SURGERY,-1.446534,54.328376
6716.580000000001,OAKWOOD LANE MEDICAL PRACTICE,-1.493931,53.819982
19154.14,HEALTH CARE FIRST PARTNERSHIP,-1.393615,53.736872
8105.249999999997,HAVEN MEDICAL CENTRE,-1.416874,52.891498
2811.2500000000005,COUNTESTHORPE HEALTH CENTRE,-1.136767,52.554536
4453.200000000002,CASTLE HEALTHCARE PRACTICE,-1.144908,52.930476
8792.95,BROOM LANE MEDICAL CENTRE,-1.332311,53.417383
3139.62,CADDINGTON SURGERY,-0.458179,51.864502
3440.9300000000007,ANNANDALE MEDICAL CENTRE,-0.17421099999999998,51.698571
89.84,GREENWICH CCG GP ACCESS HUB,0.050556,51.457843
4203.79,WEST ROAD MEDICAL CENTRE,-1.656263,54.976209
3977.99,IMEARY STREET PRACTICE,-1.424863,54.98753000000001
1258.33,THE KILLINGHOLME SURGERY,-0.260335,53.62990799999999
5543.8,DR SINHA & PARTNERS,0.100204,53.030138
3601.6900000000005,THE HEALTH CARE SURGERY,-1.487911,53.42172
3024.44,COMBERTON SURGERY,0.018614,52.189811
6111.66,TRINITY & BOWTHORPE MEDICAL PRACTICE,1.280248,52.624411
3719.79,THE LIMES SURGERY,-0.010842,51.759413
4969.32,SHEPHALL HEALTH CENTRE,-0.167642,51.890799
412.62,WAKEMANS HILL SURGERY,-0.254209,51.587088
965.25,WESTBOURNE GROVE MEDICAL CENTRE,-0.200361,51.514211
5816.0700000000015,FOREST PRACTICE,0.07523499999999998,51.654789
1595.7999999999995,PRASAD,0.210579,51.600308
2952.3,HARROW ROAD GP CENTRE,0.012856,51.559538
1494.4499999999996,SEVEN DIALS MEDICAL CENTRE,-0.147743,50.829681
7773.830000000003,NORTHDOWN SURGERY,1.368001,51.379866
1565.94,MILTON REGIS SURGERY,0.7321839999999998,51.349193
4341.56,BARCROFT MEDICAL CENTRE,-1.780526,51.172939
819.12,BURBAGE SURGERY,-1.669545,51.348496
8124.420000000001,THE SWAN PRACTICE,-0.985664,52.001593
8683.560000000003,PIONEER MEDICAL GROUP,-2.617628,51.510306
4214.24,THE CREST FAMILY PRACTICE,-2.596274,51.428746
768.66,WORTHEN MEDICAL PRACTICE,-3.000165,52.635224
3034.96,NESTON MEDICAL CENTRE,-3.064349,53.291818
2836.849999999999,KIRKDALE MEDICAL CENTRE,-2.973842,53.433523
2637.51,WITHNELL HEALTH CENTRE,-2.556663,53.692491
11360.489999999994,DARWEN HEALTHLINK,-2.471427,53.695744
3609.79,ST.MARY'S HEALTH CENTRE,-2.729589,53.747433
2588.09,DAVID MEDICAL CENTRE,-2.268652,53.43186
2971.46,DR ABBAS,-0.841253,52.26834
1432.9699999999998,FACCINI HOUSE SURGERY,-0.189379,51.389682
3947.7,EDLESBOROUGH SURGERY,-0.588625,51.868423
2477.3,DR GS KALKAT'S PRACTICE,0.103861,51.527941
2400.0,JRB HEALTHCARE BEECHDALE SURGERY,-1.198142,52.961504
194.43,THE LYNWOOD SURGERY,-0.29964,51.528594
949.84,CHURCH VIEW MEDICAL CENTRE,-2.960328,50.935622
10076.490000000002,WOODLANDS FAMILY MEDICAL CENTRE,-1.321204,54.561215
1365.8,ASKAM SURGERY,-3.210918,54.183705
14205.14,FERRYHILL AND CHILTON MEDICAL PRACTICE,-1.556828,54.689838
5095.33,COLLIERY COURT MEDICAL GROUP,-1.460703,54.949762
2357.8399999999992,GRANGE PARK SURGERY,-1.7481080000000002,53.912695
4804.589999999998,THE COUNTY PRACTICE,-1.069884,52.70073000000001
6175.050000000001,BEECHFIELD MEDICAL CENTRE,-0.145012,52.787253
5999.07,GRIMETHORPE SURGERY,-1.378978,53.573614
4294.530000000002,THE OAKWOOD SURGERY,-1.073937,53.506609
2528.560000000001,PAPWORTH SURGERY,-0.11749200000000001,52.252071
5257.18,ORCHARD SURGERY,0.944176,52.678309
4391.810000000001,DR JK MARSDEN'S PRACTICE,-0.436528,51.894968
4864.129999999999,MALTINGS SURGERY,-0.337918,51.751851
1744.81,HANWELL HEALTH CENTRE (NAISH),-0.334375,51.510263
3644.6,WHITLEY HOUSE SURGERY,0.455723,51.726539
5027.480000000001,WEST ROAD SURGERY,0.70187,51.544989
804.8900000000001,JOYDENS WOOD MEDICAL CENTRE,0.166397,51.42449
9178.920000000002,TRAFALGAR MEDICAL GROUP PRACTICE,-1.092485,50.785331
5102.35,EASTFIELD HOUSE SURGERY,-1.323251,51.395555
2354.41,RECTORY MEADOW SURGERY,-0.6175,51.669079
6391.020000000002,TUDOR LODGE SURGERY,-2.975378,51.332396
3750.98,PRAZE-AN-BEEBLE SURGERY,-5.309264,50.173753
5152.440000000001,CAMBRIAN MEDICAL PRACTICE,-3.047774,52.86281
3080.44,PENN SURGERY,-2.145001,52.568567
3845.0000000000014,FIRDALE MEDICAL CENTRE,-2.537387,53.253804
4282.06,HALL GREEN SURGERY,-2.741349,53.540745
734.46,SARAF MEDICAL PRACTICE,-2.076954,53.561455
1008.41,LATIMER HEALTH CENTRE,-0.049503,51.54659
2342.34,DELL MEDICAL CENTRE,0.328114,51.480258
1756.4900000000002,KIRKSTALL LANE MEDICAL CENTRE,-1.587333,53.816942
3568.3799999999987,WHITCHURCH SURGERY,-1.340372,51.230256
1997.38,DR NEWMAN,-1.975441,50.719722
37.17,GATDOC OOH,-1.580781,54.93938000000001
1819.72,THE TRINITY MEDICAL CENTRE,0.085815,51.478803
312.9500000000001,CARE UK OOH,1.210633,52.034014
18.0,PONTELAND RD WIC,-1.656804,54.991604
52.28,IC24 LTD (HWLH OOH),0.891514,51.129106
53.5,BURNLEY LOCALITY NMPS,-2.238948,53.791326
3599.5,KIRKBY COMMUNITY PRIMARY CARE CENTRE (3),-1.248741,53.10176
6080.169999999999,BERKLEY PRACTICE,-2.024533,52.58916
8299.460000000003,BELLE VALE HEALTH CENTRE,-2.859752,53.392035
4312.690000000001,ELIZABETH STREET SURGERY,-3.043658,53.820839
3702.37,RAMSBOTTOM MEDICAL PRACTICE,-2.319287,53.64878
1129.15,THE WHITSWOOD PRACTICE,-2.253502,53.455769
5964.47,WOODLANDS MEDICAL PRACTICE,-2.142182,53.545559
2401.88,BROOKS BAR MEDICAL CENTRE,-2.261969,53.461412
2865.9700000000007,BROOK HOUSE SURGERY,-1.445882,50.921794
1662.67,ASHVILLE SURGERY,-0.201145,51.476255
1718.5399999999993,THE VILLAGE MEDICAL CTR,-0.512653,52.128152
105.22,DR HANTSDOC N OOH,-1.109918,51.280633
221.55,GP COLLABORATIVE OOH,-1.455965,53.409821
1499.2,ST NEOTS HEALTH CENTRE,-0.267116,52.228966
22.06,QUAY HEALTH EAC,-0.069645,51.49696
120.68,HMR BARDOC OOH,-2.288591,53.59553
3.0,7 DAY ACCESS ROCHDALE INFIRMARY HUB,-2.160152,53.624282
19.65,GATESHEAD HEALTH COMMUNITY SERVICES,-1.580781,54.93938000000001
11.25,VC WEST LANCS COMMUNITY NURSING,-2.840112,53.602357
6.3,SOUTH DALES HEALTHCARE LTD,-1.571366,53.077623
8588.0,PRIORY MEDICAL CENTRE,-1.588641,52.285051
198.44000000000003,MODALITY ANN JONES FAMILY HEALTH CENTRE,-1.871333,52.462659
802.0299999999999,BALDWINS LANE SURGERY,-1.846405,52.414514
1400.88,TUDOR PRACTICE STOCKLAND GREEN,-1.857329,52.52388199999999
4506.010000000002,CENTRAL SURGERY,-2.74261,53.456686
8821.24,ASH TREES SURGERY,-2.769484,54.129481
1689.36,FAMILY PRACTICE,-2.486748,53.750552
2536.55,MONARCH MEDICAL CENTRE,-2.316823,53.564198
6225.29,LEESBROOK SURGERY,-2.07266,53.53879
2810.56,WALTON SURGERY,1.335453,51.973564
3089.0400000000004,LINCOLN GREEN MEDICAL CENTRE,-1.525196,53.802098
3815.78,PARKGATE SURGERY,-1.548606,54.523273
2823.54,DALTON TM,-2.643772,53.529393
1072.35,POLLARD ROW SURGERY,-0.064328,51.528266
75.56999999999998,HARROGATE OOH,-1.517573,53.993807
26.84,MIRIAM MINOR EMERGENCY,-3.04649,53.39824599999999
8.96,EXTENDED HOURS SERVICE,-2.9023,53.211542
1.5,RUSHCLIFFE URGENT CARE SERVICE,-1.100495,52.924252
39.0,PML NEIGHBOURHOOD HUB (BANBURY),-1.349027,52.057771
1947.28,BALDERTON SURGERY,-0.7864679999999998,53.052881
2310.45,ULVERSTON COMMUNITY HEALTH CENTRE,-3.097833,54.198882
6851.589999999997,NORTH ROAD SUITE RAVENSTHORPE HEALTH CTR,-1.661589,53.677829
3680.71,CASTLE MEAD MEDICAL CENTRE,-1.367743,52.541052
3466.3500000000013,RADCLIFFE-ON-TRENT. HEALTH CENTRE,-1.03822,52.946139
3742.050000000001,RISE PARK SURGERY,-1.174951,53.011477
1633.5699999999995,MANCHESTER ROAD SURGERY,-1.521086,53.380573
3906.07,CHERRY HINTON MEDICAL CENTRE,0.177635,52.187459
6264.280000000002,THE MEDICI MEDICAL PRACTICE,-0.418382,51.874494
1428.19,PENSHURST GARDENS SURGERY,-0.272812,51.616129
1860.47,ELLIS PRACTICE,-0.276552,51.563894
1660.76,ORCHARD END,0.539532,51.091415
3114.8899999999994,NEW ELTHAM AND BLACKFEN MEDICAL CENTRE,0.074199,51.434495
2046.44,THE GROVE MEDICAL CENTRE,-2.513702,50.953273
5557.1500000000015,BISHOPS WALTHAM SURGERY,-1.212149,50.95528
2652.68,THE WILLESDEN MEDICAL CENTRE,-0.233873,51.547532
1674.39,EASTMEAD AVENUE SURGERY,-0.36274,51.531443
583.77,KINCORA DOCTORS SURGERY,-0.412216,51.511666
2155.81,DR M GOYAL'S PRACTICE,0.156711,51.540066
4060.87,TOLLGATE MEDICAL CENTRE,0.056362,51.515573
3419.4700000000007,HETHERINGTON GROUP PRACTICE,-0.12823,51.460932
441.89,SELHURST MEDICAL PRACTICE,-0.088969,51.390012
3747.930000000001,THE WATERFIELD PRACTICE,-0.733923,51.409204
363.27,JERICHO HEALTH CENTRE,-1.265958,51.760293
4230.51,PONTESBURY MEDICAL PRAC,-2.887922,52.650521
4948.430000000002,TUTBURY HEALTH CENTRE,-1.686361,52.858454
1860.49,TEAN SURGERY,-1.988036,52.954415
2726.4500000000007,WAKE GREEN SURGERY,-1.883357,52.446103
2800.42,THORNLEY STREET MEDICAL CENTRE,-2.125789,52.58843
2410.27,MEREPARK MEDICAL CENTRE,-2.300747,53.093285
3464.7300000000005,RAINHILL VILLAGE SURGERY,-2.763813,53.41631
2035.15,MILE LANE HEALTH CENTRE,-2.335248,53.587814
5274.170000000001,NEW ISLINGTON MEDICAL CENTRE,-2.219472,53.4829
6511.4,CLARENDON MEDICAL CENTRE,-2.079951,53.45264
2206.76,BRAITHWAITE RD SURGERY,-2.574985,53.477412
1976.77,WOODGRANGE MEDICAL PRACTICE,0.025253,51.548596
945.6400000000001,JARVIS MEDICAL PRACTICE,-2.095095,53.537786
261.41,DR SP TALPAHEWA,-0.260303,51.616115
44.7,WIRRAL WIC (APH)_WIC APH,-3.096815,53.36964
252.46,IC24 LTD (NORFOLK & WISBECH OOH),0.891514,51.129106
3446.11,BRANDON MEDICAL PRACTICE,0.6233,52.448489
1511.9199999999996,BOLTON MEDICAL CENTRE,-2.431399,53.56543
1069.9299999999996,THE MANSELL ROAD PRACTICE,-0.358969,51.525654
1898.76,WESTCROFT HEALTH CENTRE,-0.795699,52.006367
971.77,FOUNDATIONS,-1.257899,54.563441
97.82,(FRACTURE CLINIC) NORTH OOH,-0.883829,52.236068
6.3,CLEARWAYS,-1.354668,53.427403
617.9300000000002,READING WALK-IN HEALTH CENTRE,-0.9758960000000002,51.454809
426.0799999999999,MERSEYCARE NHS TRUST - NMP,-2.933499,53.407265
355.1600000000001,BRADFORD DISTRICT CARE TRUST,-1.788605,53.839675
24.5,PUBLIC HEALTH SERVICES,0.020377,51.403879
13.5,CORRINGHAM HUB,0.42690200000000006,51.513843
95.8,NORTH TYNESIDE CARE PLUS,-1.456596,55.011193
18.3,KINGSTON CCG SLDUC OOH,-0.283378,51.412517
27.48,8 TO 8 TOP-UP HUB QMH,0.101687,51.419041
3.0,SUFFOLK GP FEDERATION OOH,1.164244,52.044508
8083.119999999999,LOWTHER MEDICAL CENTRE,-3.586392,54.545056
4645.3200000000015,COLLEGE LANE SURGERY,-1.336292,53.644573
3464.24,THE SURGERY CLIFTON ROAD,-1.737497,53.013356
1749.8299999999995,THE ORCHARD MED PRACTICE,-1.231693,52.533972
9365.32,MUNRO MEDICAL CENTRE,-0.147427,52.794037
4125.51,MOSBOROUGH HEALTH CENTRE,-1.364873,53.325238
3837.98,ORCHARD SURGERY MELBOURN,0.020092,52.080651
9652.33,HIGH STREET SURGERY,1.756043,52.482123
4475.68,ANDAMAN SURGERY,1.715485,52.45691600000001
17810.300000000007,STANMORE MEDICAL GROUP,-0.204612,51.913274
2955.4800000000005,PUCKERIDGE & STANDON SURGERY,0.019374,51.888296
5772.490000000002,KING GEORGE SURGERY,-0.206096,51.907416
4828.12,COMMONWEALTH HEALTH CENTRE,0.36308,51.463166
1451.3300000000004,KEATS GROUP PRACTICE,-0.17103,51.555534
2635.1800000000007,BURNT ASH SURGERY,0.009913000000000002,51.452782
3604.28,HILLVIEW MEDICAL CENTRE,-0.557727,51.315501
4293.909999999999,DOWNING STREET GROUP PRACTICE,-0.7989009999999998,51.212905
948.7600000000001,ASHBURTON PARK MEDICAL CENTRE,-0.064221,51.384147
3214.590000000001,TAMWORTH HOUSE MEDICAL CENTRE.,-0.146254,51.40122
3494.2599999999993,PARKSIDE PRACTICE,-1.353169,50.970948
3970.7299999999987,ST.PETERS SURGERY,-1.372792,50.897829
835.1,NEATH HILL HEALTH CENTRE,-0.747321,52.060411
1641.5499999999995,BATHEASTON MEDICAL CENTRE,-2.317387,51.406032
4608.619999999999,DARTMOUTH MEDICAL PRACTICE,-3.580811,50.351157
6046.68,DARTFORD EAST HEALTH CENTRE,0.236914,51.440747
2927.46,CHURCH STREET PRACTICE,-0.459783,51.37345
1812.56,THE GREYSWOOD PRACTICE,-0.144853,51.419489
752.9299999999998,BOLINGBROKE MEDICAL CENTRE (THMP),-0.168282,51.45617
1913.3,LEYBOURNE SURGERY,-1.88721,50.758437
4599.169999999999,THE BORDER PRACTICE,-0.740565,51.240995
3937.65,PATFORD HOUSE PARTNERSHIP,-2.005519,51.437601
2109.390000000001,CHATHAM STREET SURGERY,-0.981895,51.455924
5427.5700000000015,THE CROSS KEYS PRACTICE,-0.830848,51.723655
3194.4999999999995,WHITELADIES MEDICAL GROUP,-2.612382,51.465097
1636.9,HILLCREST SURGERY,-2.431687,51.311982
3129.8099999999995,DEVON SQUARE SURGERY,-3.60508,50.529985
2377.600000000001,ESTOVER SURGERY,-4.0952,50.411271
1796.96,THE ROYAL WELL SURGERY,-2.0815,51.906706
2753.89,APSLEY SURGERY,-2.187008,53.035377
4430.01,THE LIMES SURGERY MEDICAL CENTRE,-2.114052,52.456884
2099.98,ASHFIELD ROAD SURGERY,-2.132841,52.62604399999999
4696.93,NORTHGATE MEDICAL CENTRE,-2.892972,53.19509300000001
6071.360000000002,RIVERSIDE SURGERY,-3.006197,53.372004
5341.84,LAYTON MEDICAL CENTRE,-3.027291,53.827425
5510.799999999998,HT PRACTICE,-2.110496,53.478305
3522.88,WESTLEIGH MEDICAL PRACTICE,-2.526024,53.510851
336.81,MEDICUS HEALTH PARTNERS-CURZON AVENUE,-0.036518,51.645435
2085.14,WINDMILL SURGERY,-1.48555,52.449933
1040.6799999999996,ARNOS GROVE MEDICAL CENTR,-0.129838,51.615476
898.08,ST.QUINTIN HEALTH CENTRE,-0.220325,51.519199
2949.2700000000004,PARK COMMUNITY PRACTICE,-1.871717,53.725678
1.5,WALTHAM FOREST CCG(NMP-COMMUNITY HEALTH),-0.022546,51.616083
20.1,CHESTERFIELD HEALTH PROVIDER LTD,-1.43962,53.233943
2117.18,MELROSE SURGERY,-1.287301,54.609397
4457.490000000002,BLACKETTS MEDICAL PRACTICE,-1.559007,54.527221
2396.05,DR A SINHA,-0.108523,53.567689
3036.1799999999994,WILLINGTON SURGERY,-1.566835,52.850285
2466.2500000000005,UPWELL STREET SURGERY,-1.434724,53.406424
3121.48,LAKENHAM SURGERY,1.296577,52.6183
4527.39,MANOR FARM MEDICAL CENTRE,0.690513,52.648544
4274.71,PLOWRIGHT MEDICAL CENTRE,0.686691,52.655577
4444.83,REGAL CHAMBERS SURGERY,-0.275959,51.952843
2117.96,STANHOPE SURGERY,-0.032073,51.688002
640.27,THE GARWAY MEDICAL PRACTICE,-0.185494,51.515392
4245.07,BEECHWOOD SURGERY,0.292731,51.608567
2211.83,THE NIGHTINGALE PRACTICE,-0.062434,51.558261
3028.14,THE GRAHAM PRACTICE,0.048721,51.541534
3284.34,ISLAND HEALTH,-0.013513,51.495357
3804.45,STANFORD MEDICAL CENTRE,-0.148293,50.838378
6416.08,NEWINGTON ROAD SURGERY,1.399222,51.343459
7449.23,BELVEDERE MEDICAL CENTRE,0.144376,51.482567
6723.659999999999,ST.LAWRENCE SURGERY,-0.390026,50.823979
5430.77,MID SUSSEX HEALTH CARE,-0.175279,50.933719
2318.92,THE WHITELEY SURGERY,-1.266072,50.88262
18405.870000000006,ACORN HEALTH PARTNERSHIP,-1.114058,51.245047
27874.2,PORTSDOWN GROUP PRACTICE,-1.080952,50.812876
5301.83,THE ELMS PRACTICE,-0.976476,50.789794
5060.34,ESPLANADE SURGERY,-1.158697,50.731943
2492.5499999999993,GLASTONBURY HEALTH CENTRE,-2.712893,51.148733
10463.639999999998,MAYFIELD SURGERY,-2.13456,52.982709
4490.56,BRIDGE MEDICAL,-1.506726,55.038077
1124.0499999999997,WINDSOR MEDICAL CENTRE,-1.622157,53.693875
3777.76,ASHBOURNE MEDICAL PRACTICE,-1.737589,53.012862
3736.160000000001,THE UPPINGHAM SURGERY,-0.723557,52.594972
3985.46,ABBEY MEDICAL GROUP,-1.119194,53.100674
3853.18,LOWMOOR ROAD SURGERY,-1.244634,53.100062
4724.249999999999,BIRLEY HEALTH CENTRE,-1.396985,53.340317
3174.2700000000004,PARKFIELD MEDICAL CENTRE,-0.179588,51.695129
1184.47,REDWOOD PRACTICE,-0.359614,51.461125
753.5899999999997,SUNRISE MEDICAL CENTRE,-0.382255,51.51087
2705.9100000000008,THE THORPE BAY SURGERY,0.757986,51.534599
1140.75,HOLBORN MEDICAL CENTRE,-0.118539,51.522233
1994.34,BRICK LANE SURGERY,-0.048612,51.657327
1067.82,ABBEY COURT,0.26122,51.137755
1968.99,ELM LODGE SURGERY,-0.096232,51.451506
4154.06,HUDSON (SEYMOUR HOUSE),-0.292773,51.462401
1809.16,OPEN DOOR SURGERY,-0.155581,51.443166
6478.61,THE LIGHTHOUSE GROUP PRACTICE,-1.0805049999999998,50.796551
6302.21,THE ORCHARD PARTNERSHIP,-1.865867,51.077878
6176.99,WHADDON MEDICAL CENTRE,-0.7662759999999998,52.000308
2865.7499999999995,SONNING COMMON HEALTH CTR,-0.982114,51.515603
5663.310000000001,LANDER MEDICAL PRACTICE,-5.055864,50.259982
2447.24,BROSELEY MEDICAL PRACTICE,-2.481266,52.611554
855.7,BONEY HAY SURGERY,-1.926768,52.690328
1420.86,BEECH TREE MEDICAL PRACTICE,-1.252936,52.377534
1907.98,ALUM ROCK MEDICAL CENTRE,-1.850664,52.489901
469.52,GREENFIELD MEDICAL CENTRE,-1.855764,52.491684
1861.36,THE SURGERY,-2.605295,53.024859
2682.05,PARKGATE SURGERY,-2.882743,53.564772
3125.4799999999987,MARPLE MEDICAL PRACTICE,-2.064954,53.39495
30.8,STORTHFIELD HOUSE,-1.332746,53.097559
1.5,WORKINGTON HEALTH LIMITED,-3.551342,54.642687
997.08,CLOVER CITY PRACTICE,-1.46659,53.38187
52.81,WLCCG EXTENDED HOURS HUBS,-0.217218,51.522362
4.5,NEWARK ACUTE HOME VISITING SERVICE,-1.238124,52.98146
5253.710000000002,ASPATRIA MEDICAL GROUP,-3.337992,54.762123
16122.1,WILLIAM BROWN CENTRE,-1.33142,54.757994
4272.92,WELLSPRING MEDICAL PRACT.,-1.564066,55.037289
6161.34,RED HOUSE MEDICAL CENTRE,-1.424063,54.925457
5443.3200000000015,COLNE VALLEY GROUP PRACTICE,-1.9282130000000002,53.602096
1289.96,FAMILY DOCTORS,-1.440964,53.798248
4993.78,ROYSTON GROUP PRACTICE,-1.451018,53.600005
2002.64,SOUTHEY GREEN MEDICAL CTR,-1.477666,53.419051
3999.36,IVRY STREET MEDICAL PRACTICE,1.148624,52.064021
2793.0200000000004,NORTH FULHAM SURGERY,-0.199224,51.486415
341.79,FULHAM CROSS MEDICAL CENTRE,-0.214067,51.482774
268.0,LAI CHUNG FONG QUEENS PARK HEALTH CENTRE,-0.205826,51.530911
2577.4300000000007,NEWBURY GROUP PRACTICE,0.085981,51.576435
12332.46,HARDWICKE HOUSE GROUP PRACTICE,0.725792,52.0382
5571.85,WHEATFIELD SURGERY,-0.495144,51.904445
934.13,BRAMPTON HEALTH CENTRE,-0.277386,51.586099
1175.46,DOCKLANDS MEDICAL CENTRE,-0.021143,51.491152
3868.96,BELMONT SURGERY,0.340829,51.061952
1491.73,LONG CATLIS ROAD SURGERY,0.595579,51.348325
3363.93,ABBEY WOOD SURGERY,0.11653,51.497094
3167.48,WOOLSTONE MEDICAL CENTRE,-0.036776,51.438421
3829.7,MINET GREEN HEALTH PRACTICE,-0.105204,51.475715
4520.39,SOUTHGATE MEDICAL GROUP,-0.194559,51.102316
5218.24,NEW ADDINGTON GROUP PRACTICE,-0.018557,51.344382
1101.32,BANBURY ROAD MEDICAL CENTRE,-1.263535,51.774771
11102.239999999998,THE ARMADA FAMILY PRACTICE,-2.571861,51.413438
4377.03,STAFFORD MEDICAL GROUP,-2.914755,51.35259
3412.5399999999986,BROCKWORTH SURGERY,-2.156696,51.844575
7193.48,SEVERN VALLEY MEDICAL PRACTICE,-2.235045,52.190415
6723.93,DAWLEY MEDICAL PRACTICE,-2.466781,52.664322
4414.03,LEEK HEALTH CENTRE,-2.019347,53.105691
2478.4600000000005,CHASE MEADOW HEALTH CENTRE,-1.608604,52.268838
729.63,HILL TOP PRACTICE,-2.011775,52.537791
1027.48,MAGHULL HEALTH CENTRE (DR SAPRE),-2.943932,53.515597
3936.91,LIME SQUARE MEDICAL CENTRE,-2.164901,53.473649
1943.28,WINDERMERE SURGERY,-2.205709,53.55956
3755.92,BEESTON VILLAGE SURGERY,-1.569152,53.772415
670.84,HATTON MEDICAL PRACTICE,-0.433285,51.457879
2335.2300000000005,BLURTON MEDICAL CENTRE,-2.156565,52.972002
148.5,GREAT CHAPEL STREET MEDICAL CENTRE,-0.134097,51.51508
26.41,HASTINGS AND ROTHER OOH,0.891514,51.129106
1.5,A&E GPS,-2.629091,53.55774
7764.38,BIRBECK MEDICAL GROUP,-2.742581,54.656125
2178.2,BEWICK ROAD SURGERY,-1.601653,54.956398
5186.710000000001,WENLOCK ROAD SURGERY,-1.455226,54.972635
6120.240000000002,WINTERTON MEDICAL PRACTICE,-0.606876,53.652511
3354.44,THE OLD SCHOOL MEDICAL PRACTICE,-1.1424040000000002,53.916163
7681.41,KEIGHLEY ROAD SURGERY,-1.893907,53.754239
4532.93,MULBERRY STREET MEDICAL PRACTICE,-1.66397,53.794738
4046.6899999999987,CHATSWORTH ROAD MEDICAL CENTRE,-1.467337,53.231374
2807.81,CRICH MEDICAL PRACTICE,-1.482573,53.084327
6272.93,MEXBOROUGH HEALTH CENTRE,-1.279795,53.494237
9032.38,ST VINCENT MEDICAL CENTRE,-1.124029,53.525476
4221.2,LUDHAM AND STALHAM GREEN SURGERIES,1.534423,52.709131
4396.67,BENTHAM ROAD HEALTH CENTRE,-2.50627,53.73058399999999
34.87,ROTHERHAM HOSPICE,-1.340784,53.424046
3852.79,CRESWELL AND LANGWITH MEDICAL CENTRE,-1.215835,53.262654
35.5,UHMB COMMUNITY NMP,-2.799232,54.042726
8633.939999999997,NORWOOD MEDICAL CENTRE,-3.222974,54.119201
5020.9000000000015,BEECHWOOD GROUP PRACTICE,-3.545472,54.642376
10580.65,DENMARK STREET SURGERY,-1.552252,54.538825
7342.290000000003,WELL CLOSE MEDICAL GROUP,-2.006127,55.77245799999999
6144.76,PALLION FAMILY PRACTICE,-1.414195,54.908604
2322.37,PICTON MEDICAL CENTRE,-1.77624,53.807296
5358.699999999999,PARKSIDE MEDICAL CENTRE,-0.021998,52.981526
9239.3,ORCHARD MEDICAL PRACTICE,-1.206764,53.141121
8026.319999999998,THE BURNS PRACTICE,-1.12309,53.520707
5668.469999999998,WINCOBANK MEDICAL CENTRE,-1.416316,53.419405
1182.18,UEA MEDICAL CENTRE,1.241391,52.622369
1769.51,THE VILLAGE SURGERY,-0.168135,51.648069
255.25,THE STREATFIELD MEDICAL CENTRE,-0.30083,51.595343
1490.2900000000004,THE CHELSEA PRACTICE,-0.166915,51.486814
2932.44,ST. BARTHOLOMEWS SURGERY,0.051755,51.532409
3101.09,RYDAL,0.020102,51.608432
5148.4000000000015,GROSVENOR & ST JAMES MEDICAL CENTRE,0.264349,51.137424
3594.41,KING GEORGE ROAD SURGERY,0.518518,51.348911
624.8900000000001,THE THREE ZERO SIX MEDICAL CENTRE,-0.076403,51.450741
1543.1,VIRGINIA WATER MEDICAL PRACTICE,-0.568235,51.403367
1980.73,NEW OTTERSHAW SURGERY,-0.526005,51.361938
1356.05,THE ALTON PRACTICE,-0.239471,51.44914
22038.549999999992,THE WILLOW GROUP,-1.143034,50.800579
4477.82,ALEXANDER HOUSE SURGERY,-0.7520019999999998,51.293749
5516.320000000002,RIDGEWAY VIEW FAMILY PRACTICE,-1.7915709999999998,51.524175
2415.4299999999994,GREEN MEADOWS SURGERY,-0.677163,51.426939
3197.43,PORT VIEW SURGERY,-4.214351,50.40735
3955.22,CHURCHDOWN SURGERY,-2.171559,51.882487
4446.18,STANMORE HOUSE SURGERY,-2.231468,52.391138
4193.42,WARGRAVE HOUSE SURGERY,-2.712261,52.055418
3170.15,VENTNOR MEDICAL CENTRE,-1.203791,50.594548
1900.11,THE HALL PRACTICE,-0.561016,51.606986
1791.7699999999998,WEST VIEW SURGERY,-2.50212,51.411923
1631.3799999999994,HARTLAND SURGERY,-4.482549,50.992721
5337.290000000001,STATION DRIVE SURGERY,-2.715141,52.370132
9773.23,SOLIHULL HEALTHCARE PARTNERSHIP,-1.775235,52.419642
6825.1500000000015,CONCEPT HOUSE SURGERY,-2.98492,53.449136
11056.670000000006,ADELAIDE STREET SURGERY,-3.048397,53.817351
4360.78,LOCKWOOD GP SURGERY,-2.989833,53.850947
620.51,CAVENDISH HEALTH CENTRE,-0.148092,51.519331
6978.06,BROWNLOW GROUP PRACTICE,-2.96585,53.405021
1478.31,HEATHROW MEDICAL CENTRE,-0.433924,51.49302
943.47,THE ENTERPRISE PRACTICE,-0.320613,51.601113
4920.719999999998,ODDFELLOWS HALL & ST CLEMENTS,0.327906,51.480703
54.790000000000006,COMMUNITY GERIATRICIAN SERVICE,-1.568473,53.81497099999999
10.64,WYRE FOREST COMMUNITY NURSES,-2.244954,52.387785
1708.04,CHAUCER SURGERY,-1.45237,52.515151
6679.840000000001,THE ENDEAVOUR PRACTICE,-1.235397,54.575047
6277.380000000003,THE LAKES MEDICAL PRACTICE,-2.742581,54.656125
2875.2000000000007,EAST PARADE SURGERY,-1.529793,53.996354
1665.14,FIELDHEAD SURGERY,-1.639379,53.831787
1781.9199999999994,BASLOW HEALTH CENTRE,-1.617823,53.246144
6663.660000000002,OSMASTON SURGERY,-1.467954,52.911084
1027.1,ASQUITH SURGERY,-1.117116,52.601489
5499.100000000001,HOLBEACH MEDICAL CENTRE,0.014430000000000002,52.804778
2051.07,YEADING MEDICAL CENTRE,-0.397019,51.533634
318.77,MAYFAIR MEDICAL CENTRE,-0.150172,51.513536
3086.1700000000005,SUN LANE,1.087469,51.071536
3707.73,LYDDEN SURGERY,1.23991,51.163193
1945.52,THE CHURCH VIEW PRACTICE,0.609995,51.363412
1942.13,TRIANGLE GROUP PRACTICE,-0.011071,51.457798
4388.5,SELSDON PARK MEDICAL PRACTICE,-0.06457300000000002,51.342409
3152.64,LAMBOURN SURGERY,-1.526933,51.504696
5492.1100000000015,BICESTER HEALTH CENTRE,-1.157239,51.896742
5335.68,FOWEY RIVER PRACTICE,-4.635394,50.337915
6536.61,KNOWLE HOUSE SURGERY,-4.134098,50.40863
4664.54,HOLTS HEALTH CENTRE,-2.406966,51.931555
3982.91,CUMBERLAND HOUSE,-2.145844,52.901549
4093.6400000000012,BILBROOK MEDICAL CENTRE,-2.181749,52.624775
2516.59,VALE OF RED HORSE,-1.510351,52.15797
4717.330000000001,BALSALL COMMON & MERIDEN GROUP PRACTICE,-1.643862,52.394956
4802.690000000001,LANCE LANE MEDICAL CENTRE,-2.911916,53.396196
2158.05,DR A GUPTA BENIM MEDICAL CENTRE,-2.947804,53.419395
8360.19,DINAS LANE MEDICAL CENTRE,-2.861513,53.417388
28573.28,LANCASTER MEDICAL PRACTICE,-2.797202,54.047583
1243.7,DR GWD BHIMA,-2.154239,53.611617
8147.580000000003,RIVERSIDE MEDICAL CENTRE,-2.672299,53.748112
2281.78,LITTLETOWN FAMILY MED PRACT,-2.134298,53.529137
3716.32,NEW COURT SURGERY,-2.30878,52.113538
1401.11,THE BARHAM & CLAYDON SURGERY,1.109866,52.110175
2544.59,SWANWOOD PARTNERSHIP,0.519034,51.613356
43.56,NIGHTINGALE HOUSE,-0.159747,51.449354
1698.9599999999996,CROWN WOOD MEDICAL CENTRE,-0.736934,51.395919
454.37,CITY REACH HEALTH SERVICES,1.288137,52.633042
4106.989999999999,THE JUNCTION SURGERY,-1.759212,53.643662
215.8,DORKING HEALTHCARE LLP,-0.333421,51.225985
162.44,BADGER GROUP OOH,-1.8778259999999998,52.477589
1088.8200000000004,GREAT BRIDGE HEALTH CENTRE,-2.02775,52.527792
235.93,PELC REDBRIDGE OOH,0.066648,51.55684
18.6,BCH URGENT CARE CENTRE,-2.583357,51.412858
41.02,NON MEDICAL PRESCRIBING SOUTHEND CCG,0.702782,51.583955
1480.52,COMMUNITY NURSING (SOUTH TEES),-1.215564,54.570237
1467.0399999999993,WEST HERTS RESPIRATORY SERVICE,-0.468578,51.750846
1.5,DARLINGTON PALLIATIVE CARE,-1.567053,54.529074
1928.23,GREENWOOD SURGERY,0.605168,51.653143
29.6,EN HERTS ACUTE IN-HOURS VISITING SERVICE,-0.191727,51.782567
51.48,PARTNERSHIP STOKE,-2.109085,52.810605
507.0,MERTON CCG-CLCH (NMP),-0.199155,51.47377
1.5,DHU 111 NOTTS PHARMACIST PRESCRIBERS OOH,-1.428134,52.914593
15.61,GP SERVICES - GP HUBS,-0.175734,51.240416
5776.79,MIDDLE CHARE MEDICAL GROUP,-1.573113,54.855636
3193.44,I J HEALTHCARE,-1.531354,54.88104
1843.87,OAK GLEN SURGERY,-1.816352,53.854799
7862.020000000002,WELLINGTON HOUSE,-1.634561,53.714775
4897.52,SKELMANTHORPE FAMILY DOCTORS,-1.650686,53.591604
7007.47,LEIGH VIEW MEDICAL PRACTICE,-1.558358,53.728574
1734.31,OAKWOOD SURGERY,-1.4290459999999998,52.941386
4942.089999999998,THE KAKOTY PRACTICE,-1.473444,53.5464
1563.65,PHOENIX PRIMARY CARE (SOUTH) LTD,-0.435422,51.918016
68.1,NEWCASTLE GP IN MOLINEUX WIC,-1.583491,54.977507
7.8,NORTH NORFOLK HUB 2 (BIRCHWOOD),1.38334,52.820065
2543.36,GILDERSOME HEALTH CENTRE,-1.6293,53.756554
3127.2300000000005,HAZELMERE MEDICAL CENTRE,-1.16453,52.57337
4378.9000000000015,BURNGREAVE SURGERY,-1.459815,53.393327
2936.4099999999994,FELTWELL SURGERY,0.527056,52.48268
2901.23,QUEENS PARK HEALTH CENTRE,-0.493075,52.133151
3347.3,ALBANY PRACTICE,-0.310054,51.48676
1971.1900000000005,CASSIDY ROAD MEDICAL CENTRE,-0.199015,51.479154
15682.209999999995,COLCHESTER MEDICAL PRACTICE,0.909325,51.890029
2328.93,ROWHEDGE SURGERY,0.945058,51.85767
1162.6699999999996,DR VM PATEL,0.228776,51.561113
294.93,THE HEATHCOTE PRIMARY CARE CENTRE,0.062768,51.593832
2414.39,ESHER GREEN SURGERY,-0.370196,51.375782
893.15,CHILDS (THAMESIDE),-0.326599,51.427449
3352.43,THE CHESSER SURGERY,-0.177303,51.374927
5598.53,MOREDON MEDICAL CENTRE,-1.8070689999999998,51.582197
6330.25,ASHFIELD MEDICAL CENTRE,-0.7382729999999998,52.019666
3988.84,BUGBROOKE MEDICAL PRACTICE,-1.005426,52.211409
5417.5700000000015,TRESCOBEAS SURGERY,-5.085333,50.15531
5184.51,BUDSHEAD MEDICAL PRACTICE,-4.150289,50.417443
2214.91,TEIGN ESTUARY MEDICAL GROUP,-3.496462,50.5456
3590.23,MITCHELDEAN SURGERY,-2.488369,51.865935
3711.73,LUSON,-3.229566,50.977398
6442.090000000003,HARESFIELD HOUSE SURGERY,-2.202996,52.194829
1290.64,HEDNESFORD MEDICAL PRACTICE,-2.000697,52.71233
5525.950000000002,LAUREL HOUSE SURGERY,-1.692825,52.636563
5076.43,HANDSWORTH WOOD MED.CTR.,-1.928196,52.51303299999999
897.7899999999998,ROTTON PARK MEDICAL CENTRE,-1.947079,52.482162
4092.14,LONGFORD PRIMARY CARE CENTRE,-1.48555,52.449933
4125.29,TETTENHALL MEDICAL PRACTICE,-2.159502,52.600723
6331.890000000002,READESMOOR MEDICAL GROUP PRACTICE,-2.216792,53.163762
5798.9000000000015,NEWTOWN SURGERY,-2.735705,53.362158
7413.18,ROPE GREEN MEDICAL CENTRE,-2.453958,53.06655
2644.18,PENNY LANE SURGERY,-2.915004,53.389404
3242.3100000000004,ABINGDON FAMILY HEALTH CARE CENTRE,-2.943503,53.440571
14651.85,WINGATE MEDICAL CENTRE,-2.874647,53.488385
4824.440000000001,AINSDALE MEDICAL CENTRE,-3.03882,53.602403
2421.74,CORNERSTONE SURGERY,-2.457402,53.58815500000001
4086.61,BARLBOROUGH MEDICAL PRACTICE,-1.284471,53.289528
690.1800000000002,VICTORIA PARK HEALTH CENTRE,-1.1192,52.619071
2545.2499999999995,THE WRAGBY SURGERY,-0.301337,53.287948
16208.86,SOUTH GRANGE MEDICAL GROUP PRACTICE,-1.166506,54.56995500000001
3546.740000000001,QUEEN STREET MEDICAL PRACTICE,-3.589063,54.546567
1439.75,OLD FORGE SURGERY,-2.079758,54.623041
986.2,EGTON SURGERY,-0.7552379999999999,54.445555
3387.49,VESPER ROAD,-1.615337,53.827318
3693.4200000000014,GLADSTONE HOUSE SURGERY,-1.307927,52.968816
541.2700000000002,THE PRACTICE-SAYEED,-1.106589,52.63081700000001
5617.7,GLEADLESS MEDICAL CENTRE,-1.451325,53.356551
5140.26,TRAMWAYS AND MIDDLEWOOD MEDICAL CENTRES,-1.515268,53.418958
1900.04,LANGSTONE WAY SURGERY,-0.210815,51.606981
708.3,ELMTREES SURGERY,-0.335968,51.550787
10084.99,TULASI MEDICAL CENTRE,0.12448900000000002,51.561005
1994.65,THE MILLER PRACTICE,-0.092165,51.551419
5301.710000000001,WARRIOR SQUARE SURGERY,0.562007,50.852963
7186.820000000002,SNODLAND MEDICAL PRACTICE,0.441488,51.326053
1715.71,SUTTON VALENCE GROUP PRACTICE,0.59403,51.211195
