total_cost,name,longitude,latitude
54835.58999999996,GREEN PRACTICE,-0.371755,51.468263
60529.42999999992,THE ABBOTSBURY PRACTICE,-0.397406,51.579266
150364.82000000007,NUFFIELD HOUSE HEALTH CENTRE,0.112828,51.774439
114219.50999999992,MARTINS OAK SURGERY,0.483675,50.91716
56189.16,THE GLEBE FAMILY PRACTICE,0.544473,51.383164
98036.14999999985,MALLING HEALTH BLUE SUITE,0.609995,51.363412
117035.42999999985,KNOLL MEDICAL PRACTICE,0.101068,51.375411
42361.92,CLIFTON RISE FAMILY PRACTICE,-0.03143300000000001,51.476334
39817.34999999997,BLACKFRIARS MEDICAL PRACTICE,-0.105775,51.505364
210341.60999999987,HASLEMERE HEALTH CENTRE,-0.707586,51.092107
129024.62000000002,FARNHAM DENE MEDICAL PRACTICE,-0.777405,51.200549
91072.46999999983,THE DORCHESTER RD SURGERY,-2.457512,50.625193
44708.32999999992,CRONDALL NEW SURGERY,-0.858386,51.237211
74546.76999999996,ST.JAMES SURGERY,-1.989956,51.352926
29457.149999999965,CORDWALLIS ROAD SURGERY,-0.7240259999999998,51.528097
131318.33999999988,BOTLEY MEDICAL CENTRE,-1.299442,51.753753
65398.71999999999,ST. MARY'S SURGERY,-2.479869,51.326082
119027.29999999994,QUEEN'S MEDICAL CENTRE,-4.057196,51.080161
217180.74000000046,BRUNEL MEDICAL PRACTICE,-3.516948,50.479349
55420.96999999997,EXMOOR MEDICAL CENTRE,-3.544825,51.038507
39964.70999999999,CHADDESLEY SURGERY,-2.158038,52.361961
201491.6599999999,THE MANOR PRACTICE,-1.8236169999999998,52.55816
47895.47999999991,CHARLES ROAD SURGERY,-1.850621,52.4722
98993.63,DUNCAN STREET PRIMARY CARE PARTNERSHIP,-2.126602,52.57346999999999
105967.48000000004,DR JUDE'S PRACTICE - RIVERSIDE,-2.943016,53.398876
79050.68000000005,WESTOVER SURGERY,-5.07501,50.148927
22348.72,LANGTHORNE SHARMA FAMILY PRACTICE,0.0021,51.555415
31035.209999999992,THE MANOR PARK PRACTICE,0.057339,51.55393
137693.1299999999,WEST MEADS SURGERY,-0.701481,50.788299
158.39,GP DERMATOLOGY SERVICE (CONCORDIA),-0.08430999999999998,51.500087
46534.91999999999,TRENTHAM MEWS MEDICAL CENTRE,-2.189898,52.970452
43295.7,WILLESDEN GREEN SURGERY,-0.216091,51.553773
13620.009999999998,NATIONAL SOCIETY FOR EPILEPSY,-0.551146,51.62127
17946.860000000022,THE SUMMITT PRACTICE,0.04536,51.539588
5020.0,SELDOC HEALTHCARE,-0.283378,51.412517
28.78,WESTMINSTER DIABETES CENTRE,-0.169323,51.524736
157.33999999999997,MOSAIC,-2.160927,53.406906
691.72,PARKFIELD (H) MINOR EMERGENCY,-3.00005,53.363076
2.78,HV SCARBOROUGH,-1.517573,53.993807
1173.1599999999996,PRUH URGENT CARE CENTRE,0.059146,51.366243
78.15,CANNOCK MINOR INJURIES UNIT,-2.030614,52.693241
2509.5300000000025,PBORO WEEKEND HOURS GP PILOT,-0.279386,52.583921
3283.9399999999987,WIDNES GP EXTRA SERVICE,-2.735705,53.362158
4798.549999999998,ADDACTION HARTLEPOOL,-1.206132,54.684625
6131.39,ADDACTION REDCAR & CLEVELAND - REDCAR,-1.059041,54.617383
70.69,MALLING CLUSTER,0.277462,51.194717
71542.4600000001,DR THORNILEY-WALKER & PARTNERS,-1.460703,54.949762
29222.43999999999,DR U AKBAR,-1.777945,53.803569
147864.61999999994,BROOKROYD HOUSE,-1.67818,53.707224
64769.18999999996,AIREBOROUGH FAMILY PRACTICE,-1.684881,53.866663
149219.59000000014,BUSHLOE SURGERY,-1.116921,52.583283
156488.55999999988,THE BURBAGE SURGERY,-1.361645,52.53009599999999
20448.899999999994,PASLEY ROAD HEALTH CENTRE (TK KHONG),-1.146741,52.591287
195242.31000000023,NETTLEHAM MEDICAL PRACTICE,-0.476253,53.262865
30819.140000000014,HAROLD STREET MEDICAL CENTRE,-1.492871,53.393121
43452.59999999996,UNIVERSITY HEALTH SERVICE HEALTH CENTRE,-1.482709,53.380323
90107.74999999996,LEISTON SURGERY,1.575953,52.207708
83956.56000000003,HEATHFIELDE MEDICAL CENTRE,-0.179797,51.585238
82880.16999999994,BRENTFIELD MEDICAL CENTRE,-0.260251,51.550588
72292.41000000009,DR NAVIN KUMAR,0.70187,51.544989
31156.72,RUSTON STREET CLINIC,-0.027306,51.536264
125024.76999999995,SCHOOL HILL MEDICAL PRACTICE,0.012064,50.873469
150769.08999999994,MOTE,0.545625,51.246876
153613.54999999993,SHEPPERTON MEDICAL PRACTICE,-0.453153,51.396402
186841.79000000015,GRAYSHOTT SURGERY,-0.745626,51.110093
147076.45000000013,THE MANOR PRACTICE,-0.234983,50.835138
69622.30999999997,HAMPTON HILL MEDICAL CENTRE,-0.354892,51.427508
28573.249999999996,CLAPHAM JUNCTION MEDICAL PRACTICE,-0.173908,51.465969
42381.99000000007,OLD SCHOOL HOUSE SURGERY,-1.604408,51.376032
122420.41999999994,WINSCOMBE SURGERY,-2.830537,51.315196
362105.1599999997,PEMBROKE MEDICAL GROUP,-3.560246,50.445527
1026.85,ST PETER'S URGENT TREATMENT CENTRE,-0.52706,51.377832
37613.07000000002,PRIORY ROAD SURGERY,0.589253,50.860828
219501.91000000024,SWANSCOMBE HEALTH CENTRE,0.28731,51.424657
62608.81999999999,ELTHAM PARK SURGERY,0.061023,51.4547
82977.62000000005,JAMES O'RIORDAN MEDICAL CENTRE,-0.212686,51.385157
270341.22999999963,WISTARIA & MILFORD SURGERIES,-1.547285,50.760041
53531.27000000001,27 BEAUMONT STREET,-1.26216,51.755081
56289.11999999996,WIDCOMBE SURGERY,-2.354321,51.376371
135276.7500000001,ST LUKES MEDICAL CENTRE,-3.517636,50.394313
68179.77999999998,FRITHWOOD SURGERY,-2.162379,51.729707
126549.77999999998,HILLVIEW MEDICAL CENTRE,-1.951153,52.305568
111313.2399999998,GORDON STREET SURGERY,-1.644613,52.810998
67032.48999999993,LONGTON MEDICAL CENTRE,-2.770123,53.417492
91390.20999999985,PRIMROSE SURGERY,-2.357311,53.456159
122685.71999999993,DR AHMAD & PTNRS,-2.595925,53.522279
51498.91000000004,THE OLD DAIRY HEALTH CENTRE,-0.091201,51.436586
92527.20999999979,THE ISLAND SURGERY,0.591014,51.520226
84755.93999999992,JS MEDICAL PRACTICE,-0.078706,51.589103
103442.69999999994,GATEWAY PRIMARY CARE,-1.352431,53.429997
3003.400000000001,BRADFORD DERMATOLOGY SERVICE,-1.781103,53.830481
36416.87,ESSINGTON MEDICAL CENTRE,-2.056915,52.63194
45911.68999999998,SUMMERFIELD GP SURG & URGENT CARE CENTRE,-1.937353,52.487686
33936.380000000034,HAVERING CCG,0.179796,51.579247
1629.5000000000002,THE EDWIN LOBO UNIT,-0.450138,51.918004
459.69,MUSCULOSKELETAL INTERFACE SERVICE,-2.845905,51.437919
187.76,WF OA CMHT,-2.261161,52.386056
58498.43,THE WILLASTON SURGERY,-3.011643,53.292908
966.3999999999999,SOUTH KENT GROUP,1.118942,51.075872
1919.3,EPUT TISSUE VIABILITY,0.12393,51.704295
6668.200000000002,SUTTON COMMUNITY SERVICES,-0.183642,51.380313
7744.5300000000025,WHITTINGTON HEALTH (ISLINGTON),-0.139066,51.566482
44583.06999999999,WYRE FOREST COUNTYWIDE NURSES,-2.244954,52.387785
84.94,ST MICHAELS HOSPICE,-1.518091,53.977242
8107.260000000002,URGENT CARE CENTRE NORTHWICK PARK HOSP,-0.322037,51.575407
49.96,QVM HOSPITAL,-0.222867,51.827957
347.99000000000007,SLEAFORD EXTENDED ACCESS K2,-0.406507,52.997784
90320.99000000006,STONELEIGH SURGERY,-2.770704,54.227277
46626.27999999999,BROWNEY HOUSE SURGERY,-1.670679,54.800313
144894.3799999999,TOWNHEAD SURGERY,-2.276903,54.070534
46122.26000000002,HORNE STREET SURGERY,-1.871717,53.725678
98241.20000000014,HONLEY SURGERY,-1.791936,53.602386
144907.58999999994,GOSBERTON MEDICAL CENTRE,-0.159263,52.869915
125829.98999999995,THE MANOR SURGERY,-1.216371,52.925036
71503.91000000005,PROSPECT MEDICAL PRACTICE,1.285656,52.643921
116231.97000000002,THE GARDEN CITY PRACTICE,-0.209287,51.797151
78411.0500000001,MAPESBURY MEDICAL GROUP,-0.209473,51.551496
111094.41999999981,RIVERMEAD GATE MED.CTR.,0.472887,51.740849
49776.96000000002,ROMAN WAY MEDICAL CENTRE,-0.10550599999999999,51.544561
46716.93999999999,CHOLMLEY GARDENS SURGERY,-0.195423,51.552261
109336.66000000015,ESSEX LODGE,0.026685000000000004,51.527915
95744.65999999992,GROVELANDS MEDICAL CENTRE,-0.112028,51.620685
221987.0799999997,HIGH GLADES MEDICAL CENTRE,0.551301,50.878354
117417.51999999995,ST JAMES' SURGERY,1.315702,51.128516
59097.310000000056,OXSHOTT MEDICAL PRACTICE,-0.360843,51.333099
126483.05000000008,BRIDGE MEDICAL CENTRE,-0.166439,51.117364
80263.87999999993,LAVENDER HILL GROUP PRACTICE,-0.15683,51.466044
135348.60999999975,THE CRANBORNE PRACTICE,-1.9192779999999998,50.919773
152378.36999999968,ST.MARY'S SURGERY,-1.397475,50.905746
95782.07,NEW FOREST MEDICAL GROUP,-1.576665,50.81471
125803.92000000016,SWALLOWFIELD MEDICAL PRACTICE,-0.958531,51.378289
96311.19999999987,CHERRYMEAD SURGERY,-0.700228,51.608271
153094.77000000016,HORFIELD HC,-2.576275,51.489998
75548.48000000003,CARNON DOWNS SURGERY,-5.091905,50.22345
61378.57999999993,WHITE HOUSE SURGERY,-1.705957,51.983554
74190.51000000002,SPRINGMEAD SURGERY  CHARD,-2.967972,50.869562
103951.06000000004,CHURCH STRETTON MEDICAL CENTRE,-2.806169,52.537286
99853.10999999988,DR KS UPTON'S PRACTICE,-1.986582,52.988358
126755.6799999998,KINGSWAY MEDICAL CENTRE,-1.289009,54.606459
88407.37000000005,WARWICK ROAD SURGERY,-2.928541,54.893858
75152.47000000002,PRUDHOE MEDICAL GROUP,-1.853822,54.96186
126140.5999999999,TALBOT MEDICAL CENTRE,-1.440661,54.973054
79165.89000000003,NOVA SCOTIA MEDICAL CNTR,-1.373051,53.747561
98230.84000000004,ARTHUR MEDICAL CENTRE,-1.422636,53.001503
118664.64999999988,WOODVILLE SURGERY,-1.5365030000000002,52.770685
141586.6300000002,NEWBOLD VERDON MED.PRACT.,-1.34334,52.634612
107906.5199999998,PORTLAND MEDICAL PRACTICE,-0.539074,53.22371999999999
175340.75999999983,TORKARD HILL MEDICAL CTRE,-1.207389,53.029901
48596.31000000002,BAKERSFIELD MEDICAL CENTRE,-1.104957,52.960219
84103.7500000001,HIGH STREET PRACTICE,-1.458313,53.597926
104410.12,VILLAGE SURGERY,-1.251934,53.39421
22230.000000000004,ALLENBY CLINIC,-0.376261,51.531514
273598.82,DR PUZEY DR KOTHARI AND DR NANDA,0.705992,51.582107
77528.50999999992,DR BAKER & PARTNERS,0.548167,51.570733
37149.61000000005,INGREBOURNE MEDICAL CENTRE,0.210579,51.600308
64852.39000000001,THE ORDNANCE UNITY CENTRE FOR HEALTH,-0.039073,51.672653
54738.39000000002,CROUCH HALL ROAD SURGERY,-0.127301,51.579178
167679.23999999985,CENTRAL SURGERY,-0.299929,51.390825
163296.62999999983,ST PAUL'S SURGERY,-1.32139,51.065963
87468.69000000009,SHEET STREET SURGERY,-0.605507,51.479648
210984.9600000003,HEDENA HEALTH,-1.204547,51.76203
68264.04999999996,BLOXHAM SURGERY,-1.372977,52.018108
130162.86999999994,KINGTON MEDICAL PRACTICE,-3.022556,52.199361
200125.67999999973,SEVERN FIELDS MEDICAL PRACTICE,-2.721619,52.728047
43692.74000000006,SELLY OAK HEALTH CENTRE,-1.939144,52.438251
241889.33000000022,PEELHOUSE MEDICAL PLAZA,-2.72256,53.372135
169224.96999999988,CUMBERLAND HOUSE SURGERY,-2.990437,53.638743
83242.2199999999,LANE ENDS SURGERY,-2.727014,53.770173
25611.71000000001,HOLLINS GROVE SURGERY,-2.477472,53.705346
85116.76999999997,WHITTAKER LANE MED CENTRE,-2.268645,53.528488
99591.75000000013,WEST GORTON MEDICAL PRACTICE,-2.203859,53.46720500000001
34516.79000000004,OLDHAM FAMILY PRACTICE,-2.116945,53.543824
44304.569999999934,SHAY LANE MEDICAL CENTRE (PATEL),-2.31556,53.372189
1011.0399999999997,AT HOME SERVICE,-0.10603,51.438104
71550.28999999988,NMP CASTLE POINT AND ROCHFORD CCG,0.702782,51.583955
928.0899999999997,MFT CHILDRENS COMMUNITY SERVICES,-2.25528,53.390625
5527.500000000001,NON MEDICAL PRESCRIBERS,-0.8019889999999998,51.797983
5465.549999999998,WYRE FOREST ADMISSION PREVENTION TEAM,-2.261161,52.386056
7771.939999999998,GP HUBS - GP HEALTH PARTNERS LTD,-0.266331,51.334184
44.040000000000006,HEALTH HARMONIE GYNAECOLOGY,-1.922375,52.471325
159.52,SALFORD ACUTE HOME VISITING SERVICE,-2.33763,53.484827
340.57,NORTH COTSWOLDS IMPROVED ACCESS,-2.239997,51.862659
1009.02,COMMUNITY TISSUE VIABILITY SERVICE,-2.681273,53.496386
247.95,EXTENDED ACCESS PCD TICKHILL SURGERY,-1.110773,53.43304499999999
231645.74,BIRTLEY MEDICAL GROUP,-1.576441,54.891881
168568.96999999986,THE LEEDS ROAD PRACTICE,-1.535156,53.980466
70406.55999999995,APOLLO COURT MEDICAL CENTRE,-1.524816,53.542364
125631.12999999989,THE LAKESIDE PRACTICE,-1.148909,53.61549599999999
98855.68999999983,FOXHILL MEDICAL CENTRE,-1.501327,53.429911
58166.42999999997,WESTWOOD CLINIC,-0.269054,52.591395
91323.41000000015,THEOBALD MEDICAL CENTRE,-0.285584,51.661381
80926.63000000003,SUDBURY & ALPERTON MEDICAL CENTRE,-0.298046,51.536916
9504.999999999987,THE SURGERY,-0.184519,51.497627
178741.04000000004,CHURCHILL MEDICAL CENTRE,-0.018466,51.618226
147752.3500000002,THE CHESTERFIELD DRIVE PRACTICE,1.132012,52.07623
141700.03999999992,COMBS FORD SURGERY,0.995999,52.180181
66812.82999999997,CAULDWELL MEDICAL CENTRE,-0.472495,52.128265
83575.87000000011,PRIORY MEDICAL CENTRE,-0.50567,52.167181
87675.8900000001,HILLVIEW SURGERY,-0.318331,51.540536
38713.819999999934,DR HAFFIZ,-0.119262,51.539321
36204.62000000003,SANDRINGHAM PRACTICE,-0.067207,51.547773
15180.409999999993,ESK ROAD MEDICAL CENTRE,0.024266,51.522454
54110.89999999999,MONTPELIER SURGERY,-0.149079,50.827148
97498.31000000014,THE AVENUE SURGERY,-0.113425,50.844357
254931.33,REACH HEALTHCARE,0.52408,51.337756
64105.40999999992,SELLINDGE SURGERY,1.002785,51.103536
130199.51000000015,LAKESIDE MEDICAL,0.122454,51.496518
101571.36000000007,CAMBERLEY HEALTH CENTRE,-0.754069,51.324435
200481.38000000003,HARBOUR VIEW HEALTHCARE,-0.27437,50.833817
124434.6299999999,NEW POND ROW SURGERY,-0.322292,50.824911
54281.04999999998,FLOOD (ESSEX HOUSE),-0.247469,51.472541
184613.4099999999,WILSON PRACTICE,-0.966958,51.153736
52155.140000000065,WOLLASTON AND BOZEAT SURGERIES,-0.674311,52.252471
131697.19000000012,LEAP VALLEY MEDICAL CENTRE,-2.487852,51.496541
135434.80000000002,KINGSTEIGNTON MEDICAL PRACTICE,-3.597395,50.54898
117723.41,ST.LEVAN SURGERY,-4.177328,50.383921
217590.4499999999,STIRCHLEY MEDICAL PRACTICE,-2.433777,52.655188
114314.63999999994,LUDLOW - PORTCULLIS,-2.715958,52.368905
97639.94000000008,BARTON,-1.725223,52.761751
53673.87000000001,RED LION SURGERY,-2.030614,52.693241
11596.79,DADHANIA SURGERY,-1.491047,52.405815
35707.71,ST JAMES MEDICAL PRACTICE1,-2.097323,52.514234
26876.47,HAWTHORNS MEDICAL CENTRE,-1.967268,52.501507
34770.80999999998,BROWNLOW AT MARYBONE,-2.987806,53.411269
81126.54000000012,MORETON MEDICAL CENTRE,-3.110005,53.39886
62527.20000000004,LITTLE LEVER HEALTH CENTRE 1,-2.370624,53.55981800000001
53136.18999999995,WOODBANK SURGERY,-2.308802,53.60507
85418.60999999999,DRS HANIF &  BANNURU,-2.184157,53.484308
18894.43,4/LOWER BROUGHTON MEDICAL PRACTICE,-2.258808,53.49359
143898.5899999998,BRINNINGTON SURGERY,-2.132367,53.427651
94242.88,CONWAY ROAD MEDICAL PRACTICE,-2.303561,53.417873
54501.73999999998,DESFORD MEDICAL CENTRE,-1.296116,52.627473
17396.710000000006,DR VIJE'S SURGERY,-1.650877,52.617569
27209.50000000001,HIGHFIELD HEALTH,-1.395746,50.932777
719.74,ALICE HOUSE HOSPICE,-1.224421,54.704049
11589.979999999998,DR R SHARMA'S PRACTICE,-0.096482,51.499125
26958.17000000001,HALF PENNY STEPS HEALTH CENTRE,-0.206044,51.526213
249327.8299999996,NORTON MEDICAL CENTRE,-1.308737,54.588737
529376.4000000003,CARLISLE HEALTHCARE,-2.930647,54.893714
30355.609999999993,PEEL PARK SURGERY,-1.731903,53.806791
112929.74999999994,MAYBUSH MEDICAL CENTRE,-1.489249,53.670273
116155.43999999989,THE GOLDEN BROOK PRACTICE,-1.272531,52.901553
130008.19999999994,IBSTOCK HOUSE SURGERY,-1.401818,52.684869
123431.76999999995,RUSKINGTON SURGERY,-0.400977,53.048226
151920.31999999983,BARNBY GATE SURGERY,-0.8049699999999999,53.074931
86498.9399999999,DUKE MEDICAL CENTRE,-1.455657,53.378576
41357.41000000001,FALKLAND HOUSE SURGERY,-1.514423,53.359728
169673.77000000002,PRIORY FIELDS SURGERY,-0.179856,52.332272
62542.01999999995,BOURN SURGERY,-0.063404,52.193155
95886.20999999992,COACHMANS MEDICAL PRACTICE,-0.203875,51.096335
107697.59999999996,MILTON KEYNES VILLAGE SURG,-0.697865,52.043891
79959.65999999993,DRS DE ROSA & WILLIAMS,-2.167857,52.569265
13127.659999999998,COMMUNITY DRUG TEAM,-2.164111,53.409517
2355.5699999999993,CHILD AND FAMILY SERVICES,-1.5080049999999998,52.413401
2294.2999999999993,GPSI PALLIATIVE CARE,-3.007792,53.502483
225.25,COMMUNITY PAEDIATRICIANS-SOUTHWARK,-0.081097,51.474092
464.3399999999999,COMMUNITY CARDIOLOGY SERVICE,0.15356,51.455555
2191.4100000000008,INTERMEDIATE CARE-GP SERVICE,-2.130253,53.548188
725.02,THE PRACTICE OPHTHALMOLOGY,-1.245572,53.704968
15353.009999999993,BASSETLAW HEALTH PARTNERSHIP,-0.950634,53.325451
3996.45,DMC COMMUNITY DERMATOLOGY SFSS,-2.98492,53.449136
4.66,DEPARTMENT OF PODIATRIC SURGERY,-1.143101,53.130244
3.5,MERIDIAN HOUSE - AIREWHARFE CMHT,-1.895521,53.873987
774.59,COMMUNITY WARFARIN SERVICE,-1.467656,52.523302
155584.16000000027,FIELDHOUSE MEDICAL GROUP,-0.112579,53.564436
174126.75999999998,HEREWARD MEDICAL CENTRE,-0.380913,52.768626
67869.6100000001,SAXON CROSS SURGERY,-1.273642,52.931099
243317.54000000004,PENISTONE GROUP PMS PRACTICE,-1.630732,53.523565
79998.00000000007,THE NAYAR PRACTICE,-1.1933790000000002,53.480824
50025.14000000002,DR RAOLU'S PRACTICE,-1.204348,53.423549
151790.34999999998,THE PARK SURGERY,1.7292759999999998,52.606218
116839.53999999988,EAST BARNET HEALTH CENTRE,-0.166424,51.646339
58000.70999999996,LANFRANC MEDICAL CENTRE,-0.332746,51.561586
34054.62,THE TUDOR HOUSE MEDICAL CENTRE,-0.266689,51.564495
96959.41999999984,LABURNUM HEALTH CENTRE,0.151208,51.560662
21420.180000000026,NEW NORTH HEALTH CENTRE,-0.091592,51.537534
95728.33999999998,HOVE MEDICAL CENTRE,-0.19539,50.845024
63644.61999999993,PRIMECARE PMS (SOUTH STREET),-0.012448,51.476194
53565.54,THE GARDENS SURGERY,-0.066803,51.46061
120914.57999999989,FORT HOUSE SURGERY,-0.412578,51.37881
201990.53999999983,OXTED HEALTH CENTRE,9.9e-05,51.257686
167795.11000000004,THE WRYTHE GREEN SURGERY,-0.171312,51.371749
91270.30999999987,THE LAWN MEDICAL CENTRE,-1.7619029999999998,51.547821
92333.75999999986,NORDEN HOUSE SURGERY,-0.882727,51.944924
20972.000000000025,ST MARY'S HEALTH CENTRE,-6.308668,49.911605
130250.02999999975,TOPSHAM SURGERY,-3.462097,50.683825
124716.84,BAMPTON SURGERY,-1.55034,51.729032
139268.39999999994,WOODLANDS MEDICAL CENTRE,-1.258898,51.603637
211016.4500000004,PETROC GROUP PRACTICE,-4.943163,50.430739
183490.32000000004,TAVYSIDE HEALTH CENTRE,-4.145976,50.545824
178389.02999999968,EAST QUAY MEDICAL CENTRE,-3.000471,51.135669
50999.82999999997,BREDON HILL SURGERY,-2.104857,52.030166
89972.77999999993,HAGLEY SURGERY,-2.144103,52.420783
50786.84000000004,KNOCKIN MEDICAL CENTRE,-2.993042,52.79343
11377.62,YARDLEY MEDICAL CENTRE,-1.828397,52.463189
75447.54999999997,PHOENIX FAMILY CARE,-1.51543,52.390005
325760.86,ASHTON MEDICAL GROUP,-2.089184,53.489361
155699.88000000027,BRADSHAW MEDICAL CENTRE,-2.688594,53.537889
24227.059999999965,SAVILE TOWN MEDICAL CTR.,-1.625804,53.68222900000001
34249.50000000002,LIMEFIELD ROAD MEDICAL PRACTICE,-2.26047,53.506995
78811.41,THE ORCHARD SURGERY,-0.324352,50.828062
9424.95,THE MATTHEWMAN PRACTICE,-0.149281,51.545823
6121.98,COMMUNITY PAEDIATRICIANS,-2.214271,53.470746
810.3800000000003,RICHARDSON COMMUNITY HOSPITAL,-1.9161529999999998,54.545708
630.48,CHILDREN'S HOSPICE SOUTH WEST,-4.116888,51.069795
1857.41,DR WRIGHT ED CLINIC (BELMONT),-1.52816,54.786148
24854.159999999985,LAKESIDE SURGERY,-1.310932,53.52812
8872.089999999998,BSUH DERMATOLOGY SERVICE,-0.115477,50.83046
5468.709999999999,DMC COMMUNITY DERMATOLOGY RBWF,-2.059728,52.337612
34399.63999999997,THE DANBY PRACTICE,-0.907874,54.468317
77439.83999999988,VALLEY VIEW SURGERY,-1.731903,53.806791
162594.10999999993,THE NORTH LEEDS MEDICAL PRACTICE,-1.534037,53.843332
130887.31,IVY GROVE SURGERY,-1.402822,53.042198
51208.17999999994,FRIAR GATE SURGERY,-1.485624,52.924816
129249.98999999989,NAVENBY CLIFF VILLAGES SURGERY,-0.526297,53.103518
85059.09000000005,THE LINDEN MEDICAL GROUP,-1.273642,52.931099
114262.78999999985,ASKERN MEDICAL PRACTICE,-1.148909,53.61549599999999
81475.65000000002,BUTE HOUSE MEDICAL CENTRE,-0.423966,51.880162
45957.66999999999,LICHFIELD GROVE SURGERY,-0.19329,51.599604
107189.58000000007,GURU NANAK MEDICAL CENTRE,-0.387151,51.511774
266.93999999999994,WESTMINSTER SCHOOL,-0.128107,51.498762
31847.520000000004,SOUTH GREEN SURGERY,0.430504,51.613411
37956.59,RICHMOND ROAD MEDICAL CENTRE,-0.065532,51.543051
103990.22000000002,THE LAWSON PRACTICE,-0.079465,51.533775
88039.06999999992,LEYTON HEALTHCARE 4TH FLOOR,-0.013313,51.559894
35836.19000000003,FRANCIS ROAD MEDICAL CENTRE,-0.003831,51.561975
162333.12999999983,OLD SCHOOL SURGERY,0.100722,50.772062
43050.87000000004,UNIVERSITY MEDICAL CENTRE,1.062127,51.296198
66320.72000000002,ST STEPHENS HOUSE SURGERY,-0.305726,51.31772
51649.13,PARK VIEW HEALTH PARTNERSHIP,-0.137252,50.961825
126432.86999999988,LAMBTON ROAD MEDICAL PRACTICE,-0.231169,51.411219
184218.39,LORDSHILL HEALTH CENTRE,-1.448733,50.940999
92919.21000000004,BYFIELD MEDICAL CENTRE,-1.242893,52.174071
40594.610000000015,CAMBRIDGE HOUSE,-2.144827,53.024433
113995.47000000006,ARBURY MEDICAL CENTRE,-1.497961,52.51662
49309.77,CHURCH LANE - KHAN,-1.793962,52.487056
95056.65999999995,SOHO ROAD PRIMARY CARE CENTRE,-1.934945,52.503094
28354.32,PARK HOUSE SURGERY,-1.942965,52.54446
33552.11000000005,BEECHDALE CENTRE,-2.007339,52.600867
141659.90999999995,HOLES LANE MEDICAL CENTRE,-2.545107,53.399828
82895.04000000008,LACHE HEALTH CENTRE,-2.914326,53.173615
73013.68,DINGLE PARK PRACTICE,-2.972885,53.38633
202801.55999999933,RAINBOW MEDICAL CENTRE,-2.705931,53.435389
38353.56000000001,BEECHWOOD SURGERY,-3.009057,53.871568
135855.06999999995,HEYWOOD HEALTH,-2.239335,53.58736999999999
67923.80999999984,THE GILL MEDICAL PRACTICE,-2.398384,53.524288
78245.59999999987,GLOUCESTER HOUSE MEDICAL CENTRE,-2.352599,53.447337
38658.09999999999,PAK HEALTH CENTRE,-1.856091,52.490749
26164.059999999994,WALFORD STREET  TIVIDALE,-2.059752,52.513192
126585.42999999993,LITTLE LONDON SURGERY,-1.979284,52.574984
70261.02000000005,STRETTON MEDICAL CENTRE,-2.577017,53.339489
21402.250000000004,THE DALE MEDICAL PRACTICE,-2.154239,53.611617
31127.14000000004,WALNUT ST MED CTR (LEICESTER MED GROUP),-1.138855,52.624601
47214.64000000002,FIR TREE,-2.878691,53.44930600000001
7951.670000000003,CAMBRIDGE ACCESS SURGERY,0.138701,52.20875
22.0,GATESHEAD C.A.S.H SERVICES,-1.603663,54.962972
4842.3,NELPCT OUT OF HOURS SERVICE,-0.096229,53.544858
1020.0799999999997,ANGEL LODGE,-1.50929,53.683308
61637.75999999997,ETTINGSHALL MEDICAL CENTRE,-2.092879,52.570364
2810.720000000001,WALK IN CENTRE (WIC),-1.784934,51.563016
591.9000000000002,PRIMARY CARE PRESCRIBING - SCH EMPLOYED,-1.490629,53.380599
37584.20999999998,NT&H COMM NURSES DN,-1.227837,54.702398
6580.110000000002,HP NMP'S NN & E CCG,-1.143101,53.130244
6.61,ADULT COMMUNITY NURSING,-0.607463,51.241016
186.03,PRIMARY CARE OPTOMETRY,1.14971,51.79169
25.56,SOUTH WARK COMM RECOVERY TEAM IPU 10-17,-1.530545,52.285479
24805.96,WARWICKSHIRE DRUG & ALCOHOL RECOVERY,-1.529997,52.283202
1488.85,ADULT ADHD WIGAN/LEIGH NMP,-2.606862,53.42951600000001
228.37999999999997,DONCASTER SOUTH ADULT CMHT,-1.146558,53.497488
64594.25000000002,RUSHEY MEAD HEALTH CENTRE,-1.103823,52.663187
12.13,THE PARALLEL,-2.426061,53.579828
116038.0399999998,ST ANN'S ROAD SURGERY,-0.08783399999999998,51.581428
119826.9,LEIGH FAMILY PRACTICE,-2.511927,53.493519
55294.24999999994,THE PRACTICE FELTHAM,-0.411086,51.446367
8664.83,DAWN CLINIC,-1.7272,51.538528
50.6,THE WESTBOURNE CENTRE,-1.9230029999999998,52.466075
69273.4,HENDON WAY SURGERY,-0.241873,51.579182
48832.32000000002,NHS FYLDE & WYRE CCG,-2.881037,53.789498
283.69,NT&H COMM MIDWIVES,-1.227837,54.702398
2205.47,SPECIALIST NURSE,-1.517573,53.993807
16.39,VIRGIN CARE SPECIALIST NURSING SHCCG,-0.7846419999999998,51.220491
107803.51,SOUTH COUNTY CONTINENCE PRESCRIPTION SER,-1.273227,52.930792
8815.410000000002,TAURUS HEALTHCARE LTD,-2.71099,52.05708
251.2,TISSUE VIABILITY,-2.095555,52.599722
14155.889999999998,NC GPA PLUS,-1.152649,52.954624
375.8,THE FLOWERS HUB,-1.438061,53.418053
35487.76,CARTMEL SURGERY,-2.946985,54.199165
241833.8599999997,ALNWICK MEDICAL GROUP,-1.6967470000000002,55.410086
74476.63,NETHERFIELD HOUSE,-1.548435,55.063632
205277.18999999974,PRACTICE 3  MEDICAL CENTRE  BRIDLINGTON,-0.201064,54.084715
87157.36999999978,THE ALMONDBURY SURGERY,-1.751311,53.631868
38660.76000000002,NEWLAND SURGERY,-1.424247,53.695146
495813.75999999896,BEACON MEDICAL PRACTICE,0.331219,53.157472
26028.00999999999,GREENFIELDS MEDICAL CENTRE (YVS RAO),-1.168583,52.966506
86727.42,TREETON MEDICAL CENTRE,-1.354708,53.384994
164362.82999999993,MEADOWGREEN HEALTH CENTRE,-1.480804,53.326831
317114.2700000005,BOROUGHBURY MEDICAL CENTRE,-0.245486,52.577858
178593.66999999978,THE ROOKERY MEDICAL CENTRE,0.405573,52.245158
311.45,COMMUNITY MATRONS,-2.095555,52.599722
0.87,VIRGIN CARE (NORTH LINCS),-0.6524,53.592365
21812.48,COVENTRY SMS,-1.513076,52.41159
2271.99,IC24-THANET CCG OOH,0.891514,51.129106
1652.41,MID CLUSTER IAGPS,-1.9731169999999998,50.721987
90.37,AMBER VALLEY HEALTH,-1.3726,53.082351
27.12,CORNWALL IMPROVED ACCESS SCHEME,-5.097984,50.265937
66.6,DMC COMMUNITY DERM BRENT,-0.306785,51.549713
15.8,BDCT 0-19 CHILDRENS PH SERVICE,-1.788605,53.839675
1575.0200000000007,SJUH GPS IN A+E,-1.520359,53.806869
256.68,SMBC ADULT MH SERVICES,-1.543868,52.308511
169917.57999999984,CRUDDAS PARK SURGERY,-1.630965,54.968173
55211.74999999997,THE CHESTNUTS & HALLGATE SURGERY,-0.403621,53.778985
79053.37000000005,HAWORTH MEDICAL PRACTICE,-1.954883,53.831322
120237.32000000015,FIELDHEAD SURGERY,-1.854229,53.641358
153617.2700000001,CROFTON AND SHARLSTON MED PRAC,-1.427042,53.656573
202073.32,SHIRES HEALTHCARE,-1.215692,53.202513
74091.91000000003,ORCHARD SURGERY,-1.278154,52.836522
105886.61000000006,ST GEORGES MED PRACTICE,-1.132346,52.930754
32190.839999999967,WELBECK SURGERY,-1.147823,52.979645
125006.56000000006,WICKHAM MARKET MEDICAL CENTRE,1.363674,52.151842
63965.99000000002,TODDINGTON MEDICAL CENTRE,-0.530482,51.945856
53370.859999999964,THE RANDOLPH SURGERY,-0.186852,51.529819
55202.59999999996,DR YADAVA N PRACTICE,0.334586,51.476703
84491.41,ST.PAUL'S WAY MEDICAL CTR,-0.024483,51.517862
186824.8199999997,THORNHILLS MEDICAL PRACTICE,0.440958,51.300117
183164.37999999995,OAKLANDS HEALTH CENTRE,1.08253,51.069106
55725.33999999999,HEXTABLE SURGERY,0.182972,51.409182
149922.68000000025,LONGCROFT CLINIC,-0.192332,51.325314
76043.19,THE ROEHAMPTON SURGERY,-0.242431,51.451154
212992.66,WYKE REGIS & LANEHOUSE MEDICAL PRACTICE,-2.475127,50.594634
42629.79999999997,WHITCHURCH SURGERY,-0.8426209999999998,51.882174
55916.92000000002,CRICK MEDICAL PRACTICE,-1.135861,52.343212
156883.96999999994,KINGSWOOD HEALTH CENTRE,-2.499974,51.462895
88960.93999999986,THE VILLAGE SURGERY,-2.219972,53.033945
148978.2499999999,BIDDULPH VALLEY SURGERY,-2.178498,53.116111
23712.49999999999,RIVERSIDE SURGERY,-1.699518,52.632337
132044.73999999993,THREE VILLAGES MEDICAL PRACTICE,-2.146398,52.465406
69431.02000000006,STONE CROSS MEDICAL CENTRE,-1.982689,52.545444
182458.17,STOCKTON HEATH MED.CENTRE,-2.582161,53.37195
105854.5900000001,THE VILLAGE SURGERIES GROUP,-2.771265,53.124246
103392.1,ILEX VIEW MEDICAL PRACTICE,-2.280663,53.70081
113618.94999999988,SHIFA SURGERY,-2.475999,53.757295
125213.17999999988,CHORLTON FAMILY PRACTICE,-2.279717,53.443773
69176.60000000003,OLDHAM MEDICAL SERVICES,-2.111235,53.52535699999999
81790.25999999998,MELROSE SURGERY,-0.9598620000000002,51.451692
26099.050000000014,DR R KAPUR & PARTNERS,-1.119092,52.631036
89174.04000000014,LEADGATE SURGERY,-1.805988,54.860562
164595.73000000007,ACLE MEDICAL PARTNERSHIP,1.548667,52.640969
38925.21999999997,PEEL CROFT,-1.6339549999999998,52.799271
123424.48999999985,MARTONSIDE MEDICAL CENTRE,-1.220329,54.553175
68233.04000000001,ROCKLIFFE COURT SURGERY,-1.544074,54.483444
159841.37000000026,BEDLINGTONSHIRE MED.GROUP,-1.598682,55.1322
47533.27000000002,WESTBOURNE SURGERY,-1.8061,53.650937
109939.96000000012,MIDDLESTOWN,-1.600562,53.650545
46259.05999999999,DR WEBB AND PARTNERS,-1.308041,52.968251
99259.01,GOYT VALLEY MEDICAL PRACTICE,-1.983113,53.3305
44026.26999999996,CASTLE STREET MEDICAL CENTRE,-1.293753,53.229627
56024.79999999995,SILVERDALE MEDICAL CENTRE,-1.090548,52.672318
217656.68000000008,HOLT MEDICAL PRACTICE,1.116042,52.914476
115761.06999999992,HOWARD HOUSE SURGERY,1.349626,51.96149
173994.03999999983,PARKBURY HOUSE SURGERY,-0.334063,51.756766
61311.97,UXENDON CRESCENT SURGERY,-0.292809,51.572063
31580.450000000008,STERNDALE SURGERY,-0.221441,51.498326
53086.19000000004,AEGIS MEDICAL CENTRE,0.467525,51.57556
62625.63,AMWELL GROUP PRACTICE,-0.11081700000000001,51.528043
149181.96999999994,MEOPHAM MEDICAL CENTRE,0.359744,51.368901
80839.57999999987,WESTERHAM PRACTICE,0.070437,51.266465
59687.67999999999,FORGE CLOSE SURGERY,0.016555,51.377137
143424.51999999993,STEYNING HEALTH CENTRE,-0.329972,50.890666
149859.5,LAVANT ROAD SURGERY,-0.781051,50.853385
57329.51999999993,THORNTON & VALLEY PARK SURGERY,-0.120709,51.388871
76317.17999999985,JOHNSON (SHEEN LANE),-0.267239,51.465848
27987.39,BEGG PRACTICE,-0.179391,51.459968
89939.48000000003,MOORDOWN MEDICAL CENTRE,-1.874485,50.756212
58642.879999999896,LITTLEDOWN SURGERY,-1.833439,50.741638
115707.43999999992,EMMER GREEN SURGERY,-0.972861,51.483584
152353.42999999982,WOLVERTON HEALTH CENTRE,-0.814934,52.054197
263474.15000000014,ST THOMAS MEDICAL GROUP,-3.54518,50.714472
70745.28999999998,YOXALL,-1.7931740000000003,52.767984
45985.729999999974,GREET MEDICAL PRACTICE,-1.857778,52.453195
65399.62000000001,PEDMORE MEDICAL PRACTICE,-2.118211,52.457029
126658.95000000011,BOSWORTH MEDICAL CENTRE,-1.7536330000000002,52.480569
189024.7200000002,THE PARK MEDICAL PRACTICE,-2.739045,53.77018
31948.47999999997,CROSSWAYS PRACTICE,-3.023992,53.484655
37073.42000000001,THE OLD DISPENSARY,-1.987226,50.803427
36373.150000000016,STROUD GREEN MEDICAL CENTRE,-0.114328,51.570059
487.56999999999977,GPSI ENT SERVICE ROMAN GATE HUNTS,-0.173105,52.317665
2864.9800000000005,CBS OOH,-1.233579,53.134573
46.02,BRADFORD GPWSI EPILEPSY SERV,-1.779859,53.78091
2154.78,EASTBOURNE  HAILSHAM & SEAFORD OOH,0.891514,51.129106
1061.4800000000002,INTERMEDIATE CARE (THE PEELE),-2.259671,53.385779
276.2199999999999,LCW HOUNSLOW CCG OOH,-0.217218,51.522362
411.31,HERTFORDSHIRE COMMUNITY SEXUAL HEALTH,-0.201186,51.899822
3589.78,DERMATOLOGY-MERTON CCG,-0.210281,51.409967
319.39,HEALTH VISITORS,-1.155769,52.951832
137784.24999999994,WEST SOMERSET HEALTHCARE,-3.3186760000000004,51.161419
152366.97999999975,WEM AND PREES MEDICAL PRACTICE,-2.722566,52.859338
75139.86,ALL SAINTS SURGERY,-1.644121,52.794285
202004.57,CENTRAL SURGERY,-1.265473,52.371743
193961.94,OMNIA PRACTICE,-1.839082,52.475709
48552.48,SCHOOLACRE ROAD SURGERY,-1.785797,52.497659
131679.92000000007,DORRIDGE SURGERY,-1.752074,52.372757
125109.54,MORETON CROSS GROUP PRACTICE,-3.111975,53.403551
146776.0799999999,WITTON MEDICAL CENTRE,-2.507553,53.740232
23619.06000000003,WALMERSLEY ROAD MEDICAL PRACTICE,-2.289525,53.599849
86438.13999999993,WEST COMMON LANE TEACHING PRACTICE,-0.682441,53.57473100000001
25564.49999999999,QUEENS ROAD SURGERY,-1.474524,52.522119
35023.07000000003,BEVAN HEALTHCARE CIC,-1.753352,53.795581
72757.03,RIVERSIDE MEDICAL PRACTICE,-1.315584,54.56887
5463.660000000002,MEDICUS HEALTH PARTNERS-ENFIELD ISLAND,-0.016992,51.668586
3508.6399999999994,RESOURCE CENTRE,-0.356441,51.50598
1193.1999999999996,WORTLEY BECK CHILDRENS SERVICE,-1.601117,53.782448
16.13,HMP/YOI DRAKE HALL,-2.240835,52.878831
6684.359999999999,MERSEYCARE NHS TRUST,-2.826417,53.424035
146.56,JOSEPH COWEN HEALTH CARE CENTRE,-1.585714,54.975773
420.04,WARRINGTON CARE HOMES,-2.527537,53.414117
537.88,WHANTS COMM ENT,-0.08430999999999998,51.500087
143983.97000000035,RISING BROOK,-2.118782,52.787133
15818.210000000005,BLOOMSBURY SURGERY,-1.871892,52.49324300000001
67705.7799999999,ST JAMES MEDICAL PRACTICE2,-2.097323,52.514234
27011.68999999999,KHAN MEDICAL PRACTICE,-2.000799,52.613174
36174.93000000002,LINGHOLME HEALTH CENTRE,-2.744752,53.457769
224137.29000000012,PEEL HOUSE MEDICAL PRACTICE,-2.365995,53.75089200000001
53121.94000000002,ASHURST PRIMARY CARE,-2.772723,53.563208
154673.08999999962,RED BANK GROUP PRACTICE,-2.323706,53.560143
73389.00000000001,MARPLE BRIDGE SURGERY,-2.053323,53.400594
135983.94999999984,GRASMERE SURGERY,-2.511455,53.503236
105866.56000000008,GRAVESEND MEDICAL CENTRE,0.369986,51.443932
172843.91000000018,PEASE WAY MEDICAL CENTRE,-1.576495,54.618581
40290.72000000005,ELSDON AVENUE SURGERY,-1.525885,55.07062
50197.75999999993,DR WICKREMESINGHE SSG,-0.123521,51.469491
34916.17999999999,CPT WORTHING,-0.375414,50.817416
513807.9599999994,TELDOC,-2.435206,52.672614
287.1400000000001,COMMUNITY DIABETES CLINIC,-1.93389,52.489186
5833.200000000003,HAROLD WOOD WIC,0.225699,51.593184
43999.43999999998,CGL SERVICES,-0.8806699999999998,52.238217
44148.36999999999,HOUNSLOW CCG - HRCH (NMP),-0.326599,51.427449
11987.700000000004,LEARNING DISABILITIES SERVICE,-1.904396,52.412409
50101.17999999989,CROSLAND MOOR SURGERY,-1.809637,53.63841
23815.330000000016,SW INTEGRATED TEAM WORCESTER,-2.178135,52.192339
1894.78,SOUTH LAKES PRIMARY CARE SERVICES,-2.737133,54.312706
230.04,MIDDLESBROUGH 0-19 HCP,-1.517573,53.993807
12148.169999999998,CONSULTANT LED DERMATOLOGY SERVICE,-1.922375,52.471325
113067.90000000002,SOUTH EAST HANTS CGG CONTINENCE SERVICE,-1.17634,50.853776
207.01,CITY & HACKNEY COMMUNITY ENT SERVICE,-0.08430999999999998,51.500087
639.55,GP EXTENDED ACCESS - HARROGATE,-1.529793,53.996354
2.69,CRITICAL SUPPLY NIGHT STORE,-2.606862,53.42951600000001
86288.72999999997,THE ROSEBERRY PRACTICE,-1.292215,54.611726
159956.91000000006,ST ANDREW'S MEDICAL PRACTICE,-1.598213,54.699634
184878.7800000001,TANFIELD VIEW MEDICAL GROUP,-1.701373,54.869939
23513.27999999999,DR MITCHELL,-0.503581,53.72075
120793.99000000002,BEECH HOUSE SURGERY,-1.465892,54.010836
186266.85000000027,MANOR PARK SURGERY,-1.628914,53.814076
102469.61999999988,PARKSIDE SURGERY,-1.391868,53.097732
218537.35999999996,SPINNEY HILL MEDICAL CENTRE,-1.109212,52.637381
26027.000000000025,SPRINGFIELD MEDICAL CENTRE,-1.195502,53.003599
91254.10999999988,PARKGATE MEDICAL CENTRE,-1.342798,53.455454
89263.05000000002,BURWELL SURGERY,0.331841,52.273327
79847.4399999999,MARTLESHAM SURGERY,1.272068,52.061314
32868.52000000003,THE AVENUE SURGERY,-0.319031,51.518389
66273.85999999997,THE LILYVILLE SURGERY,-0.199155,51.47377
30329.31999999999,WEST LONDON MEDICAL CENTRE,-0.454699,51.525731
254481.11999999968,ST.JAMES SURGERY,1.147433,51.787326
68417.53000000001,WITHAM HEALTH CENTRE,0.642876,51.800559
31339.020000000044,QUEENS AVENUE PRACTICE,-0.147916,51.591852
120545.23999999985,SANDWICH MEDICAL PRACTICE,1.337364,51.274071
33475.82999999998,DR RHK SINHA'S PRACTICE,-0.103058,51.482668
29460.11000000001,THE ADDISCOMBE SURGERY,-0.061851,51.376293
115389.38000000008,ADELAIDE MEDICAL CENTRE,-1.475274,51.208539
261593.8599999997,THE CAMBRIDGE PRACTICE,-0.76565,51.254364
89539.17000000004,COLVILLE HEALTH CENTRE,-0.206231,51.515837
80211.92000000001,BRICKFIELDS SURGERY,0.605168,51.653143
70246.64999999997,TYNEMOUTH MEDICAL PRACTICE,-0.068331,51.586253
208702.3799999999,TRINITY MEDICAL CENTRE,-0.172008,50.831228
173837.05999999965,THE CEDARS SURGERY,1.403174,51.217619
64760.88,THE KINGS FAMILY PRACTICE,0.534548,51.377821
95389.93000000007,FOUNTAIN PRACTICE,-0.252307,51.350378
57128.130000000056,ST ALBANS MEDICAL CENTRE,-0.302479,51.42195
175850.67999999993,ORCHID HOUSE SURGERY,-1.894499,50.801788
219167.8499999996,THE HADLEIGH PRACTICE,-1.993525,50.761018
283488.0400000003,THREE CHEQUERS MEDICAL PRACTICE,-1.794625,51.071924
217167.05999999953,WEAVERS MEDICAL,-0.733538,52.401531
140662.13999999996,NUFFIELD HEALTH CENTRE,-1.486793,51.786441
191554.55000000022,BARTON SURGERY,-3.473818,50.579848
206317.32000000012,BIDEFORD MEDICAL CENTRE,-4.211785,51.017201
155486.64999999982,CORBETT MEDICAL PRACTICE,-2.148792,52.263269
329145.4599999996,THE WESTGATE PRACTICE,-1.821176,52.683537
66895.09000000003,COBRIDGE SURGERY,-2.187008,53.035377
39050.30000000002,BURBURY MEDICAL CENTRE,-1.9103740000000002,52.502215
132361.85,PLECK HEALTH CENTRE,-1.9980380000000002,52.574248
44851.07999999993,CORNERSTONE SURGERY,-2.724149,53.454211
27945.609999999964,HIGHER HEYS SURGERY,-2.394094,53.740865
151259.5299999998,ALBION MEDICAL PRACTICE,-2.088476,53.48960400000001
178590.48999999993,DELAMERE MEDICAL PRACTICE,-2.307365,53.450887
36442.26999999997,240 WEXHAM ROAD,-0.57838,51.516902
61176.58999999987,LONGFIELD MEDICAL PRACTICE,-2.28357,53.533828
143872.58000000005,THISTLEMOOR MEDICAL CENTRE,-0.254566,52.595274
28540.359999999993,PALACCI (CASTELNAU),-0.238274,51.476873
48320.81000000002,CANTERBURY HEALTH CENTRE,1.082981,51.274249
347.62000000000006,GP EXTENDED HOURS,-2.597522,53.389256
30311.32999999999,BANBURY HEALTH CENTRE,-1.334014,52.062032
56534.35,BRERETON SURGERY,-1.924317,52.747482
48510.41000000005,THE LAWNS SURGERY,-0.502907,50.807746
84899.21000000006,OAK TREE HEALTH CENTRE,-1.2409629999999998,51.614986
73224.15999999996,THE TRINITY MEDICAL PRACTICE,0.760305,51.684982
1684.7100000000007,DERMATOLOGY CLINIC,-2.486748,53.750552
68726.77999999993,SOHO HEALTH CENTRE,-1.934945,52.503094
87.18000000000002,ST RAPHAEL'S HOSP (SUTTON),-0.220816,51.37886
435.1700000000001,ADULT LEARNING DISABILITY SERVICE,-1.484449,52.444687
504.83,BARNET COPD SERVICE,-0.271242,51.606493
42.67,WHHFT COMM'Y DIABETES SERVICE  ST HELENS,-2.610717,53.393973
1479.2300000000007,BECKENHAM BEACON URGENT CARE CENTRE,-0.033209,51.405232
10222.829999999998,HILLINGDON COMMUNITY DERMATOLOGY,-0.08430999999999998,51.500087
132.21,HEALTH VISITORS STOKE,-2.109085,52.810605
49798.89999999997,BRIERLEY MEDICAL CENTRE,-1.382484,53.594188
12765.219999999998,CGL RESOLUTIONS SERVICE,-0.416036,51.876369
2.06,DAVID LEWIS MEDICAL PRACTICE,-2.286179,53.287552
2693.780000000002,NORWICH IMPROVED ACCESS HUB,1.319958,52.632405
64177.65000000005,METRO INTERCHANGE SURGERY,-1.602943,54.961848
152497.13000000018,BRIDGE VIEW MEDICAL GROUP,-1.401824,54.919455
93019.83999999994,QUAKERS LANE SURGERY,-1.741713,54.406363
214631.40999999965,HOLLYNS HEALTH & WELLBEING - CLAYTON,-1.81454,53.779166
108141.29999999996,BRIDGE STREET MEDICAL PRACTICE,-1.20716,52.774841
123703.80999999998,CAYTHORPE & ANCASTER MEDICAL PRACTICE,-0.536327,52.981851
108992.32000000018,PARSON DROVE SURGERY,0.050459,52.660947
66076.41999999995,PRIORS FIELD SURGERY,0.124169,52.388951
102613.59999999996,DAVENPORT HOUSE SURGERY,-0.354549,51.816177
172374.59999999983,MILLWAY MEDICAL PRACTICE,-0.24359099999999997,51.614985
70222.32000000007,TEMPLE FORTUNE MEDICAL GROUP,-0.197845,51.581101
4075.0900000000024,MOULSHAM LODGE SURGERY,0.475137,51.716565
35520.12000000004,WARRIOR SQUARE SURGERY,0.716503,51.539534
20400.489999999994,BRAYFORD SQUARE SURGERY,-0.050404,51.514375
51555.80999999996,YORK ROAD SURGERY,0.065859,51.559165
178938.9399999999,WEST MALLING GROUP PRACTICE,0.407707,51.293351
107055.30999999984,ELMDENE SURGERY,0.263153,51.446098
124030.37,MOAT HOUSE SURGERY,-0.146361,51.259819
47111.55999999999,ALEXANDRA SURGERY,-0.205887,51.422912
108698.39999999992,DENHAM MEDICAL CENTRE,-0.502236,51.584564
118491.46999999993,CHEW MEDICAL PRACTICE,-2.629195,51.35619
116679.76999999992,ST.GEORGE'S SURGERY,-2.0815,51.906706
589.6800000000002,OLDHAM URGENT TREATMENT GTD HEALTHCARE,-2.121831,53.553248
137989.71999999986,CHARING SURGERY,0.791374,51.20971
68638.08000000003,THAMES AVE SURGERY,0.603057,51.36344
266553.0899999999,CANTERBURY MEDICAL PRACTICE,1.128982,51.245539
23926.62,TRAFALGAR SURGERY,-0.074414,51.485672
70099.10999999986,THE ORCHARD PRACTICE,-0.303542,51.369116
109746.10000000006,BALHAM PARK SURGERY,-0.155715,51.440487
40096.4,UNIVERSITY HEALTH SERVICE,-1.395714,50.934099
82582.43000000002,LINDEN MEDICAL CENTRE,-0.737415,51.530813
73718.93000000002,OBSERVATORY MEDICAL PRACTICE,-1.265958,51.760293
47435.16000000002,CROPREDY SURGERY,-1.320027,52.116731
280959.77999999985,HEART OF BATH,-2.373947,51.376364
60907.48999999996,BIRCHWOOD MEDICAL PRACTICE,-2.547938,51.446246
65590.70999999998,LOSTWITHIEL SURGERY,-4.668763,50.407892
59199.23000000002,ST SAVIOURS SURGERY,-2.308488,52.130324
124465.30999999981,WERRINGTON VILLAGE SURGERY,-2.098023,53.021659
83935.11999999994,WEST HEATH SURGERY,-1.96202,52.401797
42201.990000000056,WEST PARK SURGERY,-2.141256,52.587783
37329.51000000001,THE MARSHSIDE SURGERY,-2.963125,53.67143299999999
43921.55999999998,MERSEYBANK SURGERY,-2.263012,53.42276
88600.78999999996,THE GROVE ROAD PRACTICE,-0.202341,51.358201
31460.82000000004,MOOR PARK MEDICAL PRACTICE,-1.7218490000000002,53.797834
38579.35000000001,UPTON ROCKS PRIMARY CARE,-2.754371,53.373367
1430.0200000000007,FARLEIGH HOSPICE,0.467731,51.776479
57113.10000000004,HANLEY PRIMARY CARE CENTRE,-0.12083699999999999,51.567951
23.4,COMMUNITY OPTHALMOLOGY SERVICE,-1.508913,52.401243
61389.959999999934,LEYLAND SURGERY,-2.709316,53.689645
64526.08999999997,COMMUNITY NURSING,-0.670796,53.57972
3778.04,HP NMP'S RUSH CCG,-1.143101,53.130244
2565.9,THE PRACTICE OPTHALMOLOGY CLINIC,-0.574826,51.671154
4262.95,SWANSWELL WEST BERKS,-1.323646,51.396761
1503.53,COMMUNITY NURSING,-2.372621,51.358169
127.92999999999998,YORKSHIRE SMOKEFREE,-1.018306,53.503028
153.47,CULTURE FUSION - EIP,-1.7596490000000002,53.792973
89400.7099999999,WELLSBOURNE HEALTHCARE CIC,-0.107386,50.825445
520.5400000000001,LINCOLNSHIRE ADHD SERVICE,-0.639665,52.910889
36586.54000000004,CHEVIOT MEDICAL GROUP,-2.01842,55.546525
272747.01000000024,THE CENTRAL SURGERY BARTON,-0.439445,53.684236
46143.80999999996,DEARNE VALLEY HEALTH CENTRE,-1.626482,53.588349
124924.15000000005,MICKLEOVER MEDICAL CENTRE,-1.54633,52.907111
66423.85999999991,THE UNIV OF NOTTINGHAM HEALTH SERV,-1.195942,52.942177
51638.35000000008,LISTER HOUSE SURGERY,-0.4515,51.89192
39293.640000000014,THE ELMS SURGERY,-0.404224,51.661642
63655.38,HOUNSLOW MEDICAL CENTRE,-0.37684,51.469395
37975.65000000001,P A PATEL SURGERY,0.582273,51.56978
19571.249999999996,SANCTA MARIA MEDICAL CENTRE,0.284011,51.507882
297377.8200000002,SEAFORD MEDICAL PRACTICE,0.099275,50.772678
218775.78999999972,BUXTED MEDICAL CENTRE,0.132095,50.989406
19598.890000000014,NEW INN SURGERY,-0.545657,51.257698
55134.59000000003,THE WHITEHORSE PRACTICE,-0.097391,51.385869
110257.09000000008,THE HEALTH CENTRE,-0.19711,51.363031
148817.42999999993,WEST END ROAD SURGERY,-1.359281,50.916702
78999.22999999994,TOWER HOUSE SURGERY,-0.770004,51.636372
140853.46999999986,CHURCH STREET PRACTICE,-1.425847,51.598763
61000.93000000004,CLINTON ROAD SURGERY,-5.224966,50.23093
132023.73999999993,PINHOE SURGERY,-3.469622,50.737528
242488.35,ROSEBANK HEALTH,-2.242194,51.852611
75344.84999999993,MAPLE VIEW MEDICAL PRACTICE,-1.905693,52.31659
91545.22999999992,PRESCOTT SURGERY,-2.852689,52.784345
25648.92000000001,BLOOMSBURY HEALTH CENTRE,-1.876618,52.493743
92338.10999999996,HEATON ROAD SURGERY,-1.579814,54.978269
74057.54000000002,49 MARINE AVENUE SURGERY,-1.451082,55.046268
105233.50000000006,HOUGHTON MEDICAL GROUP ,-1.469175,54.842322
109322.75000000004,HOWDEN MEDICAL PRACTICE,-0.8694039999999998,53.744175
49465.71999999997,HANCOCKS ME,-0.41296400000000005,53.782123
143411.2200000001,THE WILSDEN MEDICAL PRACTICE,-1.86138,53.818377
27982.86000000001,COLSTERWORTH SURGERY,-0.619356,52.806388
44707.83999999998,LUNDWOOD MEDICAL CENTRE PMS PRACTICE,-1.438538,53.557711
47101.85999999999,GREASBROUGH MEDICAL CENTRE,-1.372776,53.452893
85120.97000000003,WELLSIDE SURGERY,-0.28478,52.440324
61271.38999999998,CLARE GUILDHALL SURGERY,0.580469,52.078259
102594.13999999996,LATTIMORE & VILLAGE SURGERY,-0.298547,51.726244
13604.750000000002,SOMERSET MEDICAL CENTRE,-0.371127,51.522244
165782.96999999956,CENTRAL UXBRIDGE SURGERY,-0.475739,51.546229
123882.24999999993,WEST MERSEA SURGERY,0.9193420000000002,51.778349
145562.41000000006,HIGHLANDS SURGERY,0.637339,51.548005
98249.13999999996,BALLARDS WALK SURGERY,0.441841,51.573232
186727.23999999935,DOWNLANDS MEDICAL CENTRE,0.244085,50.822919
113279.22999999985,OTFORD MEDICAL PRACTICE,0.191446,51.31358
60843.76999999999,THE HALFWAY SURGERY,0.524157,51.380429
85483.98999999998,BURNEY STREET PMS,-0.009168,51.479034
80182.40999999997,ELIZABETH HOUSE MEDICAL PRACTICE,-0.050005,51.308093
28719.81999999999,ADDINGTON MEDICAL PRACTICE,-0.018557,51.344382
18390.500000000004,SARAJLIC (STAINES ROAD),-0.357923,51.439672
322645.41999999987,ROYAL CRESCENT SURGERY,-2.452679,50.616587
108000.05000000002,TWYFORD SURGERY,-1.314229,51.019421
15424.000000000007,ABBEY MEDICAL CENTRE,-0.982406,51.453949
75835.2799999999,ST.BARTHOLOMEWS MEDICAL CENTRE,-1.232108,51.747668
311453.6499999997,THE DOWNEND HEALTH GROUP,-2.505301,51.485109
98273.30000000016,IDE LANE SURGERY,-3.534972,50.699471
62169.12999999999,THE ARROW SURGERY,-1.861382,52.218546
177606.09000000014,DR SN CLAY AND PARTNERS,-1.832005,52.528641
57863.09999999999,WILLENHAL OAK MEDICAL CENTRE,-1.463131,52.388988
129826.77000000002,WORDSLEY GREEN HEALTH CENTRE,-2.164692,52.480602
224297.07999999984,THE OVER-WYRE MED.CTR.,-2.976492,53.928203
73603.00999999991,FISHERGATE HILL SURGERY,-2.714363,53.75445500000001
48189.35000000001,THE SINGH MEDICAL PRACTICE,-2.213622,53.512042
113924.69000000008,PARK VIEW GROUP PRACTICE,-2.160577,53.445476
25336.700000000026,FAMILY SURGERY,-2.346055,53.396194
3653.7300000000014,STROKE PATHWAY AND REHABILITATION CENTRE,-1.461102,53.37116700000001
17.71,COMMUNITY PAEDIATRICS (SILCS),-1.612399,53.799904
46.39000000000001,NWR COMMUNITY SERVICES,-1.014748,51.449145
284.45,ABOUT HEALTH LN DERMATOLOGY,-2.455551,53.733223
9514.010000000002,URGENT CARE,0.475497,50.850706
285.5,NMP CCS - CYP SERVICE UNIT,-0.067127,52.322863
575.8799999999999,COMPTON HOSPICE,-2.172068,52.585801
18747.91,CRANBROOK MEDICAL PRACTICE,-3.416198,50.746596
510.53,PCOC DVT SERVICE,-0.7662759999999998,52.000308
846.4399999999998,GOSPORT PRIMARY CARE ACCESS CENTRE,-1.148081,50.793062
187.79,OLDHAM COMMUNITY HEALTH SERVICES,-2.146984,53.542056
292.23,COMMUNITY PALLIATIVE CARE MEDICAL TEAM,-2.777861,53.433387
172014.75000000006,WHITLEY BAY HEALTH CENTRE,-1.43996,55.04141
147088.90000000017,BLACKBURN RD.MEDICAL CTR.,-1.664718,53.731348
330020.64000000036,MARKET HARBOROUGH MED.CTR,-0.924843,52.477084
106889.87000000002,COMMUNITY HEALTH CENTRE (ZS OSAMA),-1.113421,52.632387
111593.5299999999,TRAMWAYS MEDICAL CENTRE (O'CONNELL),-1.503023,53.402044
163975.79000000007,SAFFRON HEALTH PARTNERSHIP,-0.264459,52.084232
87313.81999999998,GLADSTONE MEDICAL CENTRE,-0.24612,51.558731
56696.490000000085,ST MARTINS MEDICAL CENTRE,-0.424566,51.577646
41525.49000000002,ABRIDGE SURGERY,0.12458,51.653631
44419.87000000001,ELSDALE STREET SURGERY,-0.049094,51.543033
104680.27000000003,STOPSLEY VILLAGE PRACTICE,-0.394147,51.901132
210043.38,SHEFFORD HEALTH CENTRE,-0.321643,52.034788
60839.82999999995,VALE DRIVE MEDICAL PRACTICE,-0.194727,51.648828
73612.61999999995,THE FRYENT WAY SURGERY,-0.280565,51.582963
65762.15000000008,BELMONT MEDICAL CENTRE,-0.478036,51.548264
72292.52999999996,PORTLAND ROAD PRACTICE,-0.208019,51.507366
252115.67000000025,AUDLEY MILLS SURGERY,0.607129,51.584978
61859.11999999993,STRATFORD HEALTH CENTRE,0.004714,51.544651
31389.470000000016,THE STROUDLEY WLK HTH CTR,-0.017533,51.527214
81571.1000000001,ST JOHN'S MEDICAL PRACTICE,0.195249,51.285009
117271.83,BEXLEY GROUP PRACTICE,0.10965599999999999,51.465832
74434.63000000006,DERRY DOWNS SURGERY,0.116651,51.385174
72533.22999999994,UPPER NORWOOD GROUP PRACTICE,-0.08482,51.413308
54478.88000000007,THE MOORINGS MEDICAL PRACTICE,-0.095892,51.322229
83625.41999999998,THE TOLLERFORD PRACTICE,-2.571586,50.778924
178276.0,BLACKTHORN HEALTH CENTRE,-1.327194,50.876037
48426.71,JUBILEE FIELD SURGERY,-2.191875,51.484091
79225.97000000002,DANES CAMP MEDICAL CENTRE,-0.904374,52.205152
121361.30999999994,THORNBURY HEALTH CENTRE - BURNEY,-2.517723,51.612861
99371.4600000001,ELM HAYES SURGERY,-2.492756,51.300546
86735.78999999998,CULVERHAY SURGERY,-2.348649,51.638921
156533.15999999974,SHAWBIRCH MEDICAL CENTRE,-2.531858,52.718121
123668.29999999989,THE DOVE MEDICAL PRACTICE,-1.864605,52.535155
213145.4799999998,MOSS GROVE SURGERY,-2.1699,52.498674
180057.18000000005,WARLEY MEDICAL CENTRE,-2.006757,52.468122
101987.50000000004,SPRINGFIELDS MEDICAL CENTRE,-2.597522,53.389256
122790.98,WEAVER VALE PRACTICE,-2.696866,53.325561
120295.67999999992,GLOVERS LANE SURGERY,-2.971961,53.488314
69683.36000000006,OLIVE MEDICAL CENTRE,-2.484193,53.752309
55439.60999999999,HALLIWELL SURGERY 1,-2.431738,53.588322
85584.01000000002,HEATON MERSEY MED.PRACT.,-2.205118,53.412519
48894.52000000001,VILLAGE SURGERY,-0.255874,51.399503
34524.32000000002,SOMERS TOWN MEDICAL CENTRE,-0.130607,51.529916
20032.400000000005,FITZMAURICE (KEW),-0.283117,51.475875
54755.61000000005,WOOTTON VALE HEALTHY LIVING CENTRE,-0.527951,52.093688
119.92,COMMUNITY PALLIATIVE CARE,-2.267012,53.599742
62079.99000000001,ST LUKE'S HEALTH CENTRE,0.7293039999999998,51.551
346181.78000000014,THE MEDICAL GROUP,-1.628911,54.748296
130724.91999999994,GLENPARK MEDICAL CENTRE,-1.640096,54.953229
40581.720000000016,DR KHALIQ,-1.799612,53.663276
169331.04999999993,ROBIN LANE HEALTH AND WELLBEING CENTRE,-1.661311,53.79500899999999
52102.90000000001,LAUREL BANK SURGERY,-1.587333,53.816942
96594.17999999986,HUGGLESCOTE SURGERY,-1.365684,52.71103
56910.93999999996,HEALTH CARE COMPLEX  KIRKBY,-1.244634,53.100062
96403.89999999997,RED HOUSE SURGERY,0.129161,52.214906
47232.86000000002,KINGS HEAD MEDICAL PRACTICE,-0.011448,51.635688
13777.64,WARRINGTON SUBSTANCE MISUSE SERVICE,-2.595849,53.38675799999999
18704.31,BRIMPTON HOUSE,0.699534,51.835776
71209.97999999992,THE AZAD PRACTICE,0.044868,51.531234
52277.36000000005,NEWHOLME SURGERY,-2.74261,53.456686
1829.36,NEW HOPE,-0.752472,51.414889
2672.5999999999995,BRIGHTON STATION WALK-IN,-0.141323,50.827937
54.01,THE NORTH HAMPSHIRE ALLIANCE,-1.093694,51.26408
3353.4000000000005,SW INTEGRATED TEAM MALVERN,-2.178135,52.192339
19.63,CCCT 2,-2.019013,53.955694
372.59,COMMUNITY NURSES,-2.500977,51.462504
976.32,ADULT LD COMM SERVICES NW,-1.477708,52.526988
49.41,SUE RYDER MANORLANDS HOSPICE,-1.951227,53.813255
18.54,MSK SERVICE,-2.365995,53.75089200000001
145.45999999999995,CHILDRENS SERVICES,-0.08679399999999998,51.503466
15.73,FELIXSTOWE HOSPITAL,1.35594,51.963766
56.42,ST HELENS 0-19 CHILDRENS SERVICE,-2.606862,53.42951600000001
82860.59999999993,LUNESDALE SURGERY,-2.602213,54.200573
180198.7499999998,COQUET MEDICAL GROUP,-1.580504,55.332599
30843.330000000005,THE GLENDALE SURGERY,-2.01842,55.546525
62010.16999999999,ALLERTON MEDICAL CENTRE,-1.533879,53.826921
125708.49000000002,SPILSBY SURGERY,0.098963,53.173049
43409.13,BRIDGEWAY PRACTICE,-1.147343,52.943574
149193.2499999999,THORNE MOOR MEDICAL PRACTICE,-0.966348,53.613648
128882.00999999965,MANOR AND PARK GROUP PRACTICE,-1.42716,53.373705
71298.53999999998,SOLE BAY H/C,1.6664740000000002,52.336325
57955.48999999999,DR PS BATH'S PRACTICE,-0.394147,51.901132
47578.28999999997,WATERSIDE MEDICAL CENTRE,-0.363984,51.502165
99650.68999999994,MELBOURNE HOUSE SURGERY,0.451756,51.749214
214667.77999999985,LITTLE WALTHAM & GT NOTLEY SURGERY,0.477622,51.787396
77120.57000000004,AMPTHILL PRACTICE,-0.137293,51.5346
76631.05,THE NORTH LONDON HEALTH CENTRE,-0.11243199999999999,51.617571
79682.05000000002,THE WILLOWS PRACTICE,0.104416,51.60776
172586.8599999998,ST.PETER'S MEDICAL CENTRE,-0.135237,50.831002
199060.36999999965,HIGHPARKS MEDICAL PRACTICE,0.496762,51.434213
82086.29,YALDING,0.429804,51.221188
92237.63999999984,CRAWLEY DOWN HEALTH CENTRE,-0.07762099999999998,51.122557
52595.63999999998,BIRDHURST MEDICAL PRACTICE,-0.092613,51.365279
150611.24000000025,FORESTSIDE MEDICAL PRACTICE,-1.416173,50.851823
56888.91,BENTLEY VILLAGE SURGERY,-0.87992,51.189933
72873.3299999999,DR KUMAR & PARTNER STUDFALL MEDICAL CTR,-0.704816,52.495882
171452.1599999998,CASTLE PLACE PRACTICE,-3.492865,50.908884
131753.09999999971,COTSWOLD MEDICAL PRACTICE,-1.75678,51.886317
144763.9599999999,GLASTONBURY SURGERY,-2.721853,51.148462
136571.97000000026,NUNWELL SURGERY,-2.507177,52.187931
98950.96999999996,CLEOBURY MORTIMER SURGERY,-2.485608,52.377502
127255.2999999999,MEDINA HEALTHCARE,-1.298686,50.697239
118145.02999999981,BEDFORD STREET SURGERY,-0.729782,51.995784
199813.07000000007,ALCHESTER MEDICAL GROUP,-1.138371,51.891398
94760.98000000004,GREENWAY COMMUNITY PRACTICE,-2.611274,51.499595
188712.1600000001,THREE SPIRES MEDICAL PRACTICE,-5.055864,50.259982
155609.96999999968,DEAN CROSS SURGERY,-4.095355,50.358939
102233.41000000003,SOUTHOVER MEDICAL PRACTICE,-3.528075,50.474733
106997.83999999988,NEW VALLEY PRACTICE,-3.654492,50.792383
129274.46999999988,THE STOKE ROAD SURGERY ,-2.068173,51.94667
162416.01999999993,HIGHBRIDGE MEDICAL CENTRE,-2.979117,51.227372
142415.04000000012,CANTILUPE SURGERY,-2.712261,52.055418
119666.71999999994,MYTTON OAK MEDICAL PRACT.,-2.797762,52.707667
78432.03999999988,DRS SHAH & TALPUR,-2.194635,52.974032
86084.43000000005,DR VSR CHADALAVADA,-2.139143,53.0416
86459.5599999999,HAWKESLEY MEDICAL PRACTICE,-1.937498,52.39544
26823.470000000016,KEYNELL COVERT,-1.911857,52.408441
107807.67999999996,PARK MEDICAL CENTRE,-2.873099,53.202665
127464.43999999989,NORWOOD SURGERY,-2.97819,53.65000799999999
140880.15999999974,WHALLEY MEDICAL CENTRE,-2.406348,53.819793
10350.829999999987,SLAIDBURN HEALTH CENTRE,-2.444001,53.967313
109207.45000000008,PIKES LANE 1,-2.446348,53.572728
34105.490000000005,DR PATHAK ND,-1.9843959999999998,52.51273
44052.62999999988,STRELLEY HEALTH CENTRE (COCKRILL),-1.227726,52.973231
66617.81999999992,PHOENIX MEDICAL PRACTICE,0.48126899999999995,51.328805
33764.38,NETHERTON SURGERY,-2.97236,53.488626
53743.88000000002,DILSTON MEDICAL CENTRE,-1.640355,54.976621
7555.02,INTERGRATED COMMUNITY PAEDIATRIC SERVICE,-2.384279,53.582354
60193.27999999997,NORTH CHELMSFORD NHS HCC,0.510815,51.750584
25211.52999999998,KIRKHOLT MEDICAL PRACTICE,-2.162243,53.59832
90.34,WOKING ALEXANDRA WARD,-0.556304,51.315132
244.64,GPHP - GP IN A&E,-0.273231,51.325518
54521.60000000007,DR AZIM & PARTNERS,-0.225729,51.579655
127.22,BARTON MOSS SECURE CHILDREN'S HOME,-2.39687,53.468834
46521.67000000001,BHF HIGHGATE SURGERY,-1.378978,53.573614
76602.65999999997,SEASCALE HEALTH CENTRE,-3.479998,54.396756
37494.53000000003,WIDDRINGTON SURGERY,-1.62051,55.240248
65976.28000000001,RIPLEY MEDICAL CENTRE,-1.405723,53.04704
75907.97999999997,DE MONTFORT SURGERY,-1.141192,52.6286
57240.77999999998,DENABY MEDICAL PRACTICE,-1.245792,53.490666
98836.35999999978,MENDLESHAM MEDICAL GROUP,1.0816,52.251866
82915.05000000002,UPTON ROAD SURGERY,-0.401058,51.656689
164059.43999999994,DOLPHIN HOUSE SURGERY,-0.029818,51.810791
87301.60999999978,THE EVERGLADE MEDICAL PRACTICE,-0.24421,51.601578
86087.83000000013,FRIERN BARNET MEDICAL CENTRE,-0.155988,51.613267
27526.519999999986,THE CIVIC MEDICAL CENTRE,-0.337497,51.587155
117925.60000000006,THE GOLD STREET SURGERY,0.240471,52.021716
171587.16999999975,THE HOLLIES,0.610574,51.555461
25703.509999999995,THE LEIGH SURGERY,0.656153,51.555504
83349.07000000007,WEST HAMPSTEAD MEDICAL CENTRE,-0.196578,51.55004
128724.99000000006,STAUNTON GROUP PRACTICE,-0.112926,51.599388
126959.72000000006,SOUTHBROOM SURGERY,-1.989037,51.352288
106408.17999999985,THE DOWNLAND PRACTICE,-1.312402,51.463442
40983.64999999999,BLAKENEY SURGERY,-2.476364,51.759117
137605.25000000015,WELLS HEALTH CENTRE,-2.655326,51.203403
140032.77999999988,RIVERSIDE MED.PRACTICE,-2.755278,52.709209
71200.92999999976,CHANCERY LANE SURGERY,-1.521755,52.536173
58889.61000000001,NECHELLS PRACTICE,-1.876618,52.493743
108107.42999999988,THE LIMES MEDICAL CENTRE,-1.974677,52.58065500000001
80943.94999999992,TOWNFIELD HEALTH CENTRE,-3.064248,53.378798
18837.710000000025,PRINGLE STREET SURGERY,-2.467594,53.742039
60603.97000000003,HOPWOOD MEDICAL CENTRE,-2.212052,53.587143
166931.60000000006,THE KILTEARN MEDICAL CTR.,-2.518506,53.068155
158511.53999999998,BROADWAY MEDICAL CENTRE,-3.033843,53.912667
66161.59000000004,EGERTON/DUNSCAR HEALTH CENTRE,-2.426383,53.617589
191189.92000000013,SADDLEWORTH MEDICAL PRACTICE,-2.004957,53.548331
57251.21999999996,VILLAGE MEDICAL PRACTICE,-2.095994,53.574817
33381.169999999984,EASTGATE SURGERY,-0.519836,51.886145
86.56999999999998,ST PETER'S HOSPICE,-2.609013,51.506125
34983.25000000003,SUMMERFIELD GROUP PRACTICE,-1.937353,52.487686
2731.02,CATS - VERULAM GYNAECOLOGY,-0.302218,51.724886
81306.84000000008,PHOENIX PRIMARY CARE (SOUTH) LTD,-0.441597,51.88973
80803.14999999989,THURROCK HEALTH CENTRE,0.323317,51.477404
610.16,PATIENT FIRST SOCIAL ENTERPRISE,0.006461,51.542096
371.88999999999993,SOLENT WEST NMPS,-1.446031,50.92524
2405.2499999999995,CWP (WEST) PHYSICAL HEALTH,-2.897884,53.2088
1173.4599999999996,CNWL-MK MEDICAL PRESCRIBER,-0.7357599999999997,52.026384
45.10000000000001,REDDITCH CMHT,-1.940229,52.303594
710.22,CAMHS - WORCESTER,-2.183119,52.192425
528.5899999999999,SOTON COMMUNITY ENT SERVICE RSH,-1.397076,50.912389
2755.130000000001,THOMAS LINACRE SPECIALIST,-2.629091,53.55774
6306.370000000001,CARE UK COVENTRY OOH,-1.5080049999999998,52.413401
1065.3100000000004,NSC BOSWORTH HUB,-1.7536330000000002,52.480569
2397.070000000001,SKEGNESS & COAST GP EXTENDED ACCESS HUB,0.342219,53.188059
69.41000000000001,COASTAL HEALTH SOUTH,1.715177,52.478072
25195.78000000001,THE OM SURGERY,-1.2057,53.034978
2387.71,LINCOLN OOH,-0.519635,53.233575
103654.19,THE NEW SPRINGWELLS PRACTICE,-0.340804,52.893623
2.43,HMP/YOI ASKHAM GRANGE,-1.184091,53.925917
42.52,WANDSWORTH COMMUNITY WARDS,-0.145908,51.472301
3381.380000000001,SAME DAY HEALTH CNTRE COASTAL HEALTHCARE,-2.859565,54.072841
9757.33,WHITTINGTON HEALTH (HARINGEY),-0.139066,51.566482
1792.0099999999998,PARSONS GREEN WIC,-0.199155,51.47377
36544.78000000001,CAMP HILL GP LED HEALTH CENTRE,-1.507061,52.533074
10567.24999999999,DONCASTER URGENT CARE & OUT OF HOURS,-1.109062,53.530806
654.04,THE CONFEDERATION HILLINGDON CIC,-0.47790600000000005,51.547653
418.74000000000007,SHIRLEY MEDICAL EXTENDED ACCESS LLP,-0.044859,51.375139
785.8299999999997,EAST CLUSTER IAGPS,-1.82052,50.747482
29.9,HMR CCG HART,-2.152215,53.620446
33198.16,ADHD SPECIALIST NURSING TEAM,-1.9374790000000002,52.436098
37148.29000000004,THE PATEL PRACTICE,-1.1885709999999998,54.661404
155449.78999999983,HOLMSIDE MEDICAL GROUP,-1.66023,54.969004
102676.41999999993,FARROW MEDICAL CENTRE,-1.74312,53.802511
96912.92999999996,PADDOCK AND LONGWOOD FAMILY PRACTICE,-1.80546,53.642119
107458.75,BRAMLEY VILLAGE HEALTH & WELLBEING CTR,-1.623032,53.80781999999999
45607.89000000002,SEVERN SURGERY,-1.065583,52.598801
334012.3200000001,BEACHES MEDICAL CENTRE,1.727734,52.577124
68522.46999999987,LINDEN ROAD SURGERY,-0.479248,52.14361
145926.7299999999,CUFFLEY AND GOFFS OAK MEDICAL PRACTICE,-0.113106,51.708171
160.42999999999995,SOUTH WIGSTON ASYLUM SERVICE,-1.12559,52.63753
70.77999999999999,ARC,-3.002931,53.801771
181.90999999999997,PRIMARY CARE ACCESS HUB (SOUTH STOKE),-2.102853,52.97847
4.39,WORKING AGE ADULTS - PULLMAN PLACE,-2.238316,51.866796
1598.9200000000005,NEAS SOUTH TYNESIDE CCG,-1.712365,54.969713
1808.7600000000007,GP SERVICES-CRAWLEY HUB,-0.175734,51.240416
2409.8100000000004,PROCARE HEALTH SERVICES,-0.708282,51.091746
28.33,HMP WYMOTT,-2.749412,53.678372
12073.289999999995,GLOUCESTER (CARE UK) OOH,-2.30608,51.879263
768.6400000000001,MERTON REHAB BEDS,-0.224115,51.437407
244.72,EXTENDED ACCESS PCD CONISBROUGH GROUP,-1.237653,53.482282
49.93,WIGAN AND LEIGH SEXUAL HEALTH SERVICE,-2.632808,53.547929
155316.16999999958,THE GARTH,-1.055444,54.532597
92143.41000000006,THE GABLES MEDICAL GROUP,-1.564429,55.140811
70943.51999999996,HAYDON BRIDGE & ALLENDALE MEDICAL PRACT,-2.250059,54.975681
93319.46999999977,SPRING TERRACE HEALTH CENTRE,-1.450673,55.010941
106191.61999999992,PRACTICE ONE,-0.201064,54.084715
171599.88000000035,CHURCH STREET SURGERY,-1.583343,53.681523
106311.86999999997,SOUTH WIGSTON HEALTH CTR.,-1.129183,52.580452
33297.13000000001,BRAMCOTE SURGERY,-1.244985,52.935604
113729.14999999988,CAMPINGLAND SURGERY,0.690978,52.645997
216032.0300000001,LEIGHTON ROAD SURGERY,-0.66795,51.915779
124418.20000000016,WILLOW TREE FAMILY DOCTORS,-0.265224,51.589337
75723.2799999999,QUEENS WALK PRACTICE,-0.312985,51.524803
65976.83999999994,HIGH STREET SURGERY  EPPING,0.113402,51.700812
184969.37999999983,OLD ROAD SURGERY,1.148421,51.795466
36364.7,HIGH STREET SURGERY,0.223589,51.561554
98771.07999999986,THE LIMEHOUSE PRACTICE,-0.028747,51.511253
16284.030000000004,MEDICUS HEALTH PARTNERS-WILLOW HOUSE,-0.07659,51.654209
61826.11999999999,MAIDSTONE RD RAINHAM SURGERY,0.600379,51.36233
35453.04000000003,BANK HOUSE SURGERY,0.069949,51.359218
71733.68000000017,FORDBRIDGE MEDICAL CENTRE,-0.46301,51.431269
99111.62999999992,EVERSLEY MEDICAL CENTRE,-0.11191300000000001,51.388514
78156.81999999998,YORK MEDICAL PRACTICE,-0.325697,51.449369
42642.929999999964,BERRYLANDS SURGERY,-0.299929,51.390825
142614.7699999999,CRICKET GREEN MEDICAL PRACTICE,-0.174025,51.404579
88251.70999999986,CARRINGTON HOUSE SURGERY,-0.749217,51.632299
30642.11999999998,PROSPECT HOUSE SURGERY,-0.705258,51.701136
33955.60999999998,WEMBURY SURGERY,-4.072566,50.32186
85603.9999999999,HOLLYOAKS MEDICAL CENTRE,-1.869052,52.377979
102022.14999999997,WOODSETTON MEDICAL CENTRE,-2.10089,52.537994
142707.32000000007,SHERWOOD HOUSE MEDICAL PRACTICE,-1.959426,52.473851
31033.000000000004,GARSTON FAMILY HEALTH CENTRE,-2.89683,53.353909
90812.83000000005,COMMONFIELD RD SURGERY,-3.086369,53.370187
105900.75000000019,THE BORCHARDT MEDICAL CENTRE,-2.237795,53.434307
38490.75000000004,WERNETH MEDICAL PRACTICE,-2.126938,53.53497
23710.70999999997,CHAPEL MEDICAL CENTRE,-2.418293,53.449094
62096.34000000003,DR VICTORIA MUIR'S PRACTICE,-0.151358,51.490651
135945.15999999986,WELLFIELD MEDICAL CENTRE,-2.242019,53.512545
151016.61000000028,NEWLANDS MEDICAL CENTRE,-1.226035,54.571931
113848.86000000016,WIGTON GROUP MEDICAL PRACTICE,-3.159002,54.820303
47812.520000000026,THE FAMILY PRACTICE,-3.229282,54.116755
203482.16000000024,SKERNE MEDICAL GROUP,-1.4488,54.654032
131853.39000000007,ST ANDREWS SURGERY,-0.361958,53.735566
58531.13999999998,COWGILL SURGERY,-1.814543,53.781952
133144.94000000038,VILLAGE SURGERY,-1.485797,52.896347
47545.68999999997,THE GLENSIDE COUNTRY PRACTICE,-0.537958,52.75451
42478.060000000034,PLEASLEY SURGERY,-1.250873,53.175809
91280.33000000005,BACON LANE SURGERY,-0.275903,51.605078
131413.83000000002,THE MEDICAL CENTRE  DR JEFFERIES & PARTN,-0.212607,51.481206
39526.15000000007,MEANWHILE GARDEN MEDICAL CENTRE,-0.203126,51.522228
225529.75999999983,THE LIMES MEDICAL CENTRE,0.123958,51.706179
93790.00999999986,CHIGWELL MEDICAL CENTRE,0.083876,51.60551
29070.64,NORTH AVENUE SURGERY,0.735187,51.546618
42374.07,ROSERTON STREET SURGERY,-0.010049,51.498482
17304.019999999986,MEDICUS HEALTH PARTNERS- BUSH HILL PARK,-0.066545,51.63953
123854.04000000015,ALBION PLACE MEDICAL PRACTICE,0.529542,51.274206
41411.9,OLD PARSONAGE SURGERY,0.460418,51.112785
74923.17999999996,TRIVENI PMS,0.058438,51.490321
103739.03999999996,HAWTHORNS SURGERY,-0.175174,51.241163
101362.22000000004,TRINITY MEDICAL CENTRE,-0.158437,51.437554
30486.85000000001,MITCHAM FAMILY PRACTICE,-0.167118,51.410109
84644.71999999999,THE WELLBRIDGE PRACTICE,-2.225354,50.679039
164254.8299999997,THE HARVEY PRACTICE,-1.993525,50.761018
214848.12000000008,HOMEWELL.CURLEW PRACTICE,-0.978019,50.851067
153471.02999999988,SPA MEDICAL CENTRE,-2.126012,51.366868
90712.13000000002,COOKHAM MEDICAL CENTRE,-0.725805,51.558356
135448.83999999994,THE MISBOURNE SURGERY,-0.558045,51.607786
142366.0099999999,ORCHARD MEDICAL CENTRE,-2.510659,51.462087
67924.61,LYNGFORD PARK,-3.090916,51.036442
151645.09999999992,STAFFORD HEALTH AND WELLBEING,-2.123291,52.817722
66889.13999999997,BOURNBROOK VARSITY MEDICAL CENTRE,-1.929903,52.445713
25674.07000000001,CAUSEWAY GREEN ROAD SURGERY,-2.014697,52.484564
150726.0899999999,PATTERDALE LODGE MED CTRE,-2.64461,53.452446
113423.28000000006,SUNLIGHT GROUP PRACTICE,-3.00005,53.363076
85807.35,SHAY LANE MEDICAL CENTRE (KELMAN),-2.31556,53.372189
85664.06999999989,BLYTH ROAD MEDICAL CENTRE,-1.20365,53.422231
24675.07,INSPIRING RECOVERY SERVICE,-1.497086,53.68441
75155.21999999993,CENTRAL MEDICAL CENTRE,-0.245977,52.587
85914.41,HARBOUR MEDICAL PRACTICE,0.324489,50.797353
205.50000000000003,URGENT CARE CTR (FCMS) OOH,-3.015863,53.820616
155998.20999999982,MORRAB SURGERY,-5.538987,50.116924
162069.85999999984,WILLOW BANK SURGERY,-2.102853,52.97847
143089.08000000002,EVERGREEN PRIMARY CARE CENTRE,-0.059836,51.623784
82.58000000000001,MEANWOOD GROUP PRACTICE ENT SERVICE,-1.565811,53.827167
4842.319999999998,BHC NON MEDICAL PRESCRIBERS,0.010423,51.377216
340.1500000000001,SCS DIABETES SERVICE,-0.150861,51.357264
214.88,M & A LTC PALLIATIVE CARE NURSE,-1.238124,52.98146
12832.160000000002,BARDOC GP OOH,-2.427769,53.590447
2576.479999999999,BANES ENHANCED MEDICAL SERVICE (BEMS+),-2.372621,51.358169
512.96,ADULT ADHD SERVICE NMP 1,-0.955523,51.450745
3634.38,SHAKESPEARE WIC,-1.525196,53.802098
906.7699999999996,BROOMFIELD DOCTOR IN ED,0.465993,51.774654
397.29999999999984,CCG ACUTE VISITING SERVICE,-2.178123,53.021853
319.28,NEWMEDICA COMMUNITY OPHTHALMOLOGY,-0.108523,53.567689
1548.9899999999993,LGI GPS IN A+E,-1.551744,53.801445
436.79,M&A AHVS (PICS),-1.238124,52.98146
123974.3,BARBOURNE HEALTH CENTRE,-2.224952,52.208752
54164.38999999996,CRAVEN ARMS SURGERY,-2.835416,52.442323
240130.28000000012,THE HAYMARKET HEALTH CTR,-2.211781,53.060343
69680.21000000008,GOLDENHILL MEDICAL CENTRE,-2.221385,53.076901
90959.53999999998,JIGGINS LANE MEDICAL CENTRE,-1.995411,52.436801
35226.54000000004,DARTMOUTH MEDICAL CENTRE,-2.005409,52.520435
68233.10999999996,ARRAN MEDICAL CENTRE,-1.748679,52.50386700000001
120483.26000000005,CHAPEL LANE SURGERY,-3.061428,53.557075
70052.20999999993,HEATHERLANDS MED CTR,-3.089543,53.381475
50293.61999999998,GUTTERIDGE MEDICAL CENTRE,-2.691248,53.769881
41285.37000000002,TOWN HALL SURGERY,-2.092973,53.478374
60095.95999999999,LILFORD PARK SURGERY,-2.511455,53.503236
15910.28000000001,PEEL PRECINCT SURGERY,-0.198814,51.534421
88485.93999999986,CATHEDRAL MEDICAL CENTRE,0.275488,52.413145
4206.1,NDUC NEWCASTLE GATESHEAD OOH,-1.58819,55.01931999999999
141.09,ANTICOAG SERV YARDLEY WOOD,-1.859168,52.418648
0.87,IPU10-17 EIT NW & RUGBY,-1.477708,52.526988
1764.9299999999994,MARSDEN INTERMEDIATE CARE,-1.696689,53.676075
11.78,HEALTH VISITING SERVICE,-1.547426,53.744103
1484.74,EXTENDED ACCESS PRIMARY CARE HUB,-0.079465,51.533775
36.68,PCH WARD,-2.077775,52.114052
280.32,GREENWICH COMMUNITY HOSPICE,0.118096,51.482685
757.8099999999998,LCW WLCCG OOH,-0.217218,51.522362
28047.39999999999,MALLING HEALTH AT STOKE ALDERMOOR,-1.479565,52.402142
1800.1000000000006,WARWICK MYTON HOSPICE,-1.55866,52.28263
314.1099999999998,THGPCG SERVICE OOH,-0.004927,51.514483
784.4,EPILEPSY NURSE CANNOCK,-2.030614,52.693241
54352.999999999935,DENMARK ROAD SURGERY,-0.06725100000000002,51.393136
3819.16,VC WEST LANCS HC-UCC,-2.871252,53.564616
959.21,HOME VISITING SERVICE,-2.165957,53.412542
87547.45000000017,MEIR PARK & WESTON COYNEY MEDICAL PRACT,-2.094889,52.966305
45962.34000000007,HAMSTEAD ROAD SURGERY,-1.919012,52.504474
101931.78000000004,OAKWOOD SURGERY,-1.858645,52.444556
23063.109999999986,SURGERY AUBERY ROAD,-1.846411,52.46633
41741.55000000005,MOXLEY MEDICAL CENTRE,-2.051113,52.560033
109611.64999999994,NORTH PARK HEALTH CENTRE,-2.995994,53.458392
29757.300000000007,MEDICARE UNIT SURGERY,-2.69241,53.725239
75374.88999999998,LOSTOCK MEDICAL CENTRE,-2.328128,53.45458000000001
50025.21999999998,THE GROVE MEDICAL PRACTICE,-0.362401,51.55534
50442.92000000006,THE GAMSTON MEDICAL CTR.,-1.100495,52.924252
68478.45000000008,LANGLEY MEDICAL PRACTICE,-0.299929,51.390825
154.78999999999996,TELFORD OOH,-2.732712,52.740396
52142.67999999998,THE DURU PRACTICE,-2.116945,53.543824
39277.31000000001,ADDICTIONS SERVICE,-1.607294,54.973724
18594.56,NHS BWD SUBSTANCE MISUSE SERVICE,-2.481065,53.75065
8271.650000000003,ERDINGTON GP HEALTH & WELLBEING WIC,-1.840871,52.522486
164.92,PRACTICE OPHTHALMOLOGY SERVICE HARINGEY,-0.574826,51.671154
285.19,CRISIS RESPONSE TEAM,-2.186902,53.52264
218.04,EVESHAM CMHT,-1.950714,52.086053
11.96,EARLY INTERVENTION NORTH SERVICE,-2.055662,52.344136
1091.8599999999997,RAMSAY HEALTHCARE - NORTH DOWNS HOSPITAL,-0.079153,51.273556
885.4599999999997,WILLEN HOSPICE,-0.719831,52.062768
2985.9800000000005,CENTRAL DURHAM GP EXT'D ACCESS SERVICE,-1.56716,54.7787
3632.52,QMUL TOBACCO CESSATION SERVICE,-0.047357,51.522265
35893.3,SHAP MEDICAL PRACTICE,-2.677931,54.52889
232378.0800000003,AUCKLAND MEDICAL GROUP,-1.678996,54.648085
136152.14999999994,THE GLEN MEDICAL GROUP,-1.52187,54.97385
215964.3000000004,ASHBY TURN PRIMARY CARE PARTNERS,-0.6542,53.566147
492123.58000000025,HAXBY GROUP PRACTICE,-1.081866,54.019329
33576.38000000001,BRADFORD MOOR PRACTICE,-1.7218490000000002,53.797834
180945.56000000014,ASH GROVE,-1.245572,53.704968
144482.1599999999,MILLVIEW MEDICAL CENTRE,-0.30904,52.981326
115363.23000000016,HOLLIES MEDICAL CENTRE,-1.494834,53.363179
19365.129999999983,VERITAS HEALTH CENTRE,-1.481026,53.354257
130327.83000000006,BRETTON MEDICAL PRACTICE,-0.281891,52.590431
134203.71,LONG STRATTON MEDICAL PARTNERSHIP,1.229088,52.491027
155682.98000000016,THE NEVELLS ROAD SURGERY,-0.22942,51.980882
130204.30999999994,THE HEALTH CENTRE PRACTICE,-0.020738999999999997,52.048757
61737.15,HIGHFIELD SURGERY,-0.459233,51.766434
59943.46999999996,BELGRAVIA SURGERY,-0.14856,51.495004
21594.539999999994,COLLINGWOOD ROAD SURGERY,0.638271,51.802938
93387.95999999986,CHAPEL STREET SURGERY,0.051144,50.79327
115326.31999999993,STOCK HILL SURGERY,0.031768,51.312089
53395.35000000002,CLAREMONT MEDICAL CENTRE,-0.306132,51.390808
102151.90000000008,WATERFRONT AND SOLENT SURGERY,-1.403379,50.870013
69396.40999999999,GREENFORD ROAD MED.CTR.,-0.345702,51.537697
76667.69999999997,THE OAKLAND MEDICAL CENTRE,-0.45129300000000006,51.546055
43879.74999999996,QUEENS WALK MEDICAL CENTRE,-0.393155,51.562716
60761.79000000004,THE ABINGDON HEALTH CENTRE,-0.197138,51.496085
113811.57999999994,THE ARDLEIGH SURGERY,0.985096,51.927073
132541.6999999998,ADDISON HOUSE - HAQUE PRACTICE,0.088979,51.770891
79116.92000000004,ST PETER'S STREET MEDICAL PRACTICE,-0.100772,51.535597
62584.04999999992,ABERFELDY PRACTICE,-0.004927,51.514483
215373.61,STONE CROSS SURGERY,0.289944,50.816757
53563.81999999989,ELTHAM PALACE PMS,0.053714,51.449946
86516.26000000013,BROCKBANK (PARK ROAD),-0.334596,51.423912
127122.67000000023,CHAWTON PARK SURGERY,-0.989411,51.139814
74411.15000000002,STOKENCHURCH MEDICAL CTRE,-0.904033,51.660479
36988.16000000004,MARSHALLS ROAD SURGERY,-0.539225,52.344743
43075.86999999999,HOLLINSWOOD SURGERY,-2.437453,52.673936
52997.07000000002,ABBOTS BROMLEY SURGERY,-1.880966,52.819974
232587.52000000005,DARWIN MEDICAL CENTRE,-1.831505,52.694061
165858.5000000001,THE OAKS MEDICAL CENTRE,-1.895827,52.552454
54737.81999999997,VICTORIA ROAD MEDICAL CTR,-1.887197,52.501868
137893.44000000006,ST JOHN'S MEDICAL CENTRE,-1.932532,52.626307
81154.45000000013,NEWBRIDGE SURGERY,-2.155299,52.5936
214084.30999999985,THE CORNERSTONE PRACTICE,-2.4524,53.739201
59159.32999999997,TOWNSIDE SURGERY,-2.29898,53.59031
62331.60999999999,GOODMAYES MEDICAL CENTRE,0.10990599999999999,51.567626
19977.969999999987,PARK GRANGE MEDICAL CENTRE,-1.775929,53.789415
18379.870000000006,ST.GEORGES MEDICAL CENTRE,-0.24612,51.558731
760.2300000000001,EAST CAMHS,-1.531703,53.817673
65.8,GPSI DERMATOLOGY HEAVITREE HC,-3.505542,50.723202
397.7,UTTLESFORD HEALTH LIMITED GYNAECOLOGY,0.256305,52.0236
49486.88000000001,HETHERINGTON AT THE PAVILION,-0.116397,51.461633
13.74,DMC SHEPPEY OPHTHALMOLOGY,0.793061,51.415409
63600.810000000056,OAKWOOD MEDICAL CENTRE,-0.134269,51.646534
94293.80999999994,SOUTH HERMITAGE SURGERY,-2.752497,52.699728
9602.580000000004,C.A.M.H.S.,-2.689816,53.693597
5.15,GPSI CARDIOLOGY - WESTCLIFFE,-1.781103,53.830481
5108.139999999996,PCEC,-2.227711,53.462436
725.5000000000001,EAST KENT HEADACHE SERVICE,1.414787,51.390277
14.31,HMP YOI HOLLESLEY BAY,1.451269,52.051591
3992.150000000001,SMGPF,-2.237795,53.434307
251.85,TPG COMMUNITY OPHTHALMOLOGY - SALFORD,-0.574826,51.671154
35701.73000000002,DCHS DERBY CITY,-1.441882,53.221288
25073.78,TURNING POINT LEICESTER & LEICESTERSHIRE,-1.127621,52.637554
68740.77,REDBURN PARK MEDICAL CENTRE,-1.474775,55.00092
34988.230000000025,CASTLETOWN MEDICAL CENTRE,-1.450848,54.913341
40010.64999999999,ALDBROUGH ST JOHN SURGERY,-1.684645,54.496518
22645.77000000001,EAST PARADE MEDICAL PRACTICE,-1.061835,53.965993
36190.320000000014,BARKEREND HC - EL ELIWI,-1.7218490000000002,53.797834
225606.4,SHAFTESBURY MEDICAL CTR.,-1.497858,53.800234
97854.77999999978,GROBY ROAD MEDICAL CENTRE (ID PATCHETT),-1.150468,52.644337
52068.95,ROSEMEAD DRIVE SURGERY,-1.083088,52.5934
15382.380000000005,AR-RAZI MEDICAL CENTRE,-1.101204,52.623926
79698.94999999992,BRANSTON & HEIGHINGTON FAMILY PRACTICE,-0.467988,53.195831
141832.90000000017,FOUNTAIN MEDICAL CENTRE,-0.8043829999999998,53.07286
82808.12000000005,OAKENHALL MEDICAL PRACT,-1.199437,53.03661700000001
76790.85999999993,SCAWSBY HEALTH CENTRE PRACTICE,-1.167843,53.53678299999999
158880.4299999997,ST. GEORGE'S MEDICAL CENTRE,0.298817,52.458085
89039.58000000005,LAWNS PRACTICE,1.109092,52.378889
135543.67999999973,CENTRAL SURGERY,0.147747,51.812546
72327.07000000005,CHURCH END MEDICAL CENTRE,-0.253241,51.54757
73226.1899999999,BRENTFORD GROUP PRACTICE,-0.310054,51.48676
81474.92999999988,THE DEVONSHIRE LODGE PRACTICE,-0.397406,51.579266
33291.78000000005,THE HOXTON SURGERY,-0.086829,51.533527
49108.849999999984,LL MEDICAL CARE LTD,0.0021,51.555415
229929.89000000013,JUBILEE MEDICAL CENTRE,0.300332,51.3978
82404.68000000002,LAMBETH WALK GROUP PRACTICE,-0.11259100000000001,51.495609
77489.32000000007,STANWELL ROAD SURGERY,-0.470567,51.438013
429486.5100000002,THE ADAM PRACTICE,-2.07822,50.757881
55951.34000000005,SOUTHMEAD SURGERY,-0.616953,51.552538
35199.19999999998,CLIFTON HAMPDEN SURGERY,-1.211451,51.658625
69104.77,GROOMBRIDGE AND HARTFIELD MED GRP,0.184416,51.113952
87480.95999999992,POND TAIL SURGERY,-0.066728,51.246436
184759.6599999999,THE WALL HOUSE SURGERY,-0.208192,51.241304
40620.05000000002,THE HALING PARK PARTNERSHIP,-0.098109,51.357113
87437.47999999992,THE PRINCE OF WALES SURGERY,-2.457579,50.713502
137472.20999999988,BRANKSOMEWOOD H/CARE CTR,-0.8448069999999998,51.281888
71187.23999999996,THE GROVE SURGERY,-0.735114,52.023651
105145.04999999996,PROBUS SURGERY,-4.948542,50.290121
212754.60000000006,ABBEY SURGERY,-4.150401,50.546904
128850.07999999977,WHITEACRES MEDICAL CENTRE,-2.300547,52.124716
59105.66,WOODSIDE MEDICAL PRACTICE,-2.466175,52.637949
111294.21000000004,LYME VALLEY MEDICAL CENTRE,-2.22375,53.006305
65761.1000000001,AUDLEM MEDICAL PRACTICE,-2.508717,52.989615
58940.72000000001,KENNETH MACRAE MED CENTRE,-2.786435,53.49903
138899.2,BODEY MEDICAL CENTRE,-2.214798,53.440636
36812.19,WOODLANDS MEDICAL PRACTICE,-2.31213,53.406624
31053.489999999987,DR PAL,-2.595495,53.47988
78341.84999999998,BATH ROAD SURGERY,-0.37684,51.469395
95431.16000000008,CHAPEL ROW SURGERY,-1.17086,51.425877
40506.36000000007,WOODLANDS MEDICAL PRACTICE,-0.170943,51.592914
2355.9300000000007,NORTH LINCOLNSHIRE OOH,-0.667599,53.587582
17.93,HALTON COMMUNITY PALLIATIVE CARE TEAM,-2.670823,53.320248
673.0899999999998,EPUT COMMUNITY CARDIOLOGY,0.12393,51.704295
157.26000000000005,COMMUNITY SERVICES,-0.175694,51.426682
3903.73,SOUTH YORK HEART FAILURE NURSES,-1.082907,53.951837
372.12000000000006,BROMLEY DIABETES SERVICE (BECKENHAM),-0.033209,51.405232
17276.850000000002,NCH&C COMMUNITY NURSES (WEST),0.410147,52.749129
73.22,MUSCULOSKELETAL INTERFACE ASSESSMT SVCE,-0.168282,51.45617
376.63999999999993,END OF LIFE & PALLIATIVE CARE SERVICE,-2.13932,53.597586
8949.799999999994,HEALTHBRIDGE DIRECT,0.020102,51.608432
51.09,AQP ANTICOAG RIDGACRE MEDICAL CENTRE,-1.9901099999999998,52.460912
45387.18000000002,TAMESIDE & GLOSSOP IC NHS FT,-2.071433,53.49153
1494.54,WHHFT COMMUNITY NURSE PRESCRIBERS,-2.610717,53.393973
5624.48,STOP SMOKING SERVICE (M'BORO),-1.235298,54.57700500000001
4.35,ACCT 2,-1.962695,53.898015
85.26999999999998,DMC COMMUNITY DERMATOLOGY SERVICE,1.087083,51.266589
17.36,OLDER AGE - CHARLTON LANE HOSPITAL,-2.073674,51.881059
1505.39,EXTENDED HOURS SERVICE-ONE LIFE,-1.214164,54.682342
67201.40000000002,CRAMLINGTON MEDICAL GROUP,-1.591516,55.084481
182823.72000000015,KINGSTON MEDICAL GROUP,-0.349365,53.756137
33916.69999999996,WESTFIELD MEDICAL CENTRE,-1.531703,53.817673
97393.91999999998,VERNON STREET MEDICAL CTR,-1.49039,52.924019
60304.999999999935,STUBLEY MEDICAL CENTRE,-1.488541,53.304986
220178.6600000001,BRIDGE COTTAGE SURGERY,-0.215995,51.830002
105074.48999999992,GRANGE STREET SURGERY,-0.335878,51.757298
47522.639999999934,CHICHELE ROAD SURGERY,-0.216241,51.55483
39048.08999999999,SHIRLAND ROAD MEDICAL CENTRE,-0.203904,51.5292
73385.47999999994,DR KRISHNAN & PTNR - KENT ELMS HC,0.664114,51.563831
64050.049999999974,CRANHAM HEALTH CENTRE,0.265291,51.568865
58626.01000000001,ST PETER'S SURGERY,1.41893,51.362936
77261.29999999993,LEWISHAM MEDICAL CENTRE,0.004522,51.458513
55009.36999999995,STEWKLEY ROAD SURGERY,-0.71666,51.898041
23895.569999999967,SIBFORD SURGERY,-1.479244,52.037614
164022.2099999999,NEW COURT SURGERY,-2.958059,51.345794
165350.05,AXMINSTER MEDICAL PRACTICE,-2.999226,50.780899
195285.44000000015,COLERIDGE MEDICAL CENTRE,-3.2835660000000004,50.751704
107595.51999999996,LYDNEY PRACTICE,-2.529867,51.727913
80951.74999999997,PRICES MILL SURGERY,-2.224938,51.693801
137453.1699999999,ST. JOHNS SURGERY,-2.059728,52.337612
184119.99999999985,THE ALDERGATE MED.PRACT.,-1.695644,52.639079
134410.40999999992,YARDLEY WOOD HEALTH CENTRE,-1.859168,52.418648
93670.0199999999,MONTAGUE MEDICAL PRACTICE,-0.872899,53.707031
172664.31999999998,EASTGATE MEDICAL GROUP,-1.462815,54.006795
101148.32999999996,HORTON BANK PRACTICE,-1.806018,53.774478
123220.04999999994,MARSH MEDICAL PRACTICE,0.143689,53.445069
199651.0899999995,HUDDERSFIELD ROAD SURGERY,-1.485631,53.558165
204879.8700000002,SWALLOWNEST HEALTH CENTRE,-1.317097,53.362997
157060.4199999999,SHERINGHAM MEDICAL PRACTICE,1.214777,52.939688
163041.82999999993,KNEBWORTH & MARYMEAD MEDICAL PRACTICE,-0.184972,51.866323
27511.91000000001,THE HODFORD ROAD PRACTICE,-0.199318,51.569038
93479.93000000008,HAZELDENE MEDICAL CENTRE,-0.275394,51.547592
61593.960000000036,CLOISTER ROAD SURGERY,-0.265589,51.521352
69540.23999999999,ABBEY ROAD MEDICAL PRACTICE,0.005881,51.534784
37970.88999999999,BOUNDARY HOUSE SURGERY,-0.054245,51.632475
104223.84000000004,MANOR PARK MEDICAL CENTRE,0.24261,50.819107
119452.02999999984,CHURCH LANE HEALTH CENTRE,0.941162,50.984187
256870.32999999984,BETHESDA MEDICAL CENTRE,1.414787,51.390277
94429.6799999998,WOODLANDS SURGERY,0.088913,51.439755
134556.85000000015,LILLIPUT SURGERY,-1.954229,50.711523
254323.4899999993,WESTBURY GROUP PRACTICE,-2.203558,51.252792
178338.66000000003,PENRYN SURGERY,-5.10336,50.167504
103693.10999999996,CROWN MEDICAL CENTRE,-3.080969,51.029111
116339.55000000006,BARN CLOSE SURGERY,-1.859248,52.03627
43609.01999999996,HIGHLEY MEDICAL CENTRE,-2.392978,52.456165
38531.150000000016,ALVELEY MEDICAL PRACTICE,-2.353309,52.454738
62344.86999999995,WOLSTON SURGERY,-1.392727,52.376806
70085.50000000004,BALLIOL ROAD SURGERY,-1.471449,52.415924
62535.93000000001,NEWTON MEDICAL CENTRE,-2.638386,53.457172
106368.9899999999,GREASBY GROUP PRACTICE,-3.121417,53.377628
49614.67999999997,LOSTOCK HALL MEDICAL CTR.,-2.688037,53.727502
46688.19999999999,KNOWSLEY MEDICAL CENTRE,-2.300551,53.588497
55517.01999999999,TIMPERLEY HEALTH CENTRE (WESTWOOD),-2.323566,53.397228
48.18,CHILDREN & YP DIR.,-0.017051,51.454329
64.81,CORPORATE DIVISION,0.475497,50.850706
10164.770000000002,BIRMINGHAM DENTAL HOSPITAL,-1.916521,52.45037
15228.39,SUFFOLK RECOVERY SERVICE - IPSWICH,1.150763,52.057299
7.63,UROLOGY-MERTON CCG,-0.210281,51.409967
20959.56,COMM PAEDIATRIC & LAC HEALTH SERVICE,-2.756261,53.446091
681.6899999999998,WELLINGBOROUGH EXTENDED ACCESS,-0.695567,52.303398
1278.31,ST JOSEPH'S HOSPICE  HACKNEY,-0.056255,51.537053
49340.01999999998,PENINSULA MEDICAL PRACTICE,-2.915665,54.18795600000001
65270.51,ROSEWORTH SURGERY,-1.61867,55.001366
304498.2100000002,GREENGATES MEDICAL GROUP,-0.418494,53.844343
220832.93999999965,HEBDEN BRIDGE GROUP PRACTICE,-2.010942,53.744036
99724.77999999987,LIMES MEDICAL CENTRE,-1.387885,53.098493
70674.34999999995,CHURCHSIDE MEDICAL PRACTICE,-1.203539,53.146592
65741.28999999996,SELSTON SURGERY,-1.299871,53.070196
101672.40000000024,CRYSTAL PEAKS MEDICAL CENTRE,-1.354473,53.342881
140161.07999999987,LINCOLN HOUSE SURGERY,-0.469093,51.737355
123323.60999999993,STOCKWELL LODGE MED.CTR.,-0.055287,51.713792
45730.00000000001,SOUTHEND MEDICAL CENTRE,0.708516,51.540069
45050.62,DR DEVARAJA VC PRACTICE,0.44359,51.520015
51994.38999999998,DR PM PATEL,0.219281,51.55632
39606.21,THE MITCHISON ROAD SURGERY,-0.087357,51.544992
41545.64000000002,FOUNTAYNE ROAD HEALTH CENTRE,-0.065145,51.56442
119419.13999999977,FRAMLINGHAM SURGERY,1.334192,52.227216
24523.99,ARCHWAY SURGERY,-0.532167,51.72275
50103.69000000002,CHURCH LANE SURGERY,-0.262165,51.574931
19886.799999999985,CHISWICK FAMILY DRS PRACTICE,-0.259879,51.493563
46116.19999999998,ACRE SURGERY,-0.411552,51.604465
34576.40000000004,CHOWDHURY,0.233898,51.592339
42198.57999999999,CUMBERLAND MEDICAL CENTRE,0.026047,51.519716
111690.13000000006,ILFORD MEDICAL CENTRE,0.07431899999999998,51.556823
133002.98000000013,RYE MEDICAL CENTRE,0.730363,50.961944
42909.10000000003,MAIDSTONE RD CHATHAM SURGERY,0.516708,51.361226
43853.33999999999,VASSALL MEDICAL CENTRE,-0.10851199999999998,51.477558
117315.34999999985,WITLEY SURGERY,-0.650163,51.156457
90927.95999999996,FARMHOUSE SURGERY,-1.7595,50.736437
101603.04999999996,JENNER HOUSE SURGERY,-0.7745189999999998,51.294302
79366.25999999994,LONG BARN LANE SURGERY,-0.967033,51.436181
296209.01,WESTONGROVE PARTNERSHIP,-0.74378,51.76588
92412.60000000006,MILBORNE PORT SURGERY,-2.471962,50.967502
58867.61999999986,OMBERSLEY MEDICAL CENTRE,-2.229023,52.276554
181812.00999999954,FURLONG MEDICAL CENTRE,-2.208139,53.063325
111461.61000000019,NORFOLK STREET SURGERY,-2.182794,53.01602
80122.3199999999,PARADISE MEDICAL CENTRE,-1.494835,52.426778
117687.10999999994,MAYFIELD MEDICAL CENTRE,-2.093284,52.583046
84480.21999999987,LEVENSHULME MEDICAL PRACTICE,-2.188524,53.446352
83012.5700000001,HEALD GREEN HEALTH CENTRE 2,-2.229276,53.369878
48834.61,SMITH (RICHMOND LOCK),-0.322897,51.464517
52479.32000000002,CHILLINGTON HEALTH CENTRE,-3.693645,50.272623
73602.20000000003,JUBILEE GARDENS MEDICAL CENTRE,-0.368739,51.521097
48459.17000000004,BLACKHEATH MED CTR,-3.104694,53.412239
20409.940000000035,AMBAR MEDICAL CENTRE,-1.991354,52.575093
17570.190000000006,GOLDINGTON ROAD SURGERY,-0.456174,52.140172
117742.27999999994,DMC ST MARYS ISLAND SURGERY,0.538105,51.406776
6115.05,STREET LANE DERMATOLOGY CLINIC,-1.513393,53.843234
73810.8300000001,POPLAR PRIMARY CARE CENTRE,-1.890326,52.43631
1007.6600000000003,NORTHAMPTONSHIRE OUT OF HOURS SERVICE,-0.683359,52.29767
408.64,NEUROLOGY LONG TERM CONDITIONS,-2.384279,53.582354
287438.5199999992,THORNABY & BARWICK MEDICAL GROUP,-1.292128,54.538149
207526.6599999998,BRAMPTON MEDICAL PRACTICE,-2.734846,54.94237
85285.18000000002,RISEDALE SURGERY,-3.224778,54.109942
92980.86999999988,ROWLANDS GILL MEDICAL CENTRE,-1.742896,54.91936
124943.63000000024,THE SUTTON MANOR SURGERY,-0.315294,53.785759
111823.64999999997,PLANE TREES GROUP PRACTICE,-1.894437,53.730448
143123.84000000005,THORNTON MEDICAL CENTRE,-1.576209,53.791908
201197.4599999997,JESSOP MEDICAL PRACTICE,-1.372226,53.074348
218141.3800000001,THE PARK MEDICAL PRACTICE,-1.432644,52.928801
78337.49000000006,BRAILSFORD & HULLAND MEDICAL PRACTICE,-1.624927,52.96943
158803.71999999994,MERRIDALE MEDICAL CENTRE (RP TEW),-1.160752,52.620146
127207.42999999998,THE MAYFLOWER MEDICAL PRACTICE,-1.01945,53.431872
184235.97999999978,BASLOW RD  SHOREHAM ST & YORK RD SRGIES,-1.531066,53.316325
34808.26999999997,OVER SURGERY,0.012018,52.314809
108718.97999999988,DR TUN & PARTNERS,-2.583571,53.532102
92947.60000000014,ST.ANTHONY'S HEALTH CENTRE,-1.55655,54.966674
114689.4,MANOR DRIVE MEDICAL CENTRE,-0.24836599999999998,51.380785
2839.610000000001,SMS COMMUNITY DERMATOLOGY CLINIC,-1.398499,50.913503
2200.0,C1 ESTERASE,1.507338,52.34806
11422.80000000002,WESTCALL OOH,-0.8315749999999998,51.410524
25582.390000000007,NORTH LANCASHIRE INSPIRE,-2.798181,54.04844
2270.5200000000004,NELFT SOUTH WEST ESSEX CS,0.496195,51.591456
1085.7000000000003,HILLINGDON UCC,-0.461175,51.526077
686.85,MK ENT SERVICE,-0.79788,52.035898
4096.3,EAST STAFFS IMPROVING LIVES,-1.6480290000000002,52.798809
8.769999999999998,COMMUNITY MIDWIVES,-2.784954,53.420469
29.31,LYNFIELD MOUNT HOSPITAL,-1.805354,53.809728
797.2799999999999,PCAH - NEW ROMNEY,0.938719,50.987586
9416.28,CGL BROMLEY,0.010068,51.409191
135185.12000000002,BISHOPS CLOSE MEDICAL PRACTICE,-1.599142,54.699817
193810.05,CLEE MEDICAL CENTRE,-0.041433,53.566223
164455.2599999999,WIBSEY & QUEENSBURY MED P,-1.779715,53.767225
32215.890000000007,SOUTHOWRAM SURGERY,-1.831696,53.712293
45089.25999999997,WHITWICK HEALTH CENTRE,-1.3606790000000002,52.742576
150814.5100000001,MARKET SURGERY,-1.345958,53.502635
43257.38999999998,BALDWINS LANE SURGERY,-0.448705,51.654076
73126.54,DERWENT CRESCENT MEDICAL CENTRE,-0.175285,51.622908
142458.07000000012,THE STANMORE MEDICAL CENTRE,-0.304021,51.60154
75979.99000000003,NEASDEN MEDICAL CENTRE,-0.247382,51.559667
25440.52,BROOK GREEN SURGERY,-0.218145,51.495291
232778.70999999985,ABBEY FIELD MEDICAL CENTRE,0.898575,51.877487
21738.81,JOHN SMITH MEDICAL CENTRE,0.112125,51.538899
29643.180000000033,TOTTENHAM HEALTH CENTRE,-0.068474,51.604755
43071.40000000005,DR MOHAMMED GREEN MAN MEDICAL CENTRE,0.015000999999999999,51.571506
99820.63,FAIRFIELD PMS,0.038949,51.483908
43924.72999999999,PARKSIDE MEDICAL CENTRE,-0.092642,51.475826
83325.56999999989,NORK CLINIC,-0.215842,51.326429
79359.26999999987,QUEENHILL MEDICAL PRACTICE,-0.066791,51.34499
63352.13999999997,GRAND DRIVE SURGERY,-0.228811,51.402155
228371.35999999987,THE BOSMERE MEDICAL PRACTICE,-0.990581,50.850232
191359.7500000001,BURNHAM HEALTH CENTRE,-0.662137,51.5349
74707.58000000003,THE LONG BUCKBY PRACTICE,-1.08255,52.30049
375355.03,ASPEN MEDICAL PRACTICE,-2.225797,51.865969
105107.34999999996,GLOUCESTER CITY HEALTH CENTRE,-2.245328,51.860355
250485.07,ABBEY HOUSE MEDICAL PRACTICE,-1.160725,52.260319
131325.31999999992,NORTON BROOK MEDICAL CENTRE,-3.782122,50.288739
36629.720000000016,SOMERSET BRIDGE MEDICAL CENTRE,-2.995883,51.115105
108796.18999999994,TRENT VALE MEDICAL PRACTICE,-2.201785,52.987386
41483.830000000045,BROOKSIDE SURGERY,-1.399088,52.35048
82318.11999999998,NORTHWAY MEDICAL CENTRE,-2.130997,52.54810500000001
128370.89,MARTON MEDICAL PRACTICE,-3.034524,53.812843
112426.97000000004,CORNISHWAY GROUP PRACTICE,-2.265017,53.379925
139725.42999999982,BRAMHALL HEALTH CENTRE,-2.162929,53.36001
111840.65999999996,MAYNARD COURT SURGERY,0.020165,51.685605
39523.580000000016,AYLESBURY SURGERY,-1.876053,52.542854
22479.560000000005,NEVILLE ROAD SURGERY,-0.443036,51.906419
2538.2300000000005,UNIV HOSP NORTH DURHAM OOH,-1.593834,54.788497
237.95,THE HOSPICE CARE FOR BURNLEY & PENDLE,-2.237434,53.819025
30161.85000000001,BOWLING GREEN STREET SURGERY,-1.133096,52.63304599999999
50.19000000000001,INTEGRATED COMMUNITY RESPONSE SERVICE,-0.371755,51.468263
1170.14,GP CARE DVT SERVICE,-2.570351,51.544821
2.82,SWALE GROUP,1.118942,51.075872
379316.76,BCHC MEDICINES MANAGEMENT,-1.9537779999999998,52.398207
123.79000000000002,CHCP - HESSLE  BROUGH  COTT  ANLABY,-0.429474,53.723082
58.06,INDEPENDENT HEALTH GROUP,-2.414415,51.312224
584.2300000000001,PML NEIGHBOURHOOD HUB (KIDLINGTON),-1.289236,51.821558
161472.04000000024,YARM MEDICAL PRACTICE,-1.355519,54.50530500000001
57973.38999999999,BENSHAM FAMILY PRACTICE,-1.617038,54.952781
114787.42000000006,BURTON CROFT SURGERY,-1.57692,53.820807
27101.64999999996,EASTMOOR HEALTH CENTRE,-1.476864,53.690004
36940.46999999997,HARTINGTON SURGERY,-1.810816,53.142488
56489.02,THE PRACTICE BEAUMONT LEYS,-1.15392,52.662296
74909.02999999996,TASBURGH LODGE SURGERY,-0.21375,53.151242
137772.22,SOTHALL & BEIGHTON HEALTH CENTRES,-1.340221,53.337895
35303.85000000001,KINGSWAY SURGERY,-0.437208,51.517478
52024.04999999998,FIVE ELMS MEDICAL PRACTICE,0.14235,51.553315
17329.86,SPUR ROAD SURGERY,-0.086621,51.586597
102493.88000000008,THE MEADS SURGERY,0.091624,50.969686
49203.43000000005,ALBION STREET SURGERY,-0.133965,50.827627
112473.0099999998,BELLEGROVE SURGERY,0.09579,51.464561
127530.74000000006,SOUTH VIEW PARTNERSHIP,0.026125,51.405111
53399.25999999996,CORNERWAYS SURGERY,-0.404519,50.81566
167297.2699999999,CHEAM GP CENTRE,-0.225239,51.368621
50835.919999999984,WALLINGTON MEDICAL CENTRE,-0.129285,51.357345
137922.15999999995,THE BANKS & BEARWOOD MEDICAL CENTRE,-1.9292169999999997,50.768326
55877.09000000005,MERE SURGERY,-2.265342,51.089873
36289.81000000001,RAGSTONE ROAD SURGERY,-0.601832,51.503747
93239.88999999996,COMBE DOWN SURGERY,-2.345599,51.361003
111589.20000000011,WADEBRIDGE & CAMEL ESTUARY PRACTICE,-4.835729,50.514816
74155.82999999997,NORTH PETHERTON SURGERY,-3.013922,51.09139
47386.229999999945,HANDSWORTH MEDICAL PRACT.,-1.941212,52.505377
125170.45000000008,EVE HILL MEDICAL PRACTICE,-2.096805,52.512922
47530.419999999984,BEARWOOD MEDICAL CENTRE,-1.97344,52.476903
146683.18999999992,THE GROUP PRACTICE ALFRED SQUIRE ROAD,-2.080754,52.599417
186744.04999999964,WEST DERBY MEDICAL CENTRE,-2.895944,53.431273
34278.840000000026,BEEHIVE SURGERY,-2.419172,53.564161
45680.58,QUEENS MEDICAL CENTRE,-2.235847,53.50081899999999
136217.8599999999,LANGWORTHY MEDICAL PRACTICE,-2.294771,53.489371
24456.609999999946,LEY HILL SURGERY,-1.983266,52.421346
73105.10999999993,THE CHEYLESMORE SURGERY,-1.503924,52.391324
23656.24000000001,DR. B. K. PRASHARA,-2.114816,52.456326
151879.90999999986,ST PETER'S SURGERY,-1.984855,52.594537
120722.0600000001,ORMSKIRK HOUSE SURGERY,-2.74261,53.456686
90736.68999999996,MANOR HEALTH CTR,-3.044493,53.421061
152442.10999999987,THE PENDLE MEDICAL PARTNERSHIP,-2.144307,53.915882
139045.44000000015,3/SPRINGFIELD HOUSE MEDICAL PRACTICE,-2.362019,53.480252
142400.71999999986,PENNINE MEDICAL CENTRE,-2.040966,53.515337
38362.24000000003,THE CROSSROADS SURGERY,-2.770123,53.417492
37795.71000000002,CRESCENT SURGERY,0.106446,51.389854
41839.24000000005,GREEN CEDARS MEDICAL CENTRE,-0.073642,51.616071
8234.33,CGL HALTON,-2.733862,53.354554
19.43,STELLAR HEALTHCARE OPHTHALMOLOGY,0.12393,51.704295
23920.48,THE KINGSWAY PRACTICE,-2.135588,53.612168
97314.08999999988,WHITE HORSE SURGERY,0.343258,51.435153
139.61999999999998,LANCS HOUSE UROLOGY,-2.218662,53.592207
1435.3800000000006,THE ENFIELD PAIN CLINICS,-0.076772,51.66253
308.23,WORC OA CMHT,-2.186957,52.2101
47.90000000000001,WORKING AGE ADULTS - WOTTON LAWN HPL,-2.227893,51.866962
79.59999999999998,PALLIATIVE CARE NORTH,-2.109085,52.810605
10122.55,WESTMINSTER DAWS,-0.132264,51.511274
2899.5200000000013,LAS S.E. LONDON IUC CAS,-0.10903099999999999,51.500174
1200.46,NY HORIZONS SKIPTON,-2.01705,53.963253
18.31,HMP BRISTOL,-2.591585,51.480902
483.9,HMP & YOI CHELMSFORD,0.484655,51.736724
182.96999999999997,BARNSLEY HOSPICE,-1.514714,53.560138
559.8699999999998,WEST KENT GROUP,1.118942,51.075872
1541.36,ADHD SERVICE,-0.382232,51.595076
4196.0,CGL RICHMOND UPON THAMES,-0.330961,51.445928
43976.070000000014,CHAPELFORD PRIMARY CARE CENTRE,-2.633066,53.39615799999999
3616.279999999999,BRAMHOPE DERMATOLOGY COMMUNITY CLINIC,-1.61581,53.881903
48798.51999999995,BHF LUNDWOOD SURGERY,-1.438538,53.557711
460.69,SOTON COMMUNITY ENT SERVICE WESTON LANE,-1.370694,50.888213
12.95,WORKING AGE ADULTS - AVON HOUSE,-2.13216,51.999104
100554.16999999993,DALTON SURGERY,-3.179816,54.155917
70025.37999999998,THE SELE MEDICAL PRACTICE,-2.095702,54.970372
81043.47000000002,WOODLANDS PARK HEALTH CTR,-1.628825,55.04614
78304.80999999995,CONCORD MEDICAL PRACTICE,-1.524864,54.913411
130160.64999999985,MARKET WEIGHTON GROUP PRACTICE,-0.674786,53.864903
88213.36000000002,RAJ MEDICAL CENTRE,-0.113968,53.550655
136215.36000000007,MAYFORD HOUSE SURGERY,-1.446534,54.328376
159429.66999999995,OAKWOOD LANE MEDICAL PRACTICE,-1.493931,53.819982
355497.17000000016,HEALTH CARE FIRST PARTNERSHIP,-1.393615,53.736872
114710.23999999985,HAVEN MEDICAL CENTRE,-1.416874,52.891498
128954.34999999989,COUNTESTHORPE HEALTH CENTRE,-1.136767,52.554536
174007.41999999993,CASTLE HEALTHCARE PRACTICE,-1.144908,52.930476
192868.58999999962,BROOM LANE MEDICAL CENTRE,-1.332311,53.417383
57630.81000000001,CADDINGTON SURGERY,-0.458179,51.864502
75809.94999999995,ANNANDALE MEDICAL CENTRE,-0.17421099999999998,51.698571
5047.530000000003,GREENWICH CCG GP ACCESS HUB,0.050556,51.457843
145.84000000000003,WEST KENT HEALTH FEDERATION,0.277462,51.194717
142.12999999999997,CYPS - MARSBURG HOUSE,-2.206729,51.739527
8315.040000000003,DMC COMMUNITY DERMATOLOGY BHR,0.223136,51.563496
92788.3600000001,WEST ROAD MEDICAL CENTRE,-1.656263,54.976209
51109.560000000056,IMEARY STREET PRACTICE,-1.424863,54.98753000000001
24603.38999999999,THE KILLINGHOLME SURGERY,-0.260335,53.62990799999999
126722.83999999992,DR SINHA & PARTNERS,0.100204,53.030138
70996.21000000006,THE HEALTH CARE SURGERY,-1.487911,53.42172
118060.66999999988,COMBERTON SURGERY,0.018614,52.189811
137033.95999999988,TRINITY & BOWTHORPE MEDICAL PRACTICE,1.280248,52.624411
94923.4399999999,THE LIMES SURGERY,-0.010842,51.759413
103037.78999999985,SHEPHALL HEALTH CENTRE,-0.167642,51.890799
34160.65999999997,WAKEMANS HILL SURGERY,-0.254209,51.587088
42714.400000000016,WESTBOURNE GROVE MEDICAL CENTRE,-0.200361,51.514211
111655.04999999984,FOREST PRACTICE,0.07523499999999998,51.654789
34990.529999999984,PRASAD,0.210579,51.600308
127208.52000000012,HARROW ROAD GP CENTRE,0.012856,51.559538
60207.47,SEVEN DIALS MEDICAL CENTRE,-0.147743,50.829681
142260.19999999966,NORTHDOWN SURGERY,1.368001,51.379866
34103.75000000001,MILTON REGIS SURGERY,0.7321839999999998,51.349193
116863.43000000015,BARCROFT MEDICAL CENTRE,-1.780526,51.172939
40957.71000000005,BURBAGE SURGERY,-1.669545,51.348496
254068.86999999962,THE SWAN PRACTICE,-0.985664,52.001593
226234.65999999968,PIONEER MEDICAL GROUP,-2.617628,51.510306
72318.70999999992,THE CREST FAMILY PRACTICE,-2.596274,51.428746
27745.790000000008,WORTHEN MEDICAL PRACTICE,-3.000165,52.635224
98340.19999999987,NESTON MEDICAL CENTRE,-3.064349,53.291818
44299.640000000036,KIRKDALE MEDICAL CENTRE,-2.973842,53.433523
63426.80999999994,WITHNELL HEALTH CENTRE,-2.556663,53.692491
208396.9000000001,DARWEN HEALTHLINK,-2.471427,53.695744
114502.60999999975,ST.MARY'S HEALTH CENTRE,-2.729589,53.747433
53990.66000000002,DAVID MEDICAL CENTRE,-2.268652,53.43186
79680.63000000003,DR ABBAS,-0.841253,52.26834
48306.50000000002,FACCINI HOUSE SURGERY,-0.189379,51.389682
96854.73999999995,EDLESBOROUGH SURGERY,-0.588625,51.868423
61312.950000000026,DR GS KALKAT'S PRACTICE,0.103861,51.527941
49272.66999999997,JRB HEALTHCARE BEECHDALE SURGERY,-1.198142,52.961504
14585.900000000007,THE LYNWOOD SURGERY,-0.29964,51.528594
37929.18000000001,CHURCH VIEW MEDICAL CENTRE,-2.960328,50.935622
174369.7700000001,WOODLANDS FAMILY MEDICAL CENTRE,-1.321204,54.561215
22902.08,ASKAM SURGERY,-3.210918,54.183705
247099.3400000004,FERRYHILL AND CHILTON MEDICAL PRACTICE,-1.556828,54.689838
104020.00999999986,COLLIERY COURT MEDICAL GROUP,-1.460703,54.949762
77720.51999999997,GRANGE PARK SURGERY,-1.7481080000000002,53.912695
145956.30000000008,THE COUNTY PRACTICE,-1.069884,52.70073000000001
208661.09000000032,BEECHFIELD MEDICAL CENTRE,-0.145012,52.787253
108619.2299999998,GRIMETHORPE SURGERY,-1.378978,53.573614
83294.13000000006,THE OAKWOOD SURGERY,-1.073937,53.506609
77242.2199999999,PAPWORTH SURGERY,-0.11749200000000001,52.252071
145442.87000000008,ORCHARD SURGERY,0.944176,52.678309
141573.22999999992,DR JK MARSDEN'S PRACTICE,-0.436528,51.894968
161900.79000000015,MALTINGS SURGERY,-0.337918,51.751851
41462.73,HANWELL HEALTH CENTRE (NAISH),-0.334375,51.510263
127604.29999999994,WHITLEY HOUSE SURGERY,0.455723,51.726539
130899.30999999984,WEST ROAD SURGERY,0.70187,51.544989
34398.64999999998,JOYDENS WOOD MEDICAL CENTRE,0.166397,51.42449
239730.97999999995,TRAFALGAR MEDICAL GROUP PRACTICE,-1.092485,50.785331
120561.56000000008,EASTFIELD HOUSE SURGERY,-1.323251,51.395555
106782.66000000002,RECTORY MEADOW SURGERY,-0.6175,51.669079
139386.96000000034,TUDOR LODGE SURGERY,-2.975378,51.332396
104618.54999999984,PRAZE-AN-BEEBLE SURGERY,-5.309264,50.173753
199664.72999999972,CAMBRIAN MEDICAL PRACTICE,-3.047774,52.86281
100752.2099999999,PENN SURGERY,-2.145001,52.568567
95132.43999999984,FIRDALE MEDICAL CENTRE,-2.537387,53.253804
98287.84000000008,HALL GREEN SURGERY,-2.741349,53.540745
33144.430000000066,SARAF MEDICAL PRACTICE,-2.076954,53.561455
28485.87999999996,LATIMER HEALTH CENTRE,-0.049503,51.54659
49486.41000000001,DELL MEDICAL CENTRE,0.328114,51.480258
56590.53999999998,KIRKSTALL LANE MEDICAL CENTRE,-1.587333,53.816942
94384.59000000016,WHITCHURCH SURGERY,-1.340372,51.230256
49342.30000000001,DR NEWMAN,-1.975441,50.719722
1872.5299999999993,GATDOC OOH,-1.580781,54.93938000000001
44511.94000000004,THE TRINITY MEDICAL CENTRE,0.085815,51.478803
9283.059999999994,CARE UK OOH,1.210633,52.034014
2077.9700000000007,PONTELAND RD WIC,-1.656804,54.991604
254.15,CONIFER HOUSE SEXUAL HEALTH CLINIC,-0.342095,53.746221
142.72000000000003,SUE RYDER NETTLEBED HOSPICE,-0.989042,51.573731
2287.719999999999,IC24 LTD (HWLH OOH),0.891514,51.129106
21.42,MCH PHYSIO SWALE,0.571235,51.364197
67.02000000000001,HEALTH VISITORS SWBH NHS TRUST,-1.988866,52.528091
1575.4399999999996,BURNLEY LOCALITY NMPS,-2.238948,53.791326
993.7800000000003,SOUTH EAST HUB 1,-0.10851199999999998,51.477558
157.51999999999995,ONE ASHFORD - ELECTIVE CARE NHS SERVICES,0.9117360000000002,51.142662
73797.68000000002,KIRKBY COMMUNITY PRIMARY CARE CENTRE (3),-1.248741,53.10176
20182.310000000005,SOUTHAMPTON DRUG & ALCOHOL SERVICES,-1.399976,50.907054
744.7,DMC COMMUNITY DERMATOLOGY ERY,-0.872594,53.695801
117495.62999999989,BERKLEY PRACTICE,-2.024533,52.58916
136289.45999999993,BELLE VALE HEALTH CENTRE,-2.859752,53.392035
64306.69999999998,ELIZABETH STREET SURGERY,-3.043658,53.820839
76252.02999999998,RAMSBOTTOM MEDICAL PRACTICE,-2.319287,53.64878
41112.77,THE WHITSWOOD PRACTICE,-2.253502,53.455769
149369.48999999976,WOODLANDS MEDICAL PRACTICE,-2.142182,53.545559
72347.17999999998,BROOKS BAR MEDICAL CENTRE,-2.261969,53.461412
71569.5099999999,BROOK HOUSE SURGERY,-1.445882,50.921794
58592.95000000001,ASHVILLE SURGERY,-0.201145,51.476255
57709.3400000001,THE VILLAGE MEDICAL CTR,-0.512653,52.128152
4974.350000000002,DR HANTSDOC N OOH,-1.109918,51.280633
2569.54,WEST CAMHS - KIRKSTALL,-1.599694,53.817164
10639.589999999997,GP COLLABORATIVE OOH,-1.455965,53.409821
860.8699999999997,IPU 10-17 EARLY INTERVENTION SW,-1.590621,52.285217
53.47999999999999,BEDFORDSHIRE MSK SERVICE,-0.45979,52.141913
45259.54000000005,ST NEOTS HEALTH CENTRE,-0.267116,52.228966
1110.07,QUAY HEALTH EAC,-0.069645,51.49696
4157.690000000001,HMR BARDOC OOH,-2.288591,53.59553
1941.65,HOLYWELL AT LANGLEY HOUSE HCT,-0.391206,51.683651
234.8,7 DAY ACCESS ROCHDALE INFIRMARY HUB,-2.160152,53.624282
13076.240000000007,GATESHEAD HEALTH COMMUNITY SERVICES,-1.580781,54.93938000000001
286.17,NEAS HAST CCG,-1.712365,54.969713
22280.69,VC WEST LANCS COMMUNITY NURSING,-2.840112,53.602357
210.99,SOUTH DALES HEALTHCARE LTD,-1.571366,53.077623
200704.0099999998,PRIORY MEDICAL CENTRE,-1.588641,52.285051
6711.069999999996,MODALITY ANN JONES FAMILY HEALTH CENTRE,-1.871333,52.462659
34924.68000000005,BALDWINS LANE SURGERY,-1.846405,52.414514
50215.61000000004,TUDOR PRACTICE STOCKLAND GREEN,-1.857329,52.52388199999999
102698.63999999993,CENTRAL SURGERY,-2.74261,53.456686
261069.47000000047,ASH TREES SURGERY,-2.769484,54.129481
36180.06999999999,FAMILY PRACTICE,-2.486748,53.750552
45601.79999999999,MONARCH MEDICAL CENTRE,-2.316823,53.564198
132585.44000000006,LEESBROOK SURGERY,-2.07266,53.53879
59566.80000000004,WALTON SURGERY,1.335453,51.973564
48281.78000000004,LINCOLN GREEN MEDICAL CENTRE,-1.525196,53.802098
46055.61000000002,PARKGATE SURGERY,-1.548606,54.523273
37792.23999999999,DALTON TM,-2.643772,53.529393
39030.80999999996,POLLARD ROW SURGERY,-0.064328,51.528266
3997.710000000004,HARROGATE OOH,-1.517573,53.993807
3143.52,MIRIAM MINOR EMERGENCY,-3.04649,53.39824599999999
198.5,ASHFORD HUB,-0.472813,51.444022
297.24,EXTENDED HOURS SERVICE,-2.9023,53.211542
10126.420000000004,LIVEWELL S/W,-4.116613,50.378837
483.38000000000005,NORTH CMHT,-4.126897,50.430114
394.59,WILL ADAMS NHS TREATMENT CENTRE,0.576568,51.380889
3447.89,WIRRAL HEART SUPPORT,-3.026531,53.380029
