total_cost,name,longitude,latitude
80.76,GREENFORD ROAD MED.CTR.,-0.345702,51.537697
35.42,THE OAKLAND MEDICAL CENTRE,-0.45129300000000006,51.546055
21.96,QUEENS WALK MEDICAL CENTRE,-0.393155,51.562716
29.03,THE ABINGDON HEALTH CENTRE,-0.197138,51.496085
244.25,THE ARDLEIGH SURGERY,0.985096,51.927073
97.62,ADDISON HOUSE - HAQUE PRACTICE,0.088979,51.770891
50.45,ST PETER'S STREET MEDICAL PRACTICE,-0.100772,51.535597
45.87000000000001,ABERFELDY PRACTICE,-0.004927,51.514483
337.2,STONE CROSS SURGERY,0.289944,50.816757
13.03,BROCKBANK (PARK ROAD),-0.334596,51.423912
160.82,CHAWTON PARK SURGERY,-0.989411,51.139814
66.42,STOKENCHURCH MEDICAL CTRE,-0.904033,51.660479
40.56,MARSHALLS ROAD SURGERY,-0.539225,52.344743
30.56,HOLLINSWOOD SURGERY,-2.437453,52.673936
66.01,ABBOTS BROMLEY SURGERY,-1.880966,52.819974
241.03,DARWIN MEDICAL CENTRE,-1.831505,52.694061
216.75,THE OAKS MEDICAL CENTRE,-1.895827,52.552454
50.43,VICTORIA ROAD MEDICAL CTR,-1.887197,52.501868
84.70999999999998,ST JOHN'S MEDICAL CENTRE,-1.932532,52.626307
96.12,NEWBRIDGE SURGERY,-2.155299,52.5936
336.39,THE CORNERSTONE PRACTICE,-2.4524,53.739201
1.94,TOWNSIDE SURGERY,-2.29898,53.59031
13.62,GOODMAYES MEDICAL CENTRE,0.10990599999999999,51.567626
3.47,PARK GRANGE MEDICAL CENTRE,-1.775929,53.789415
39.87,ST.GEORGES MEDICAL CENTRE,-0.24612,51.558731
23.55,HETHERINGTON AT THE PAVILION,-0.116397,51.461633
50.71,OAKWOOD MEDICAL CENTRE,-0.134269,51.646534
162.64,SOUTH HERMITAGE SURGERY,-2.752497,52.699728
3.06,REDBURN PARK MEDICAL CENTRE,-1.474775,55.00092
45.06999999999999,CASTLETOWN MEDICAL CENTRE,-1.450848,54.913341
85.45999999999998,ALDBROUGH ST JOHN SURGERY,-1.684645,54.496518
52.11,EAST PARADE MEDICAL PRACTICE,-1.061835,53.965993
12.09,BARKEREND HC - EL ELIWI,-1.7218490000000002,53.797834
249.19,SHAFTESBURY MEDICAL CTR.,-1.497858,53.800234
27.94,GROBY ROAD MEDICAL CENTRE (ID PATCHETT),-1.150468,52.644337
37.8,ROSEMEAD DRIVE SURGERY,-1.083088,52.5934
27.24,BRANSTON & HEIGHINGTON FAMILY PRACTICE,-0.467988,53.195831
255.56,FOUNTAIN MEDICAL CENTRE,-0.8043829999999998,53.07286
125.73,OAKENHALL MEDICAL PRACT,-1.199437,53.03661700000001
89.90999999999998,SCAWSBY HEALTH CENTRE PRACTICE,-1.167843,53.53678299999999
201.35,ST. GEORGE'S MEDICAL CENTRE,0.298817,52.458085
106.95,LAWNS PRACTICE,1.109092,52.378889
128.57999999999998,CENTRAL SURGERY,0.147747,51.812546
65.47,CHURCH END MEDICAL CENTRE,-0.253241,51.54757
44.6,BRENTFORD GROUP PRACTICE,-0.310054,51.48676
45.87000000000001,THE DEVONSHIRE LODGE PRACTICE,-0.397406,51.579266
47.46,THE HOXTON SURGERY,-0.086829,51.533527
6.12,LL MEDICAL CARE LTD,0.0021,51.555415
194.17,JUBILEE MEDICAL CENTRE,0.300332,51.3978
90.31,LAMBETH WALK GROUP PRACTICE,-0.11259100000000001,51.495609
40.59,STANWELL ROAD SURGERY,-0.470567,51.438013
302.62,THE ADAM PRACTICE,-2.07822,50.757881
56.71,SOUTHMEAD SURGERY,-0.616953,51.552538
31.68,CLIFTON HAMPDEN SURGERY,-1.211451,51.658625
40.27,GROOMBRIDGE AND HARTFIELD MED GRP,0.184416,51.113952
117.93,POND TAIL SURGERY,-0.066728,51.246436
35.66000000000001,THE WALL HOUSE SURGERY,-0.208192,51.241304
30.94,THE HALING PARK PARTNERSHIP,-0.098109,51.357113
7.599999999999999,THE PRINCE OF WALES SURGERY,-2.457579,50.713502
142.78,BRANKSOMEWOOD H/CARE CTR,-0.8448069999999998,51.281888
33.08,THE GROVE SURGERY,-0.735114,52.023651
217.71,PROBUS SURGERY,-4.948542,50.290121
196.65,ABBEY SURGERY,-4.150401,50.546904
82.95999999999998,WHITEACRES MEDICAL CENTRE,-2.300547,52.124716
7.76,WOODSIDE MEDICAL PRACTICE,-2.466175,52.637949
55.97,LYME VALLEY MEDICAL CENTRE,-2.22375,53.006305
49.89,AUDLEM MEDICAL PRACTICE,-2.508717,52.989615
17.37,KENNETH MACRAE MED CENTRE,-2.786435,53.49903
152.57999999999996,BODEY MEDICAL CENTRE,-2.214798,53.440636
60.03,WOODLANDS MEDICAL PRACTICE,-2.31213,53.406624
14.17,DR PAL,-2.595495,53.47988
71.15000000000002,BATH ROAD SURGERY,-0.37684,51.469395
49.89,CHAPEL ROW SURGERY,-1.17086,51.425877
49.74,WOODLANDS MEDICAL PRACTICE,-0.170943,51.592914
21.31,CRAMLINGTON MEDICAL GROUP,-1.591516,55.084481
113.87,KINGSTON MEDICAL GROUP,-0.349365,53.756137
14.01,WESTFIELD MEDICAL CENTRE,-1.531703,53.817673
63.96,VERNON STREET MEDICAL CTR,-1.49039,52.924019
79.19,STUBLEY MEDICAL CENTRE,-1.488541,53.304986
228.36,BRIDGE COTTAGE SURGERY,-0.215995,51.830002
144.07,GRANGE STREET SURGERY,-0.335878,51.757298
26.84,CHICHELE ROAD SURGERY,-0.216241,51.55483
52.61,SHIRLAND ROAD MEDICAL CENTRE,-0.203904,51.5292
86.81999999999998,DR KRISHNAN & PTNR - KENT ELMS HC,0.664114,51.563831
58.23,CRANHAM HEALTH CENTRE,0.265291,51.568865
23.32,ST PETER'S SURGERY,1.41893,51.362936
60.45,LEWISHAM MEDICAL CENTRE,0.004522,51.458513
83.34,STEWKLEY ROAD SURGERY,-0.71666,51.898041
38.64,SIBFORD SURGERY,-1.479244,52.037614
108.55,NEW COURT SURGERY,-2.958059,51.345794
233.41,AXMINSTER MEDICAL PRACTICE,-2.999226,50.780899
113.28,COLERIDGE MEDICAL CENTRE,-3.2835660000000004,50.751704
60.75,LYDNEY PRACTICE,-2.529867,51.727913
85.12999999999998,PRICES MILL SURGERY,-2.224938,51.693801
91.47000000000001,ST. JOHNS SURGERY,-2.059728,52.337612
320.05,THE ALDERGATE MED.PRACT.,-1.695644,52.639079
82.81999999999998,YARDLEY WOOD HEALTH CENTRE,-1.859168,52.418648
63.53,MONTAGUE MEDICAL PRACTICE,-0.872899,53.707031
206.78,EASTGATE MEDICAL GROUP,-1.462815,54.006795
48.46000000000001,HORTON BANK PRACTICE,-1.806018,53.774478
59.38999999999999,MARSH MEDICAL PRACTICE,0.143689,53.445069
289.64,HUDDERSFIELD ROAD SURGERY,-1.485631,53.558165
355.61,SWALLOWNEST HEALTH CENTRE,-1.317097,53.362997
65.32000000000001,SHERINGHAM MEDICAL PRACTICE,1.214777,52.939688
76.56999999999998,KNEBWORTH & MARYMEAD MEDICAL PRACTICE,-0.184972,51.866323
8.88,THE HODFORD ROAD PRACTICE,-0.199318,51.569038
60.64,HAZELDENE MEDICAL CENTRE,-0.275394,51.547592
79.78999999999998,CLOISTER ROAD SURGERY,-0.265589,51.521352
82.30000000000003,ABBEY ROAD MEDICAL PRACTICE,0.005881,51.534784
16.1,BOUNDARY HOUSE SURGERY,-0.054245,51.632475
34.89,MANOR PARK MEDICAL CENTRE,0.24261,50.819107
204.71,CHURCH LANE HEALTH CENTRE,0.941162,50.984187
288.48,BETHESDA MEDICAL CENTRE,1.414787,51.390277
79.87999999999998,WOODLANDS SURGERY,0.088913,51.439755
94.88,LILLIPUT SURGERY,-1.954229,50.711523
166.07999999999996,WESTBURY GROUP PRACTICE,-2.203558,51.252792
201.62,PENRYN SURGERY,-5.10336,50.167504
37.22,CROWN MEDICAL CENTRE,-3.080969,51.029111
104.94,BARN CLOSE SURGERY,-1.859248,52.03627
42.8,HIGHLEY MEDICAL CENTRE,-2.392978,52.456165
45.28,ALVELEY MEDICAL PRACTICE,-2.353309,52.454738
45.81999999999999,WOLSTON SURGERY,-1.392727,52.376806
89.68,BALLIOL ROAD SURGERY,-1.471449,52.415924
55.02,NEWTON MEDICAL CENTRE,-2.638386,53.457172
146.79,GREASBY GROUP PRACTICE,-3.121417,53.377628
21.53,LOSTOCK HALL MEDICAL CTR.,-2.688037,53.727502
16.68,KNOWSLEY MEDICAL CENTRE,-2.300551,53.588497
23.88,TIMPERLEY HEALTH CENTRE (WESTWOOD),-2.323566,53.397228
0.77,ST JOSEPH'S HOSPICE  HACKNEY,-0.056255,51.537053
42.1,PENINSULA MEDICAL PRACTICE,-2.915665,54.18795600000001
57.87,ROSEWORTH SURGERY,-1.61867,55.001366
304.62,GREENGATES MEDICAL GROUP,-0.418494,53.844343
329.14,HEBDEN BRIDGE GROUP PRACTICE,-2.010942,53.744036
191.11,LIMES MEDICAL CENTRE,-1.387885,53.098493
41.26,CHURCHSIDE MEDICAL PRACTICE,-1.203539,53.146592
67.72,SELSTON SURGERY,-1.299871,53.070196
122.37,CRYSTAL PEAKS MEDICAL CENTRE,-1.354473,53.342881
137.38,LINCOLN HOUSE SURGERY,-0.469093,51.737355
133.1,STOCKWELL LODGE MED.CTR.,-0.055287,51.713792
52.51000000000001,SOUTHEND MEDICAL CENTRE,0.708516,51.540069
27.54,DR DEVARAJA VC PRACTICE,0.44359,51.520015
67.2,DR PM PATEL,0.219281,51.55632
52.15,THE MITCHISON ROAD SURGERY,-0.087357,51.544992
396.8,FOUNTAYNE ROAD HEALTH CENTRE,-0.065145,51.56442
777.09,FRAMLINGHAM SURGERY,1.334192,52.227216
40.24,ARCHWAY SURGERY,-0.532167,51.72275
9.170000000000002,CHURCH LANE SURGERY,-0.262165,51.574931
29.13,ACRE SURGERY,-0.411552,51.604465
15.53,CHOWDHURY,0.233898,51.592339
337.38,CUMBERLAND MEDICAL CENTRE,0.026047,51.519716
42.83,ILFORD MEDICAL CENTRE,0.07431899999999998,51.556823
284.36,RYE MEDICAL CENTRE,0.730363,50.961944
31.19,MAIDSTONE RD CHATHAM SURGERY,0.516708,51.361226
59.44,VASSALL MEDICAL CENTRE,-0.10851199999999998,51.477558
101.09,WITLEY SURGERY,-0.650163,51.156457
31.53,FARMHOUSE SURGERY,-1.7595,50.736437
64.73,JENNER HOUSE SURGERY,-0.7745189999999998,51.294302
74.33,LONG BARN LANE SURGERY,-0.967033,51.436181
313.7200000000001,WESTONGROVE PARTNERSHIP,-0.74378,51.76588
113.25,MILBORNE PORT SURGERY,-2.471962,50.967502
62.64,OMBERSLEY MEDICAL CENTRE,-2.229023,52.276554
264.32,FURLONG MEDICAL CENTRE,-2.208139,53.063325
100.45,NORFOLK STREET SURGERY,-2.182794,53.01602
98.87,PARADISE MEDICAL CENTRE,-1.494835,52.426778
10.45,MAYFIELD MEDICAL CENTRE,-2.093284,52.583046
91.55,LEVENSHULME MEDICAL PRACTICE,-2.188524,53.446352
44.81,HEALD GREEN HEALTH CENTRE 2,-2.229276,53.369878
21.66,SMITH (RICHMOND LOCK),-0.322897,51.464517
23.21,CHILLINGTON HEALTH CENTRE,-3.693645,50.272623
54.46,JUBILEE GARDENS MEDICAL CENTRE,-0.368739,51.521097
140.45,BLACKHEATH MED CTR,-3.104694,53.412239
18.9,AMBAR MEDICAL CENTRE,-1.991354,52.575093
53.45,DMC ST MARYS ISLAND SURGERY,0.538105,51.406776
25.22,POPLAR PRIMARY CARE CENTRE,-1.890326,52.43631
182.41,THORNABY & BARWICK MEDICAL GROUP,-1.292128,54.538149
134.74,BRAMPTON MEDICAL PRACTICE,-2.734846,54.94237
67.26,RISEDALE SURGERY,-3.224778,54.109942
56.22,ROWLANDS GILL MEDICAL CENTRE,-1.742896,54.91936
73.31999999999998,THE SUTTON MANOR SURGERY,-0.315294,53.785759
350.68,PLANE TREES GROUP PRACTICE,-1.894437,53.730448
267.82,THORNTON MEDICAL CENTRE,-1.576209,53.791908
98.06,JESSOP MEDICAL PRACTICE,-1.372226,53.074348
173.29,THE PARK MEDICAL PRACTICE,-1.432644,52.928801
88.19000000000003,BRAILSFORD & HULLAND MEDICAL PRACTICE,-1.624927,52.96943
73.58000000000001,MERRIDALE MEDICAL CENTRE (RP TEW),-1.160752,52.620146
77.44,THE MAYFLOWER MEDICAL PRACTICE,-1.01945,53.431872
201.67,BASLOW RD  SHOREHAM ST & YORK RD SRGIES,-1.531066,53.316325
21.61,OVER SURGERY,0.012018,52.314809
66.87,DR TUN & PARTNERS,-2.583571,53.532102
68.60999999999999,ST.ANTHONY'S HEALTH CENTRE,-1.55655,54.966674
179.31,MANOR DRIVE MEDICAL CENTRE,-0.24836599999999998,51.380785
1.64,WESTCALL OOH,-0.8315749999999998,51.410524
172.88,BISHOPS CLOSE MEDICAL PRACTICE,-1.599142,54.699817
210.34,CLEE MEDICAL CENTRE,-0.041433,53.566223
82.09,WIBSEY & QUEENSBURY MED P,-1.779715,53.767225
68.18,SOUTHOWRAM SURGERY,-1.831696,53.712293
29.46,WHITWICK HEALTH CENTRE,-1.3606790000000002,52.742576
177.99,MARKET SURGERY,-1.345958,53.502635
16.67,BALDWINS LANE SURGERY,-0.448705,51.654076
27.11,DERWENT CRESCENT MEDICAL CENTRE,-0.175285,51.622908
161.01999999999995,THE STANMORE MEDICAL CENTRE,-0.304021,51.60154
12.93,NEASDEN MEDICAL CENTRE,-0.247382,51.559667
11.93,BROOK GREEN SURGERY,-0.218145,51.495291
229.24,ABBEY FIELD MEDICAL CENTRE,0.898575,51.877487
11.39,JOHN SMITH MEDICAL CENTRE,0.112125,51.538899
49.46,TOTTENHAM HEALTH CENTRE,-0.068474,51.604755
23.19,DR MOHAMMED GREEN MAN MEDICAL CENTRE,0.015000999999999999,51.571506
63.37000000000001,FAIRFIELD PMS,0.038949,51.483908
34.35,PARKSIDE MEDICAL CENTRE,-0.092642,51.475826
35.42,NORK CLINIC,-0.215842,51.326429
33.74,QUEENHILL MEDICAL PRACTICE,-0.066791,51.34499
46.4,GRAND DRIVE SURGERY,-0.228811,51.402155
345.59,THE BOSMERE MEDICAL PRACTICE,-0.990581,50.850232
182.81,BURNHAM HEALTH CENTRE,-0.662137,51.5349
61.1,THE LONG BUCKBY PRACTICE,-1.08255,52.30049
272.55,ASPEN MEDICAL PRACTICE,-2.225797,51.865969
64.13,GLOUCESTER CITY HEALTH CENTRE,-2.245328,51.860355
248.1,ABBEY HOUSE MEDICAL PRACTICE,-1.160725,52.260319
84.81,NORTON BROOK MEDICAL CENTRE,-3.782122,50.288739
16.1,SOMERSET BRIDGE MEDICAL CENTRE,-2.995883,51.115105
136.76,TRENT VALE MEDICAL PRACTICE,-2.201785,52.987386
53.94,BROOKSIDE SURGERY,-1.399088,52.35048
25.130000000000006,NORTHWAY MEDICAL CENTRE,-2.130997,52.54810500000001
46.17,MARTON MEDICAL PRACTICE,-3.034524,53.812843
129.04,CORNISHWAY GROUP PRACTICE,-2.265017,53.379925
37.26000000000001,BRAMHALL HEALTH CENTRE,-2.162929,53.36001
56.22,MAYNARD COURT SURGERY,0.020165,51.685605
78.77000000000002,AYLESBURY SURGERY,-1.876053,52.542854
5.69,BOWLING GREEN STREET SURGERY,-1.133096,52.63304599999999
86.40999999999998,YARM MEDICAL PRACTICE,-1.355519,54.50530500000001
35.75,BENSHAM FAMILY PRACTICE,-1.617038,54.952781
71.62000000000002,BURTON CROFT SURGERY,-1.57692,53.820807
18.880000000000006,EASTMOOR HEALTH CENTRE,-1.476864,53.690004
30.85,HARTINGTON SURGERY,-1.810816,53.142488
47.07000000000001,THE PRACTICE BEAUMONT LEYS,-1.15392,52.662296
97.02999999999999,TASBURGH LODGE SURGERY,-0.21375,53.151242
159.35,SOTHALL & BEIGHTON HEALTH CENTRES,-1.340221,53.337895
27.93,KINGSWAY SURGERY,-0.437208,51.517478
84.15999999999998,FIVE ELMS MEDICAL PRACTICE,0.14235,51.553315
30.6,SPUR ROAD SURGERY,-0.086621,51.586597
81.24000000000002,THE MEADS SURGERY,0.091624,50.969686
35.89,ALBION STREET SURGERY,-0.133965,50.827627
118.37,BELLEGROVE SURGERY,0.09579,51.464561
114.85,SOUTH VIEW PARTNERSHIP,0.026125,51.405111
39.03,CORNERWAYS SURGERY,-0.404519,50.81566
127.35,CHEAM GP CENTRE,-0.225239,51.368621
35.0,WALLINGTON MEDICAL CENTRE,-0.129285,51.357345
75.12999999999998,THE BANKS & BEARWOOD MEDICAL CENTRE,-1.9292169999999997,50.768326
29.59,MERE SURGERY,-2.265342,51.089873
9.04,RAGSTONE ROAD SURGERY,-0.601832,51.503747
50.15,COMBE DOWN SURGERY,-2.345599,51.361003
108.18,WADEBRIDGE & CAMEL ESTUARY PRACTICE,-4.835729,50.514816
24.74,NORTH PETHERTON SURGERY,-3.013922,51.09139
28.05,HANDSWORTH MEDICAL PRACT.,-1.941212,52.505377
100.39,EVE HILL MEDICAL PRACTICE,-2.096805,52.512922
16.6,BEARWOOD MEDICAL CENTRE,-1.97344,52.476903
247.44,THE GROUP PRACTICE ALFRED SQUIRE ROAD,-2.080754,52.599417
287.17999999999995,WEST DERBY MEDICAL CENTRE,-2.895944,53.431273
16.85,BEEHIVE SURGERY,-2.419172,53.564161
34.73,QUEENS MEDICAL CENTRE,-2.235847,53.50081899999999
130.2,LANGWORTHY MEDICAL PRACTICE,-2.294771,53.489371
30.09,LEY HILL SURGERY,-1.983266,52.421346
102.61,THE CHEYLESMORE SURGERY,-1.503924,52.391324
64.6,DR. B. K. PRASHARA,-2.114816,52.456326
58.62,ST PETER'S SURGERY,-1.984855,52.594537
92.89,ORMSKIRK HOUSE SURGERY,-2.74261,53.456686
107.13,MANOR HEALTH CTR,-3.044493,53.421061
158.48000000000005,THE PENDLE MEDICAL PARTNERSHIP,-2.144307,53.915882
168.84,3/SPRINGFIELD HOUSE MEDICAL PRACTICE,-2.362019,53.480252
171.39,PENNINE MEDICAL CENTRE,-2.040966,53.515337
27.78,THE CROSSROADS SURGERY,-2.770123,53.417492
16.12,CRESCENT SURGERY,0.106446,51.389854
35.46,GREEN CEDARS MEDICAL CENTRE,-0.073642,51.616071
23.21,THE KINGSWAY PRACTICE,-2.135588,53.612168
54.99,WHITE HORSE SURGERY,0.343258,51.435153
1.88,LAS S.E. LONDON IUC CAS,-0.10903099999999999,51.500174
16.52,CHAPELFORD PRIMARY CARE CENTRE,-2.633066,53.39615799999999
34.629999999999995,BHF LUNDWOOD SURGERY,-1.438538,53.557711
161.55,DALTON SURGERY,-3.179816,54.155917
61.51,THE SELE MEDICAL PRACTICE,-2.095702,54.970372
12.63,WOODLANDS PARK HEALTH CTR,-1.628825,55.04614
39.19,CONCORD MEDICAL PRACTICE,-1.524864,54.913411
126.96,MARKET WEIGHTON GROUP PRACTICE,-0.674786,53.864903
125.97,RAJ MEDICAL CENTRE,-0.113968,53.550655
56.26,MAYFORD HOUSE SURGERY,-1.446534,54.328376
46.41,OAKWOOD LANE MEDICAL PRACTICE,-1.493931,53.819982
210.09,HEALTH CARE FIRST PARTNERSHIP,-1.393615,53.736872
124.67,HAVEN MEDICAL CENTRE,-1.416874,52.891498
69.89,COUNTESTHORPE HEALTH CENTRE,-1.136767,52.554536
192.81,CASTLE HEALTHCARE PRACTICE,-1.144908,52.930476
238.06,BROOM LANE MEDICAL CENTRE,-1.332311,53.417383
12.87,CADDINGTON SURGERY,-0.458179,51.864502
25.03,ANNANDALE MEDICAL CENTRE,-0.17421099999999998,51.698571
83.93,WEST ROAD MEDICAL CENTRE,-1.656263,54.976209
22.66,IMEARY STREET PRACTICE,-1.424863,54.98753000000001
22.840000000000003,THE KILLINGHOLME SURGERY,-0.260335,53.62990799999999
121.73,DR SINHA & PARTNERS,0.100204,53.030138
106.51999999999998,THE HEALTH CARE SURGERY,-1.487911,53.42172
104.49,COMBERTON SURGERY,0.018614,52.189811
185.04,TRINITY & BOWTHORPE MEDICAL PRACTICE,1.280248,52.624411
99.01,THE LIMES SURGERY,-0.010842,51.759413
16.689999999999998,SHEPHALL HEALTH CENTRE,-0.167642,51.890799
20.43,WAKEMANS HILL SURGERY,-0.254209,51.587088
80.98999999999998,FOREST PRACTICE,0.07523499999999998,51.654789
13.48,PRASAD,0.210579,51.600308
65.28,HARROW ROAD GP CENTRE,0.012856,51.559538
45.45,SEVEN DIALS MEDICAL CENTRE,-0.147743,50.829681
200.26,NORTHDOWN SURGERY,1.368001,51.379866
26.25,MILTON REGIS SURGERY,0.7321839999999998,51.349193
135.07,BARCROFT MEDICAL CENTRE,-1.780526,51.172939
53.05,BURBAGE SURGERY,-1.669545,51.348496
129.71,THE SWAN PRACTICE,-0.985664,52.001593
166.98,PIONEER MEDICAL GROUP,-2.617628,51.510306
64.83,THE CREST FAMILY PRACTICE,-2.596274,51.428746
76.53,WORTHEN MEDICAL PRACTICE,-3.000165,52.635224
54.87,NESTON MEDICAL CENTRE,-3.064349,53.291818
178.36,KIRKDALE MEDICAL CENTRE,-2.973842,53.433523
86.68,WITHNELL HEALTH CENTRE,-2.556663,53.692491
325.75,DARWEN HEALTHLINK,-2.471427,53.695744
106.59,ST.MARY'S HEALTH CENTRE,-2.729589,53.747433
88.28999999999998,DAVID MEDICAL CENTRE,-2.268652,53.43186
55.86,DR ABBAS,-0.841253,52.26834
78.36,FACCINI HOUSE SURGERY,-0.189379,51.389682
51.12000000000001,EDLESBOROUGH SURGERY,-0.588625,51.868423
24.75,DR GS KALKAT'S PRACTICE,0.103861,51.527941
83.09999999999998,JRB HEALTHCARE BEECHDALE SURGERY,-1.198142,52.961504
10.97,THE LYNWOOD SURGERY,-0.29964,51.528594
9.87,CHURCH VIEW MEDICAL CENTRE,-2.960328,50.935622
88.37999999999998,WOODLANDS FAMILY MEDICAL CENTRE,-1.321204,54.561215
18.88,ASKAM SURGERY,-3.210918,54.183705
310.78,FERRYHILL AND CHILTON MEDICAL PRACTICE,-1.556828,54.689838
41.81,COLLIERY COURT MEDICAL GROUP,-1.460703,54.949762
28.08,GRANGE PARK SURGERY,-1.7481080000000002,53.912695
149.76,THE COUNTY PRACTICE,-1.069884,52.70073000000001
334.8400000000001,BEECHFIELD MEDICAL CENTRE,-0.145012,52.787253
129.4,GRIMETHORPE SURGERY,-1.378978,53.573614
32.1,THE OAKWOOD SURGERY,-1.073937,53.506609
57.91,PAPWORTH SURGERY,-0.11749200000000001,52.252071
144.39,ORCHARD SURGERY,0.944176,52.678309
95.86000000000001,DR JK MARSDEN'S PRACTICE,-0.436528,51.894968
59.45,MALTINGS SURGERY,-0.337918,51.751851
46.47,HANWELL HEALTH CENTRE (NAISH),-0.334375,51.510263
112.87,WHITLEY HOUSE SURGERY,0.455723,51.726539
90.67,WEST ROAD SURGERY,0.70187,51.544989
46.74,JOYDENS WOOD MEDICAL CENTRE,0.166397,51.42449
367.14,TRAFALGAR MEDICAL GROUP PRACTICE,-1.092485,50.785331
567.83,EASTFIELD HOUSE SURGERY,-1.323251,51.395555
37.07,RECTORY MEADOW SURGERY,-0.6175,51.669079
78.58,TUDOR LODGE SURGERY,-2.975378,51.332396
78.76999999999998,PRAZE-AN-BEEBLE SURGERY,-5.309264,50.173753
247.19,CAMBRIAN MEDICAL PRACTICE,-3.047774,52.86281
43.03,PENN SURGERY,-2.145001,52.568567
60.16,FIRDALE MEDICAL CENTRE,-2.537387,53.253804
27.54,HALL GREEN SURGERY,-2.741349,53.540745
24.87,SARAF MEDICAL PRACTICE,-2.076954,53.561455
25.56,LATIMER HEALTH CENTRE,-0.049503,51.54659
30.43,DELL MEDICAL CENTRE,0.328114,51.480258
24.2,KIRKSTALL LANE MEDICAL CENTRE,-1.587333,53.816942
81.14,WHITCHURCH SURGERY,-1.340372,51.230256
34.42,DR NEWMAN,-1.975441,50.719722
42.92,THE TRINITY MEDICAL CENTRE,0.085815,51.478803
83.01,KIRKBY COMMUNITY PRIMARY CARE CENTRE (3),-1.248741,53.10176
56.86,BERKLEY PRACTICE,-2.024533,52.58916
92.28,BELLE VALE HEALTH CENTRE,-2.859752,53.392035
75.94,ELIZABETH STREET SURGERY,-3.043658,53.820839
10.56,RAMSBOTTOM MEDICAL PRACTICE,-2.319287,53.64878
30.77,THE WHITSWOOD PRACTICE,-2.253502,53.455769
199.23,WOODLANDS MEDICAL PRACTICE,-2.142182,53.545559
159.12,BROOKS BAR MEDICAL CENTRE,-2.261969,53.461412
84.18,BROOK HOUSE SURGERY,-1.445882,50.921794
18.48,ASHVILLE SURGERY,-0.201145,51.476255
16.380000000000006,THE VILLAGE MEDICAL CTR,-0.512653,52.128152
2.09,DR HANTSDOC N OOH,-1.109918,51.280633
0.38,GP COLLABORATIVE OOH,-1.455965,53.409821
23.62,ST NEOTS HEALTH CENTRE,-0.267116,52.228966
0.92,HMR BARDOC OOH,-2.288591,53.59553
137.16,PRIORY MEDICAL CENTRE,-1.588641,52.285051
7.5,MODALITY ANN JONES FAMILY HEALTH CENTRE,-1.871333,52.462659
39.6,BALDWINS LANE SURGERY,-1.846405,52.414514
43.23,TUDOR PRACTICE STOCKLAND GREEN,-1.857329,52.52388199999999
87.15999999999998,CENTRAL SURGERY,-2.74261,53.456686
116.25,ASH TREES SURGERY,-2.769484,54.129481
31.540000000000006,FAMILY PRACTICE,-2.486748,53.750552
7.65,MONARCH MEDICAL CENTRE,-2.316823,53.564198
167.62,LEESBROOK SURGERY,-2.07266,53.53879
7.5,WALTON SURGERY,1.335453,51.973564
42.18,LINCOLN GREEN MEDICAL CENTRE,-1.525196,53.802098
32.92,PARKGATE SURGERY,-1.548606,54.523273
17.78,DALTON TM,-2.643772,53.529393
24.19,POLLARD ROW SURGERY,-0.064328,51.528266
79.87,BALDERTON SURGERY,-0.7864679999999998,53.052881
27.25,ULVERSTON COMMUNITY HEALTH CENTRE,-3.097833,54.198882
108.5,NORTH ROAD SUITE RAVENSTHORPE HEALTH CTR,-1.661589,53.677829
60.77,RADCLIFFE-ON-TRENT. HEALTH CENTRE,-1.03822,52.946139
53.01,RISE PARK SURGERY,-1.174951,53.011477
7.65,MANCHESTER ROAD SURGERY,-1.521086,53.380573
89.20999999999998,CHERRY HINTON MEDICAL CENTRE,0.177635,52.187459
133.14,THE MEDICI MEDICAL PRACTICE,-0.418382,51.874494
136.5,PENSHURST GARDENS SURGERY,-0.272812,51.616129
39.24,ELLIS PRACTICE,-0.276552,51.563894
25.71,ORCHARD END,0.539532,51.091415
70.92999999999998,NEW ELTHAM AND BLACKFEN MEDICAL CENTRE,0.074199,51.434495
36.35,THE GROVE MEDICAL CENTRE,-2.513702,50.953273
107.09,BISHOPS WALTHAM SURGERY,-1.212149,50.95528
84.61000000000001,COLVILLE HEALTH CENTRE,-0.206231,51.515837
17.09,BRICKFIELDS SURGERY,0.605168,51.653143
19.03,TYNEMOUTH MEDICAL PRACTICE,-0.068331,51.586253
121.76,TRINITY MEDICAL CENTRE,-0.172008,50.831228
237.99,THE CEDARS SURGERY,1.403174,51.217619
88.79,THE KINGS FAMILY PRACTICE,0.534548,51.377821
69.05,FOUNTAIN PRACTICE,-0.252307,51.350378
74.86,ST ALBANS MEDICAL CENTRE,-0.302479,51.42195
73.23999999999998,ORCHID HOUSE SURGERY,-1.894499,50.801788
98.91999999999999,THE HADLEIGH PRACTICE,-1.993525,50.761018
190.63,THREE CHEQUERS MEDICAL PRACTICE,-1.794625,51.071924
137.12,WEAVERS MEDICAL,-0.733538,52.401531
50.63,NUFFIELD HEALTH CENTRE,-1.486793,51.786441
189.97,BARTON SURGERY,-3.473818,50.579848
104.72,BIDEFORD MEDICAL CENTRE,-4.211785,51.017201
76.39999999999998,CORBETT MEDICAL PRACTICE,-2.148792,52.263269
358.73,THE WESTGATE PRACTICE,-1.821176,52.683537
91.25,COBRIDGE SURGERY,-2.187008,53.035377
13.62,BURBURY MEDICAL CENTRE,-1.9103740000000002,52.502215
120.12,PLECK HEALTH CENTRE,-1.9980380000000002,52.574248
19.33,CORNERSTONE SURGERY,-2.724149,53.454211
53.67,HIGHER HEYS SURGERY,-2.394094,53.740865
305.82,ALBION MEDICAL PRACTICE,-2.088476,53.48960400000001
121.94,DELAMERE MEDICAL PRACTICE,-2.307365,53.450887
134.64,240 WEXHAM ROAD,-0.57838,51.516902
18.75,LONGFIELD MEDICAL PRACTICE,-2.28357,53.533828
90.29,THISTLEMOOR MEDICAL CENTRE,-0.254566,52.595274
7.5,PALACCI (CASTELNAU),-0.238274,51.476873
61.94,CANTERBURY HEALTH CENTRE,1.082981,51.274249
37.53,BANBURY HEALTH CENTRE,-1.334014,52.062032
60.58,BRERETON SURGERY,-1.924317,52.747482
38.97,THE LAWNS SURGERY,-0.502907,50.807746
17.45,OAK TREE HEALTH CENTRE,-1.2409629999999998,51.614986
68.33000000000001,THE TRINITY MEDICAL PRACTICE,0.760305,51.684982
9.87,SOHO HEALTH CENTRE,-1.934945,52.503094
101.76,BRIERLEY MEDICAL CENTRE,-1.382484,53.594188
1.53,NORWICH IMPROVED ACCESS HUB,1.319958,52.632405
89.84,METRO INTERCHANGE SURGERY,-1.602943,54.961848
127.2,BRIDGE VIEW MEDICAL GROUP,-1.401824,54.919455
124.36,QUAKERS LANE SURGERY,-1.741713,54.406363
60.44000000000001,HOLLYNS HEALTH & WELLBEING - CLAYTON,-1.81454,53.779166
111.28,BRIDGE STREET MEDICAL PRACTICE,-1.20716,52.774841
159.59,CAYTHORPE & ANCASTER MEDICAL PRACTICE,-0.536327,52.981851
144.72,PARSON DROVE SURGERY,0.050459,52.660947
60.28,PRIORS FIELD SURGERY,0.124169,52.388951
85.19,DAVENPORT HOUSE SURGERY,-0.354549,51.816177
150.64,MILLWAY MEDICAL PRACTICE,-0.24359099999999997,51.614985
169.64999999999995,TEMPLE FORTUNE MEDICAL GROUP,-0.197845,51.581101
3.47,MOULSHAM LODGE SURGERY,0.475137,51.716565
18.06,WARRIOR SQUARE SURGERY,0.716503,51.539534
6.12,BRAYFORD SQUARE SURGERY,-0.050404,51.514375
26.32,YORK ROAD SURGERY,0.065859,51.559165
86.72,WEST MALLING GROUP PRACTICE,0.407707,51.293351
168.42,ELMDENE SURGERY,0.263153,51.446098
55.03,MOAT HOUSE SURGERY,-0.146361,51.259819
46.4,ALEXANDRA SURGERY,-0.205887,51.422912
116.8,DENHAM MEDICAL CENTRE,-0.502236,51.584564
114.18,CHEW MEDICAL PRACTICE,-2.629195,51.35619
69.47,ST.GEORGE'S SURGERY,-2.0815,51.906706
129.57,CHARING SURGERY,0.791374,51.20971
10.56,THAMES AVE SURGERY,0.603057,51.36344
171.89,CANTERBURY MEDICAL PRACTICE,1.128982,51.245539
3.04,TRAFALGAR SURGERY,-0.074414,51.485672
60.95,THE ORCHARD PRACTICE,-0.303542,51.369116
33.59,BALHAM PARK SURGERY,-0.155715,51.440487
51.25,LINDEN MEDICAL CENTRE,-0.737415,51.530813
68.02000000000001,OBSERVATORY MEDICAL PRACTICE,-1.265958,51.760293
74.77000000000002,CROPREDY SURGERY,-1.320027,52.116731
257.45,HEART OF BATH,-2.373947,51.376364
36.39,BIRCHWOOD MEDICAL PRACTICE,-2.547938,51.446246
59.45,LOSTWITHIEL SURGERY,-4.668763,50.407892
29.31,ST SAVIOURS SURGERY,-2.308488,52.130324
131.64,WERRINGTON VILLAGE SURGERY,-2.098023,53.021659
33.27,WEST HEATH SURGERY,-1.96202,52.401797
29.27,WEST PARK SURGERY,-2.141256,52.587783
81.5,THE MARSHSIDE SURGERY,-2.963125,53.67143299999999
83.87999999999998,MERSEYBANK SURGERY,-2.263012,53.42276
105.52,THE GROVE ROAD PRACTICE,-0.202341,51.358201
26.25,MOOR PARK MEDICAL PRACTICE,-1.7218490000000002,53.797834
9.03,UPTON ROCKS PRIMARY CARE,-2.754371,53.373367
19.27,HANLEY PRIMARY CARE CENTRE,-0.12083699999999999,51.567951
19.74,LEYLAND SURGERY,-2.709316,53.689645
1.88,HP NMP'S RUSH CCG,-1.143101,53.130244
27.33,WELLSBOURNE HEALTHCARE CIC,-0.107386,50.825445
60.540000000000006,CHEVIOT MEDICAL GROUP,-2.01842,55.546525
136.26,THE CENTRAL SURGERY BARTON,-0.439445,53.684236
25.97,DEARNE VALLEY HEALTH CENTRE,-1.626482,53.588349
103.15,MICKLEOVER MEDICAL CENTRE,-1.54633,52.907111
30.14,THE UNIV OF NOTTINGHAM HEALTH SERV,-1.195942,52.942177
80.43,LISTER HOUSE SURGERY,-0.4515,51.89192
49.18000000000001,THE ELMS SURGERY,-0.404224,51.661642
56.63,HOUNSLOW MEDICAL CENTRE,-0.37684,51.469395
44.40000000000001,P A PATEL SURGERY,0.582273,51.56978
13.7,SANCTA MARIA MEDICAL CENTRE,0.284011,51.507882
140.67,SEAFORD MEDICAL PRACTICE,0.099275,50.772678
248.66,BUXTED MEDICAL CENTRE,0.132095,50.989406
15.0,NEW INN SURGERY,-0.545657,51.257698
61.39999999999999,THE WHITEHORSE PRACTICE,-0.097391,51.385869
85.97,THE HEALTH CENTRE,-0.19711,51.363031
82.52000000000002,WEST END ROAD SURGERY,-1.359281,50.916702
74.37,TOWER HOUSE SURGERY,-0.770004,51.636372
83.74000000000002,CHURCH STREET PRACTICE,-1.425847,51.598763
64.16,CLINTON ROAD SURGERY,-5.224966,50.23093
56.61,PINHOE SURGERY,-3.469622,50.737528
263.38,ROSEBANK HEALTH,-2.242194,51.852611
47.91,MAPLE VIEW MEDICAL PRACTICE,-1.905693,52.31659
40.2,PRESCOTT SURGERY,-2.852689,52.784345
12.31,BLOOMSBURY HEALTH CENTRE,-1.876618,52.493743
6.11,HEATON ROAD SURGERY,-1.579814,54.978269
19.73,49 MARINE AVENUE SURGERY,-1.451082,55.046268
39.05,HOUGHTON MEDICAL GROUP ,-1.469175,54.842322
89.06999999999998,HOWDEN MEDICAL PRACTICE,-0.8694039999999998,53.744175
27.32,HANCOCKS ME,-0.41296400000000005,53.782123
59.81,THE WILSDEN MEDICAL PRACTICE,-1.86138,53.818377
17.78,COLSTERWORTH SURGERY,-0.619356,52.806388
61.03999999999999,LUNDWOOD MEDICAL CENTRE PMS PRACTICE,-1.438538,53.557711
31.68,GREASBROUGH MEDICAL CENTRE,-1.372776,53.452893
90.31,WELLSIDE SURGERY,-0.28478,52.440324
112.38,CLARE GUILDHALL SURGERY,0.580469,52.078259
60.97,LATTIMORE & VILLAGE SURGERY,-0.298547,51.726244
21.82,SOMERSET MEDICAL CENTRE,-0.371127,51.522244
159.4,CENTRAL UXBRIDGE SURGERY,-0.475739,51.546229
144.59,WEST MERSEA SURGERY,0.9193420000000002,51.778349
121.18,HIGHLANDS SURGERY,0.637339,51.548005
98.07,BALLARDS WALK SURGERY,0.441841,51.573232
227.01,DOWNLANDS MEDICAL CENTRE,0.244085,50.822919
49.44,OTFORD MEDICAL PRACTICE,0.191446,51.31358
74.14,THE HALFWAY SURGERY,0.524157,51.380429
31.87,BURNEY STREET PMS,-0.009168,51.479034
44.61,ELIZABETH HOUSE MEDICAL PRACTICE,-0.050005,51.308093
24.47,ADDINGTON MEDICAL PRACTICE,-0.018557,51.344382
18.92,SARAJLIC (STAINES ROAD),-0.357923,51.439672
219.79,ROYAL CRESCENT SURGERY,-2.452679,50.616587
35.19,TWYFORD SURGERY,-1.314229,51.019421
48.5,ST.BARTHOLOMEWS MEDICAL CENTRE,-1.232108,51.747668
266.02,THE DOWNEND HEALTH GROUP,-2.505301,51.485109
186.11,IDE LANE SURGERY,-3.534972,50.699471
34.6,THE ARROW SURGERY,-1.861382,52.218546
1138.0800000000004,DR SN CLAY AND PARTNERS,-1.832005,52.528641
54.01,WILLENHAL OAK MEDICAL CENTRE,-1.463131,52.388988
126.2,WORDSLEY GREEN HEALTH CENTRE,-2.164692,52.480602
133.32,THE OVER-WYRE MED.CTR.,-2.976492,53.928203
26.1,FISHERGATE HILL SURGERY,-2.714363,53.75445500000001
79.03,THE SINGH MEDICAL PRACTICE,-2.213622,53.512042
108.47,PARK VIEW GROUP PRACTICE,-2.160577,53.445476
45.43,FAMILY SURGERY,-2.346055,53.396194
1.53,STROKE PATHWAY AND REHABILITATION CENTRE,-1.461102,53.37116700000001
115.64,WHITLEY BAY HEALTH CENTRE,-1.43996,55.04141
54.2,BLACKBURN RD.MEDICAL CTR.,-1.664718,53.731348
171.54000000000005,MARKET HARBOROUGH MED.CTR,-0.924843,52.477084
45.71,COMMUNITY HEALTH CENTRE (ZS OSAMA),-1.113421,52.632387
112.16,TRAMWAYS MEDICAL CENTRE (O'CONNELL),-1.503023,53.402044
33.47,SAFFRON HEALTH PARTNERSHIP,-0.264459,52.084232
73.72,GLADSTONE MEDICAL CENTRE,-0.24612,51.558731
30.98,ST MARTINS MEDICAL CENTRE,-0.424566,51.577646
29.46,ABRIDGE SURGERY,0.12458,51.653631
30.0,ELSDALE STREET SURGERY,-0.049094,51.543033
103.04,STOPSLEY VILLAGE PRACTICE,-0.394147,51.901132
99.43,SHEFFORD HEALTH CENTRE,-0.321643,52.034788
43.19,VALE DRIVE MEDICAL PRACTICE,-0.194727,51.648828
61.29,THE FRYENT WAY SURGERY,-0.280565,51.582963
51.4,BELMONT MEDICAL CENTRE,-0.478036,51.548264
16.94,PORTLAND ROAD PRACTICE,-0.208019,51.507366
220.99,AUDLEY MILLS SURGERY,0.607129,51.584978
35.76,STRATFORD HEALTH CENTRE,0.004714,51.544651
44.33,THE STROUDLEY WLK HTH CTR,-0.017533,51.527214
60.0,ST JOHN'S MEDICAL PRACTICE,0.195249,51.285009
92.55,BEXLEY GROUP PRACTICE,0.10965599999999999,51.465832
46.14,DERRY DOWNS SURGERY,0.116651,51.385174
114.36,UPPER NORWOOD GROUP PRACTICE,-0.08482,51.413308
25.3,THE MOORINGS MEDICAL PRACTICE,-0.095892,51.322229
60.67,THE TOLLERFORD PRACTICE,-2.571586,50.778924
116.18,BLACKTHORN HEALTH CENTRE,-1.327194,50.876037
84.0,JUBILEE FIELD SURGERY,-2.191875,51.484091
70.75999999999998,DANES CAMP MEDICAL CENTRE,-0.904374,52.205152
119.28,THORNBURY HEALTH CENTRE - BURNEY,-2.517723,51.612861
113.1,ELM HAYES SURGERY,-2.492756,51.300546
99.68,CULVERHAY SURGERY,-2.348649,51.638921
46.03,SHAWBIRCH MEDICAL CENTRE,-2.531858,52.718121
137.65,THE DOVE MEDICAL PRACTICE,-1.864605,52.535155
111.03,MOSS GROVE SURGERY,-2.1699,52.498674
187.45,WARLEY MEDICAL CENTRE,-2.006757,52.468122
20.43,SPRINGFIELDS MEDICAL CENTRE,-2.597522,53.389256
75.29999999999998,WEAVER VALE PRACTICE,-2.696866,53.325561
262.52,GLOVERS LANE SURGERY,-2.971961,53.488314
71.06,OLIVE MEDICAL CENTRE,-2.484193,53.752309
32.51,HALLIWELL SURGERY 1,-2.431738,53.588322
32.76,HEATON MERSEY MED.PRACT.,-2.205118,53.412519
28.19,VILLAGE SURGERY,-0.255874,51.399503
3.06,SOMERS TOWN MEDICAL CENTRE,-0.130607,51.529916
4.59,WOOTTON VALE HEALTHY LIVING CENTRE,-0.527951,52.093688
47.84,ST LUKE'S HEALTH CENTRE,0.7293039999999998,51.551
288.88,THE MEDICAL GROUP,-1.628911,54.748296
84.58,GLENPARK MEDICAL CENTRE,-1.640096,54.953229
25.58,DR KHALIQ,-1.799612,53.663276
91.95,ROBIN LANE HEALTH AND WELLBEING CENTRE,-1.661311,53.79500899999999
102.48,LAUREL BANK SURGERY,-1.587333,53.816942
69.37,HUGGLESCOTE SURGERY,-1.365684,52.71103
251.81,HEALTH CARE COMPLEX  KIRKBY,-1.244634,53.100062
100.86,RED HOUSE SURGERY,0.129161,52.214906
38.06,KINGS HEAD MEDICAL PRACTICE,-0.011448,51.635688
0.94,WARRINGTON SUBSTANCE MISUSE SERVICE,-2.595849,53.38675799999999
10.55,BRIMPTON HOUSE,0.699534,51.835776
67.02,THE AZAD PRACTICE,0.044868,51.531234
84.46,NEWHOLME SURGERY,-2.74261,53.456686
68.92999999999999,LUNESDALE SURGERY,-2.602213,54.200573
84.67,COQUET MEDICAL GROUP,-1.580504,55.332599
3.06,THE GLENDALE SURGERY,-2.01842,55.546525
10.56,ALLERTON MEDICAL CENTRE,-1.533879,53.826921
106.14,SPILSBY SURGERY,0.098963,53.173049
99.15,BRIDGEWAY PRACTICE,-1.147343,52.943574
10.64,THORNE MOOR MEDICAL PRACTICE,-0.966348,53.613648
123.43,MANOR AND PARK GROUP PRACTICE,-1.42716,53.373705
98.47000000000001,SOLE BAY H/C,1.6664740000000002,52.336325
74.84999999999998,DR PS BATH'S PRACTICE,-0.394147,51.901132
41.31,WATERSIDE MEDICAL CENTRE,-0.363984,51.502165
59.24,MELBOURNE HOUSE SURGERY,0.451756,51.749214
81.41000000000003,LITTLE WALTHAM & GT NOTLEY SURGERY,0.477622,51.787396
34.18,AMPTHILL PRACTICE,-0.137293,51.5346
36.12000000000001,THE NORTH LONDON HEALTH CENTRE,-0.11243199999999999,51.617571
82.04999999999998,THE WILLOWS PRACTICE,0.104416,51.60776
161.99,ST.PETER'S MEDICAL CENTRE,-0.135237,50.831002
220.2,HIGHPARKS MEDICAL PRACTICE,0.496762,51.434213
124.74,YALDING,0.429804,51.221188
83.28999999999998,CRAWLEY DOWN HEALTH CENTRE,-0.07762099999999998,51.122557
27.54,BIRDHURST MEDICAL PRACTICE,-0.092613,51.365279
84.98999999999998,FORESTSIDE MEDICAL PRACTICE,-1.416173,50.851823
34.74,BENTLEY VILLAGE SURGERY,-0.87992,51.189933
70.12,DR KUMAR & PARTNER STUDFALL MEDICAL CTR,-0.704816,52.495882
101.34,CASTLE PLACE PRACTICE,-3.492865,50.908884
197.17,COTSWOLD MEDICAL PRACTICE,-1.75678,51.886317
90.66,GLASTONBURY SURGERY,-2.721853,51.148462
107.22,NUNWELL SURGERY,-2.507177,52.187931
131.18,CLEOBURY MORTIMER SURGERY,-2.485608,52.377502
183.14,MEDINA HEALTHCARE,-1.298686,50.697239
70.39000000000001,BEDFORD STREET SURGERY,-0.729782,51.995784
203.31,ALCHESTER MEDICAL GROUP,-1.138371,51.891398
62.14,GREENWAY COMMUNITY PRACTICE,-2.611274,51.499595
168.42000000000004,THREE SPIRES MEDICAL PRACTICE,-5.055864,50.259982
28.75,DEAN CROSS SURGERY,-4.095355,50.358939
73.45,SOUTHOVER MEDICAL PRACTICE,-3.528075,50.474733
1532.3100000000004,NEW VALLEY PRACTICE,-3.654492,50.792383
87.39,THE STOKE ROAD SURGERY ,-2.068173,51.94667
54.63,HIGHBRIDGE MEDICAL CENTRE,-2.979117,51.227372
203.79,CANTILUPE SURGERY,-2.712261,52.055418
88.76999999999998,MYTTON OAK MEDICAL PRACT.,-2.797762,52.707667
96.42,DRS SHAH & TALPUR,-2.194635,52.974032
148.65,DR VSR CHADALAVADA,-2.139143,53.0416
90.22000000000001,HAWKESLEY MEDICAL PRACTICE,-1.937498,52.39544
6.8100000000000005,KEYNELL COVERT,-1.911857,52.408441
55.43,PARK MEDICAL CENTRE,-2.873099,53.202665
188.18,NORWOOD SURGERY,-2.97819,53.65000799999999
142.15,WHALLEY MEDICAL CENTRE,-2.406348,53.819793
7.76,SLAIDBURN HEALTH CENTRE,-2.444001,53.967313
103.62,PIKES LANE 1,-2.446348,53.572728
41.4,DR PATHAK ND,-1.9843959999999998,52.51273
99.49,STRELLEY HEALTH CENTRE (COCKRILL),-1.227726,52.973231
98.22000000000001,PHOENIX MEDICAL PRACTICE,0.48126899999999995,51.328805
43.62,NETHERTON SURGERY,-2.97236,53.488626
19.73,DILSTON MEDICAL CENTRE,-1.640355,54.976621
22.35,NORTH CHELMSFORD NHS HCC,0.510815,51.750584
25.56,KIRKHOLT MEDICAL PRACTICE,-2.162243,53.59832
17.2,DR AZIM & PARTNERS,-0.225729,51.579655
46.73,BHF HIGHGATE SURGERY,-1.378978,53.573614
25.17,SEASCALE HEALTH CENTRE,-3.479998,54.396756
11.4,WIDDRINGTON SURGERY,-1.62051,55.240248
49.05,RIPLEY MEDICAL CENTRE,-1.405723,53.04704
35.42,DE MONTFORT SURGERY,-1.141192,52.6286
6.94,DENABY MEDICAL PRACTICE,-1.245792,53.490666
118.47,MENDLESHAM MEDICAL GROUP,1.0816,52.251866
77.68,UPTON ROAD SURGERY,-0.401058,51.656689
143.15,DOLPHIN HOUSE SURGERY,-0.029818,51.810791
92.3,THE EVERGLADE MEDICAL PRACTICE,-0.24421,51.601578
64.16,FRIERN BARNET MEDICAL CENTRE,-0.155988,51.613267
42.09,THE CIVIC MEDICAL CENTRE,-0.337497,51.587155
81.29999999999998,THE GOLD STREET SURGERY,0.240471,52.021716
183.69000000000003,THE HOLLIES,0.610574,51.555461
24.270000000000003,THE LEIGH SURGERY,0.656153,51.555504
77.43,WEST HAMPSTEAD MEDICAL CENTRE,-0.196578,51.55004
69.84,STAUNTON GROUP PRACTICE,-0.112926,51.599388
80.34,SOUTHBROOM SURGERY,-1.989037,51.352288
45.14,THE DOWNLAND PRACTICE,-1.312402,51.463442
40.41,BLAKENEY SURGERY,-2.476364,51.759117
18.06,WELLS HEALTH CENTRE,-2.655326,51.203403
156.34,RIVERSIDE MED.PRACTICE,-2.755278,52.709209
106.68,CHANCERY LANE SURGERY,-1.521755,52.536173
22.92,NECHELLS PRACTICE,-1.876618,52.493743
130.99,THE LIMES MEDICAL CENTRE,-1.974677,52.58065500000001
143.04,TOWNFIELD HEALTH CENTRE,-3.064248,53.378798
27.24,PRINGLE STREET SURGERY,-2.467594,53.742039
26.01,HOPWOOD MEDICAL CENTRE,-2.212052,53.587143
46.66,THE KILTEARN MEDICAL CTR.,-2.518506,53.068155
127.95,BROADWAY MEDICAL CENTRE,-3.033843,53.912667
22.37,EGERTON/DUNSCAR HEALTH CENTRE,-2.426383,53.617589
145.0,SADDLEWORTH MEDICAL PRACTICE,-2.004957,53.548331
63.65000000000001,VILLAGE MEDICAL PRACTICE,-2.095994,53.574817
0.97,EASTGATE SURGERY,-0.519836,51.886145
21.12,SUMMERFIELD GROUP PRACTICE,-1.937353,52.487686
90.64,PHOENIX PRIMARY CARE (SOUTH) LTD,-0.441597,51.88973
29.18,THURROCK HEALTH CENTRE,0.323317,51.477404
44.33,THE OM SURGERY,-1.2057,53.034978
216.06,THE NEW SPRINGWELLS PRACTICE,-0.340804,52.893623
27.22,CAMP HILL GP LED HEALTH CENTRE,-1.507061,52.533074
1.53,THE PATEL PRACTICE,-1.1885709999999998,54.661404
33.34,HOLMSIDE MEDICAL GROUP,-1.66023,54.969004
59.35,FARROW MEDICAL CENTRE,-1.74312,53.802511
110.75,PADDOCK AND LONGWOOD FAMILY PRACTICE,-1.80546,53.642119
83.42,BRAMLEY VILLAGE HEALTH & WELLBEING CTR,-1.623032,53.80781999999999
18.91,SEVERN SURGERY,-1.065583,52.598801
492.89,BEACHES MEDICAL CENTRE,1.727734,52.577124
21.380000000000006,LINDEN ROAD SURGERY,-0.479248,52.14361
87.14000000000001,CUFFLEY AND GOFFS OAK MEDICAL PRACTICE,-0.113106,51.708171
118.33,THE GARTH,-1.055444,54.532597
67.9,THE GABLES MEDICAL GROUP,-1.564429,55.140811
35.39,HAYDON BRIDGE & ALLENDALE MEDICAL PRACT,-2.250059,54.975681
68.25,SPRING TERRACE HEALTH CENTRE,-1.450673,55.010941
102.88,PRACTICE ONE,-0.201064,54.084715
134.45,CHURCH STREET SURGERY,-1.583343,53.681523
63.49,SOUTH WIGSTON HEALTH CTR.,-1.129183,52.580452
57.4,BRAMCOTE SURGERY,-1.244985,52.935604
57.69,CAMPINGLAND SURGERY,0.690978,52.645997
31.2,LEIGHTON ROAD SURGERY,-0.66795,51.915779
87.47,WILLOW TREE FAMILY DOCTORS,-0.265224,51.589337
31.6,QUEENS WALK PRACTICE,-0.312985,51.524803
68.61,HIGH STREET SURGERY  EPPING,0.113402,51.700812
261.55,OLD ROAD SURGERY,1.148421,51.795466
39.2,HIGH STREET SURGERY,0.223589,51.561554
43.96,THE LIMEHOUSE PRACTICE,-0.028747,51.511253
3.06,MEDICUS HEALTH PARTNERS-WILLOW HOUSE,-0.07659,51.654209
56.28,MAIDSTONE RD RAINHAM SURGERY,0.600379,51.36233
20.44,BANK HOUSE SURGERY,0.069949,51.359218
49.16,FORDBRIDGE MEDICAL CENTRE,-0.46301,51.431269
73.33,EVERSLEY MEDICAL CENTRE,-0.11191300000000001,51.388514
23.18,YORK MEDICAL PRACTICE,-0.325697,51.449369
38.69000000000001,BERRYLANDS SURGERY,-0.299929,51.390825
136.15,CRICKET GREEN MEDICAL PRACTICE,-0.174025,51.404579
33.9,CARRINGTON HOUSE SURGERY,-0.749217,51.632299
5.4,PROSPECT HOUSE SURGERY,-0.705258,51.701136
4.59,WEMBURY SURGERY,-4.072566,50.32186
41.27,HOLLYOAKS MEDICAL CENTRE,-1.869052,52.377979
122.67,WOODSETTON MEDICAL CENTRE,-2.10089,52.537994
159.07,SHERWOOD HOUSE MEDICAL PRACTICE,-1.959426,52.473851
38.34,GARSTON FAMILY HEALTH CENTRE,-2.89683,53.353909
86.31,COMMONFIELD RD SURGERY,-3.086369,53.370187
106.43,THE BORCHARDT MEDICAL CENTRE,-2.237795,53.434307
38.34,WERNETH MEDICAL PRACTICE,-2.126938,53.53497
22.65,CHAPEL MEDICAL CENTRE,-2.418293,53.449094
32.09,DR VICTORIA MUIR'S PRACTICE,-0.151358,51.490651
142.75,WELLFIELD MEDICAL CENTRE,-2.242019,53.512545
165.71,NEWLANDS MEDICAL CENTRE,-1.226035,54.571931
79.75999999999998,WIGTON GROUP MEDICAL PRACTICE,-3.159002,54.820303
28.55,THE FAMILY PRACTICE,-3.229282,54.116755
128.86,SKERNE MEDICAL GROUP,-1.4488,54.654032
92.15,ST ANDREWS SURGERY,-0.361958,53.735566
67.58,COWGILL SURGERY,-1.814543,53.781952
72.12999999999998,VILLAGE SURGERY,-1.485797,52.896347
126.64,THE GLENSIDE COUNTRY PRACTICE,-0.537958,52.75451
169.45,PLEASLEY SURGERY,-1.250873,53.175809
78.89,BACON LANE SURGERY,-0.275903,51.605078
142.15,THE MEDICAL CENTRE  DR JEFFERIES & PARTN,-0.212607,51.481206
30.68,MEANWHILE GARDEN MEDICAL CENTRE,-0.203126,51.522228
230.41000000000003,THE LIMES MEDICAL CENTRE,0.123958,51.706179
69.84,CHIGWELL MEDICAL CENTRE,0.083876,51.60551
3.06,NORTH AVENUE SURGERY,0.735187,51.546618
90.14,ROSERTON STREET SURGERY,-0.010049,51.498482
8.780000000000001,MEDICUS HEALTH PARTNERS- BUSH HILL PARK,-0.066545,51.63953
106.07,ALBION PLACE MEDICAL PRACTICE,0.529542,51.274206
40.24,OLD PARSONAGE SURGERY,0.460418,51.112785
47.14,TRIVENI PMS,0.058438,51.490321
70.03999999999999,HAWTHORNS SURGERY,-0.175174,51.241163
63.3,TRINITY MEDICAL CENTRE,-0.158437,51.437554
26.51,MITCHAM FAMILY PRACTICE,-0.167118,51.410109
38.49,THE WELLBRIDGE PRACTICE,-2.225354,50.679039
133.24,THE HARVEY PRACTICE,-1.993525,50.761018
174.59,HOMEWELL.CURLEW PRACTICE,-0.978019,50.851067
107.71,SPA MEDICAL CENTRE,-2.126012,51.366868
74.11,COOKHAM MEDICAL CENTRE,-0.725805,51.558356
75.45,THE MISBOURNE SURGERY,-0.558045,51.607786
59.53,ORCHARD MEDICAL CENTRE,-2.510659,51.462087
41.96,LYNGFORD PARK,-3.090916,51.036442
200.57,STAFFORD HEALTH AND WELLBEING,-2.123291,52.817722
21.27,BOURNBROOK VARSITY MEDICAL CENTRE,-1.929903,52.445713
33.09,CAUSEWAY GREEN ROAD SURGERY,-2.014697,52.484564
182.39,PATTERDALE LODGE MED CTRE,-2.64461,53.452446
167.49,SUNLIGHT GROUP PRACTICE,-3.00005,53.363076
46.33,SHAY LANE MEDICAL CENTRE (KELMAN),-2.31556,53.372189
135.69,BLYTH ROAD MEDICAL CENTRE,-1.20365,53.422231
60.02,CENTRAL MEDICAL CENTRE,-0.245977,52.587
68.99000000000001,HARBOUR MEDICAL PRACTICE,0.324489,50.797353
198.9,MORRAB SURGERY,-5.538987,50.116924
134.16,WILLOW BANK SURGERY,-2.102853,52.97847
85.81,EVERGREEN PRIMARY CARE CENTRE,-0.059836,51.623784
38.09,BARDOC GP OOH,-2.427769,53.590447
29.4,BARBOURNE HEALTH CENTRE,-2.224952,52.208752
50.74,CRAVEN ARMS SURGERY,-2.835416,52.442323
372.89,THE HAYMARKET HEALTH CTR,-2.211781,53.060343
61.15,GOLDENHILL MEDICAL CENTRE,-2.221385,53.076901
72.46,JIGGINS LANE MEDICAL CENTRE,-1.995411,52.436801
10.28,DARTMOUTH MEDICAL CENTRE,-2.005409,52.520435
62.67,ARRAN MEDICAL CENTRE,-1.748679,52.50386700000001
67.19,CHAPEL LANE SURGERY,-3.061428,53.557075
181.99,HEATHERLANDS MED CTR,-3.089543,53.381475
25.12,GUTTERIDGE MEDICAL CENTRE,-2.691248,53.769881
74.31999999999998,TOWN HALL SURGERY,-2.092973,53.478374
38.49,LILFORD PARK SURGERY,-2.511455,53.503236
17.2,PEEL PRECINCT SURGERY,-0.198814,51.534421
56.12,CATHEDRAL MEDICAL CENTRE,0.275488,52.413145
9.03,MARSDEN INTERMEDIATE CARE,-1.696689,53.676075
0.27,LCW WLCCG OOH,-0.217218,51.522362
18.9,MALLING HEALTH AT STOKE ALDERMOOR,-1.479565,52.402142
39.45,DENMARK ROAD SURGERY,-0.06725100000000002,51.393136
3.75,HOME VISITING SERVICE,-2.165957,53.412542
129.09,MEIR PARK & WESTON COYNEY MEDICAL PRACT,-2.094889,52.966305
63.74,HAMSTEAD ROAD SURGERY,-1.919012,52.504474
94.74000000000002,OAKWOOD SURGERY,-1.858645,52.444556
1.53,SURGERY AUBERY ROAD,-1.846411,52.46633
37.54,MOXLEY MEDICAL CENTRE,-2.051113,52.560033
131.86,NORTH PARK HEALTH CENTRE,-2.995994,53.458392
25.22,MEDICARE UNIT SURGERY,-2.69241,53.725239
33.38,LOSTOCK MEDICAL CENTRE,-2.328128,53.45458000000001
28.78,THE GROVE MEDICAL PRACTICE,-0.362401,51.55534
50.46,THE GAMSTON MEDICAL CTR.,-1.100495,52.924252
73.46,LANGLEY MEDICAL PRACTICE,-0.299929,51.390825
81.67,THE DURU PRACTICE,-2.116945,53.543824
18.19,SHAP MEDICAL PRACTICE,-2.677931,54.52889
243.62,AUCKLAND MEDICAL GROUP,-1.678996,54.648085
33.57,THE GLEN MEDICAL GROUP,-1.52187,54.97385
220.52,ASHBY TURN PRIMARY CARE PARTNERS,-0.6542,53.566147
490.95,HAXBY GROUP PRACTICE,-1.081866,54.019329
8.349999999999998,BRADFORD MOOR PRACTICE,-1.7218490000000002,53.797834
238.55,ASH GROVE,-1.245572,53.704968
224.09,MILLVIEW MEDICAL CENTRE,-0.30904,52.981326
50.43,HOLLIES MEDICAL CENTRE,-1.494834,53.363179
19.59,VERITAS HEALTH CENTRE,-1.481026,53.354257
89.37,BRETTON MEDICAL PRACTICE,-0.281891,52.590431
145.23000000000005,LONG STRATTON MEDICAL PARTNERSHIP,1.229088,52.491027
71.13,THE NEVELLS ROAD SURGERY,-0.22942,51.980882
64.30000000000001,THE HEALTH CENTRE PRACTICE,-0.020738999999999997,52.048757
34.86,HIGHFIELD SURGERY,-0.459233,51.766434
30.99,BELGRAVIA SURGERY,-0.14856,51.495004
32.660000000000004,COLLINGWOOD ROAD SURGERY,0.638271,51.802938
112.08,CHAPEL STREET SURGERY,0.051144,50.79327
123.45,STOCK HILL SURGERY,0.031768,51.312089
22.8,CLAREMONT MEDICAL CENTRE,-0.306132,51.390808
265.15,WATERFRONT AND SOLENT SURGERY,-1.403379,50.870013
65.52000000000001,GREEN PRACTICE,-0.371755,51.468263
39.94,THE ABBOTSBURY PRACTICE,-0.397406,51.579266
118.6,NUFFIELD HOUSE HEALTH CENTRE,0.112828,51.774439
258.88,MARTINS OAK SURGERY,0.483675,50.91716
27.09,THE GLEBE FAMILY PRACTICE,0.544473,51.383164
76.4,MALLING HEALTH BLUE SUITE,0.609995,51.363412
27.93,KNOLL MEDICAL PRACTICE,0.101068,51.375411
15.13,CLIFTON RISE FAMILY PRACTICE,-0.03143300000000001,51.476334
8.04,BLACKFRIARS MEDICAL PRACTICE,-0.105775,51.505364
228.35,HASLEMERE HEALTH CENTRE,-0.707586,51.092107
147.32,FARNHAM DENE MEDICAL PRACTICE,-0.777405,51.200549
23.97,THE DORCHESTER RD SURGERY,-2.457512,50.625193
28.62,CRONDALL NEW SURGERY,-0.858386,51.237211
132.69,ST.JAMES SURGERY,-1.989956,51.352926
10.71,CORDWALLIS ROAD SURGERY,-0.7240259999999998,51.528097
128.18,BOTLEY MEDICAL CENTRE,-1.299442,51.753753
64.02,ST. MARY'S SURGERY,-2.479869,51.326082
84.03000000000002,QUEEN'S MEDICAL CENTRE,-4.057196,51.080161
234.13,BRUNEL MEDICAL PRACTICE,-3.516948,50.479349
51.81,EXMOOR MEDICAL CENTRE,-3.544825,51.038507
49.59,CHADDESLEY SURGERY,-2.158038,52.361961
201.27,THE MANOR PRACTICE,-1.8236169999999998,52.55816
21.12,CHARLES ROAD SURGERY,-1.850621,52.4722
51.11,DUNCAN STREET PRIMARY CARE PARTNERSHIP,-2.126602,52.57346999999999
148.04000000000005,DR JUDE'S PRACTICE - RIVERSIDE,-2.943016,53.398876
49.2,WESTOVER SURGERY,-5.07501,50.148927
12.21,THE MANOR PARK PRACTICE,0.057339,51.55393
147.97,WEST MEADS SURGERY,-0.701481,50.788299
32.91,TRENTHAM MEWS MEDICAL CENTRE,-2.189898,52.970452
84.97,WILLESDEN GREEN SURGERY,-0.216091,51.553773
7.5,THE SUMMITT PRACTICE,0.04536,51.539588
12.1,DR THORNILEY-WALKER & PARTNERS,-1.460703,54.949762
14.3,DR U AKBAR,-1.777945,53.803569
178.73,BROOKROYD HOUSE,-1.67818,53.707224
25.02,AIREBOROUGH FAMILY PRACTICE,-1.684881,53.866663
141.16,BUSHLOE SURGERY,-1.116921,52.583283
142.1,THE BURBAGE SURGERY,-1.361645,52.53009599999999
24.16,PASLEY ROAD HEALTH CENTRE (TK KHONG),-1.146741,52.591287
213.05,NETTLEHAM MEDICAL PRACTICE,-0.476253,53.262865
29.32,HAROLD STREET MEDICAL CENTRE,-1.492871,53.393121
15.15,LEISTON SURGERY,1.575953,52.207708
43.21,HEATHFIELDE MEDICAL CENTRE,-0.179797,51.585238
72.87,BRENTFIELD MEDICAL CENTRE,-0.260251,51.550588
53.32,DR NAVIN KUMAR,0.70187,51.544989
10.79,RUSTON STREET CLINIC,-0.027306,51.536264
55.3,SCHOOL HILL MEDICAL PRACTICE,0.012064,50.873469
110.17,MOTE,0.545625,51.246876
168.42000000000004,SHEPPERTON MEDICAL PRACTICE,-0.453153,51.396402
237.21,GRAYSHOTT SURGERY,-0.745626,51.110093
49.19,THE MANOR PRACTICE,-0.234983,50.835138
27.22,HAMPTON HILL MEDICAL CENTRE,-0.354892,51.427508
105.81000000000002,CLAPHAM JUNCTION MEDICAL PRACTICE,-0.173908,51.465969
49.2,OLD SCHOOL HOUSE SURGERY,-1.604408,51.376032
224.68,WINSCOMBE SURGERY,-2.830537,51.315196
926.77,PEMBROKE MEDICAL GROUP,-3.560246,50.445527
33.22,PRIORY ROAD SURGERY,0.589253,50.860828
192.12,SWANSCOMBE HEALTH CENTRE,0.28731,51.424657
29.57,ELTHAM PARK SURGERY,0.061023,51.4547
65.37,JAMES O'RIORDAN MEDICAL CENTRE,-0.212686,51.385157
531.64,WISTARIA & MILFORD SURGERIES,-1.547285,50.760041
53.49,27 BEAUMONT STREET,-1.26216,51.755081
3.93,WIDCOMBE SURGERY,-2.354321,51.376371
150.23,ST LUKES MEDICAL CENTRE,-3.517636,50.394313
109.5,FRITHWOOD SURGERY,-2.162379,51.729707
134.21,HILLVIEW MEDICAL CENTRE,-1.951153,52.305568
149.6,GORDON STREET SURGERY,-1.644613,52.810998
91.83,LONGTON MEDICAL CENTRE,-2.770123,53.417492
73.40999999999998,PRIMROSE SURGERY,-2.357311,53.456159
91.56,DR AHMAD & PTNRS,-2.595925,53.522279
39.290000000000006,THE OLD DAIRY HEALTH CENTRE,-0.091201,51.436586
11.4,THE ISLAND SURGERY,0.591014,51.520226
26.64,JS MEDICAL PRACTICE,-0.078706,51.589103
112.82,GATEWAY PRIMARY CARE,-1.352431,53.429997
39.18,ESSINGTON MEDICAL CENTRE,-2.056915,52.63194
3.75,SUMMERFIELD GP SURG & URGENT CARE CENTRE,-1.937353,52.487686
22.93,THE WILLASTON SURGERY,-3.011643,53.292908
0.77,URGENT CARE CENTRE NORTHWICK PARK HOSP,-0.322037,51.575407
36.04,STONELEIGH SURGERY,-2.770704,54.227277
33.02,BROWNEY HOUSE SURGERY,-1.670679,54.800313
95.58,TOWNHEAD SURGERY,-2.276903,54.070534
27.24,HORNE STREET SURGERY,-1.871717,53.725678
113.79000000000002,HONLEY SURGERY,-1.791936,53.602386
57.79,GOSBERTON MEDICAL CENTRE,-0.159263,52.869915
157.35000000000005,THE MANOR SURGERY,-1.216371,52.925036
65.5,PROSPECT MEDICAL PRACTICE,1.285656,52.643921
189.33,THE GARDEN CITY PRACTICE,-0.209287,51.797151
44.06,MAPESBURY MEDICAL GROUP,-0.209473,51.551496
45.32,RIVERMEAD GATE MED.CTR.,0.472887,51.740849
58.77,ROMAN WAY MEDICAL CENTRE,-0.10550599999999999,51.544561
25.16,CHOLMLEY GARDENS SURGERY,-0.195423,51.552261
79.93,ESSEX LODGE,0.026685000000000004,51.527915
72.69,GROVELANDS MEDICAL CENTRE,-0.112028,51.620685
175.56,HIGH GLADES MEDICAL CENTRE,0.551301,50.878354
86.36,ST JAMES' SURGERY,1.315702,51.128516
81.17,OXSHOTT MEDICAL PRACTICE,-0.360843,51.333099
194.03,BRIDGE MEDICAL CENTRE,-0.166439,51.117364
33.89,LAVENDER HILL GROUP PRACTICE,-0.15683,51.466044
77.43,THE CRANBORNE PRACTICE,-1.9192779999999998,50.919773
62.26000000000001,ST.MARY'S SURGERY,-1.397475,50.905746
30.3,NEW FOREST MEDICAL GROUP,-1.576665,50.81471
116.74,SWALLOWFIELD MEDICAL PRACTICE,-0.958531,51.378289
66.53,CHERRYMEAD SURGERY,-0.700228,51.608271
150.24,HORFIELD HC,-2.576275,51.489998
107.38,CARNON DOWNS SURGERY,-5.091905,50.22345
132.24,WHITE HOUSE SURGERY,-1.705957,51.983554
24.92,SPRINGMEAD SURGERY  CHARD,-2.967972,50.869562
107.12,CHURCH STRETTON MEDICAL CENTRE,-2.806169,52.537286
159.89,DR KS UPTON'S PRACTICE,-1.986582,52.988358
80.64,KINGSWAY MEDICAL CENTRE,-1.289009,54.606459
29.07,WARWICK ROAD SURGERY,-2.928541,54.893858
6.53,PRUDHOE MEDICAL GROUP,-1.853822,54.96186
111.93,TALBOT MEDICAL CENTRE,-1.440661,54.973054
215.28,NOVA SCOTIA MEDICAL CNTR,-1.373051,53.747561
143.38000000000005,ARTHUR MEDICAL CENTRE,-1.422636,53.001503
98.4,WOODVILLE SURGERY,-1.5365030000000002,52.770685
185.04,NEWBOLD VERDON MED.PRACT.,-1.34334,52.634612
86.30000000000003,PORTLAND MEDICAL PRACTICE,-0.539074,53.22371999999999
210.98,TORKARD HILL MEDICAL CTRE,-1.207389,53.029901
76.22999999999998,BAKERSFIELD MEDICAL CENTRE,-1.104957,52.960219
174.85000000000005,HIGH STREET PRACTICE,-1.458313,53.597926
184.42,VILLAGE SURGERY,-1.251934,53.39421
20.11,ALLENBY CLINIC,-0.376261,51.531514
270.53000000000003,DR PUZEY DR KOTHARI AND DR NANDA,0.705992,51.582107
63.06,DR BAKER & PARTNERS,0.548167,51.570733
24.83,INGREBOURNE MEDICAL CENTRE,0.210579,51.600308
30.58,THE ORDNANCE UNITY CENTRE FOR HEALTH,-0.039073,51.672653
27.380000000000006,CROUCH HALL ROAD SURGERY,-0.127301,51.579178
161.66000000000003,CENTRAL SURGERY,-0.299929,51.390825
37.15,ST PAUL'S SURGERY,-1.32139,51.065963
44.89000000000001,SHEET STREET SURGERY,-0.605507,51.479648
148.57,HEDENA HEALTH,-1.204547,51.76203
66.71000000000001,BLOXHAM SURGERY,-1.372977,52.018108
142.38,KINGTON MEDICAL PRACTICE,-3.022556,52.199361
163.64,SEVERN FIELDS MEDICAL PRACTICE,-2.721619,52.728047
30.97,SELLY OAK HEALTH CENTRE,-1.939144,52.438251
180.84,PEELHOUSE MEDICAL PLAZA,-2.72256,53.372135
176.2,CUMBERLAND HOUSE SURGERY,-2.990437,53.638743
56.96,LANE ENDS SURGERY,-2.727014,53.770173
19.59,HOLLINS GROVE SURGERY,-2.477472,53.705346
26.85,WHITTAKER LANE MED CENTRE,-2.268645,53.528488
114.27,WEST GORTON MEDICAL PRACTICE,-2.203859,53.46720500000001
67.77,OLDHAM FAMILY PRACTICE,-2.116945,53.543824
70.24,SHAY LANE MEDICAL CENTRE (PATEL),-2.31556,53.372189
1.53,GP HUBS - GP HEALTH PARTNERS LTD,-0.266331,51.334184
89.54999999999998,BIRTLEY MEDICAL GROUP,-1.576441,54.891881
183.01,THE LEEDS ROAD PRACTICE,-1.535156,53.980466
62.58,APOLLO COURT MEDICAL CENTRE,-1.524816,53.542364
39.18,THE LAKESIDE PRACTICE,-1.148909,53.61549599999999
90.29,FOXHILL MEDICAL CENTRE,-1.501327,53.429911
78.76999999999998,WESTWOOD CLINIC,-0.269054,52.591395
77.97,THEOBALD MEDICAL CENTRE,-0.285584,51.661381
53.15000000000001,SUDBURY & ALPERTON MEDICAL CENTRE,-0.298046,51.536916
1.94,THE SURGERY,-0.184519,51.497627
95.13,CHURCHILL MEDICAL CENTRE,-0.018466,51.618226
20.63,THE CHESTERFIELD DRIVE PRACTICE,1.132012,52.07623
97.33,COMBS FORD SURGERY,0.995999,52.180181
6.94,CAULDWELL MEDICAL CENTRE,-0.472495,52.128265
42.65,PRIORY MEDICAL CENTRE,-0.50567,52.167181
106.58,HILLVIEW SURGERY,-0.318331,51.540536
25.71,DR HAFFIZ,-0.119262,51.539321
9.03,SANDRINGHAM PRACTICE,-0.067207,51.547773
10.12,ESK ROAD MEDICAL CENTRE,0.024266,51.522454
15.84,MONTPELIER SURGERY,-0.149079,50.827148
157.1,THE AVENUE SURGERY,-0.113425,50.844357
204.18,REACH HEALTHCARE,0.52408,51.337756
65.58,SELLINDGE SURGERY,1.002785,51.103536
132.53,LAKESIDE MEDICAL,0.122454,51.496518
78.44,CAMBERLEY HEALTH CENTRE,-0.754069,51.324435
110.12,HARBOUR VIEW HEALTHCARE,-0.27437,50.833817
39.64,NEW POND ROW SURGERY,-0.322292,50.824911
6.12,FLOOD (ESSEX HOUSE),-0.247469,51.472541
124.08,WILSON PRACTICE,-0.966958,51.153736
42.24,WOLLASTON AND BOZEAT SURGERIES,-0.674311,52.252471
158.49,LEAP VALLEY MEDICAL CENTRE,-2.487852,51.496541
131.29,KINGSTEIGNTON MEDICAL PRACTICE,-3.597395,50.54898
114.06,ST.LEVAN SURGERY,-4.177328,50.383921
34.18,STIRCHLEY MEDICAL PRACTICE,-2.433777,52.655188
156.47,LUDLOW - PORTCULLIS,-2.715958,52.368905
106.3,BARTON,-1.725223,52.761751
46.49,RED LION SURGERY,-2.030614,52.693241
8.34,DADHANIA SURGERY,-1.491047,52.405815
35.99,ST JAMES MEDICAL PRACTICE1,-2.097323,52.514234
18.21,HAWTHORNS MEDICAL CENTRE,-1.967268,52.501507
29.73,BROWNLOW AT MARYBONE,-2.987806,53.411269
175.64,MORETON MEDICAL CENTRE,-3.110005,53.39886
71.57000000000002,LITTLE LEVER HEALTH CENTRE 1,-2.370624,53.55981800000001
3.06,WOODBANK SURGERY,-2.308802,53.60507
149.76,DRS HANIF &  BANNURU,-2.184157,53.484308
13.21,4/LOWER BROUGHTON MEDICAL PRACTICE,-2.258808,53.49359
145.32,BRINNINGTON SURGERY,-2.132367,53.427651
81.87,CONWAY ROAD MEDICAL PRACTICE,-2.303561,53.417873
43.57,DESFORD MEDICAL CENTRE,-1.296116,52.627473
14.03,DR VIJE'S SURGERY,-1.650877,52.617569
38.06,HIGHFIELD HEALTH,-1.395746,50.932777
12.07,DR R SHARMA'S PRACTICE,-0.096482,51.499125
11.1,HALF PENNY STEPS HEALTH CENTRE,-0.206044,51.526213
259.46,NORTON MEDICAL CENTRE,-1.308737,54.588737
242.5,CARLISLE HEALTHCARE,-2.930647,54.893714
17.3,PEEL PARK SURGERY,-1.731903,53.806791
120.93,MAYBUSH MEDICAL CENTRE,-1.489249,53.670273
99.02,THE GOLDEN BROOK PRACTICE,-1.272531,52.901553
124.77,IBSTOCK HOUSE SURGERY,-1.401818,52.684869
159.05,RUSKINGTON SURGERY,-0.400977,53.048226
272.27,BARNBY GATE SURGERY,-0.8049699999999999,53.074931
72.79999999999998,DUKE MEDICAL CENTRE,-1.455657,53.378576
41.23,FALKLAND HOUSE SURGERY,-1.514423,53.359728
213.78,PRIORY FIELDS SURGERY,-0.179856,52.332272
74.61,BOURN SURGERY,-0.063404,52.193155
27.99,COACHMANS MEDICAL PRACTICE,-0.203875,51.096335
37.22,MILTON KEYNES VILLAGE SURG,-0.697865,52.043891
22.65,DRS DE ROSA & WILLIAMS,-2.167857,52.569265
2.41,INTERMEDIATE CARE-GP SERVICE,-2.130253,53.548188
212.37,FIELDHOUSE MEDICAL GROUP,-0.112579,53.564436
194.79,HEREWARD MEDICAL CENTRE,-0.380913,52.768626
120.98,SAXON CROSS SURGERY,-1.273642,52.931099
319.54,PENISTONE GROUP PMS PRACTICE,-1.630732,53.523565
103.28,THE NAYAR PRACTICE,-1.1933790000000002,53.480824
43.92,DR RAOLU'S PRACTICE,-1.204348,53.423549
128.17000000000002,THE PARK SURGERY,1.7292759999999998,52.606218
107.62,EAST BARNET HEALTH CENTRE,-0.166424,51.646339
38.09,LANFRANC MEDICAL CENTRE,-0.332746,51.561586
11.25,THE TUDOR HOUSE MEDICAL CENTRE,-0.266689,51.564495
94.07,LABURNUM HEALTH CENTRE,0.151208,51.560662
46.81,NEW NORTH HEALTH CENTRE,-0.091592,51.537534
17.03,HOVE MEDICAL CENTRE,-0.19539,50.845024
63.27,PRIMECARE PMS (SOUTH STREET),-0.012448,51.476194
50.45,THE GARDENS SURGERY,-0.066803,51.46061
91.16,FORT HOUSE SURGERY,-0.412578,51.37881
180.24,OXTED HEALTH CENTRE,9.9e-05,51.257686
202.53,THE WRYTHE GREEN SURGERY,-0.171312,51.371749
33.620000000000005,THE LAWN MEDICAL CENTRE,-1.7619029999999998,51.547821
56.74,NORDEN HOUSE SURGERY,-0.882727,51.944924
26.26,ST MARY'S HEALTH CENTRE,-6.308668,49.911605
109.37,TOPSHAM SURGERY,-3.462097,50.683825
172.98,BAMPTON SURGERY,-1.55034,51.729032
68.21000000000001,WOODLANDS MEDICAL CENTRE,-1.258898,51.603637
212.7,PETROC GROUP PRACTICE,-4.943163,50.430739
816.2,TAVYSIDE HEALTH CENTRE,-4.145976,50.545824
154.32999999999996,EAST QUAY MEDICAL CENTRE,-3.000471,51.135669
1.53,BREDON HILL SURGERY,-2.104857,52.030166
85.29999999999998,HAGLEY SURGERY,-2.144103,52.420783
40.17,KNOCKIN MEDICAL CENTRE,-2.993042,52.79343
66.01,PHOENIX FAMILY CARE,-1.51543,52.390005
393.38,ASHTON MEDICAL GROUP,-2.089184,53.489361
87.32,BRADSHAW MEDICAL CENTRE,-2.688594,53.537889
7.72,SAVILE TOWN MEDICAL CTR.,-1.625804,53.68222900000001
6.12,LIMEFIELD ROAD MEDICAL PRACTICE,-2.26047,53.506995
38.49,THE ORCHARD SURGERY,-0.324352,50.828062
5.28,THE MATTHEWMAN PRACTICE,-0.149281,51.545823
40.71,LAKESIDE SURGERY,-1.310932,53.52812
34.49,THE DANBY PRACTICE,-0.907874,54.468317
4.59,VALLEY VIEW SURGERY,-1.731903,53.806791
105.8,THE NORTH LEEDS MEDICAL PRACTICE,-1.534037,53.843332
125.11,IVY GROVE SURGERY,-1.402822,53.042198
51.61,FRIAR GATE SURGERY,-1.485624,52.924816
82.47,NAVENBY CLIFF VILLAGES SURGERY,-0.526297,53.103518
90.13,THE LINDEN MEDICAL GROUP,-1.273642,52.931099
13.62,ASKERN MEDICAL PRACTICE,-1.148909,53.61549599999999
25.17,BUTE HOUSE MEDICAL CENTRE,-0.423966,51.880162
23.23,LICHFIELD GROVE SURGERY,-0.19329,51.599604
70.74,GURU NANAK MEDICAL CENTRE,-0.387151,51.511774
56.31,SOUTH GREEN SURGERY,0.430504,51.613411
14.72,RICHMOND ROAD MEDICAL CENTRE,-0.065532,51.543051
30.28,THE LAWSON PRACTICE,-0.079465,51.533775
48.52,LEYTON HEALTHCARE 4TH FLOOR,-0.013313,51.559894
43.3,FRANCIS ROAD MEDICAL CENTRE,-0.003831,51.561975
99.61000000000001,OLD SCHOOL SURGERY,0.100722,50.772062
11.12,UNIVERSITY MEDICAL CENTRE,1.062127,51.296198
43.97000000000001,ST STEPHENS HOUSE SURGERY,-0.305726,51.31772
26.55,PARK VIEW HEALTH PARTNERSHIP,-0.137252,50.961825
81.19,LAMBTON ROAD MEDICAL PRACTICE,-0.231169,51.411219
124.89,LORDSHILL HEALTH CENTRE,-1.448733,50.940999
126.7,BYFIELD MEDICAL CENTRE,-1.242893,52.174071
119.35,CAMBRIDGE HOUSE,-2.144827,53.024433
111.19,ARBURY MEDICAL CENTRE,-1.497961,52.51662
96.83,CHURCH LANE - KHAN,-1.793962,52.487056
40.28,SOHO ROAD PRIMARY CARE CENTRE,-1.934945,52.503094
21.96,PARK HOUSE SURGERY,-1.942965,52.54446
40.85,BEECHDALE CENTRE,-2.007339,52.600867
122.99,HOLES LANE MEDICAL CENTRE,-2.545107,53.399828
86.12,LACHE HEALTH CENTRE,-2.914326,53.173615
120.41,DINGLE PARK PRACTICE,-2.972885,53.38633
191.0,RAINBOW MEDICAL CENTRE,-2.705931,53.435389
4.94,BEECHWOOD SURGERY,-3.009057,53.871568
107.06,HEYWOOD HEALTH,-2.239335,53.58736999999999
63.61,THE GILL MEDICAL PRACTICE,-2.398384,53.524288
117.38,GLOUCESTER HOUSE MEDICAL CENTRE,-2.352599,53.447337
69.31,PAK HEALTH CENTRE,-1.856091,52.490749
30.0,WALFORD STREET  TIVIDALE,-2.059752,52.513192
111.55,LITTLE LONDON SURGERY,-1.979284,52.574984
30.15,STRETTON MEDICAL CENTRE,-2.577017,53.339489
15.99,THE DALE MEDICAL PRACTICE,-2.154239,53.611617
15.15,WALNUT ST MED CTR (LEICESTER MED GROUP),-1.138855,52.624601
41.56,FIR TREE,-2.878691,53.44930600000001
1.53,CAMBRIDGE ACCESS SURGERY,0.138701,52.20875
36.49,ETTINGSHALL MEDICAL CENTRE,-2.092879,52.570364
40.74,RUSHEY MEAD HEALTH CENTRE,-1.103823,52.663187
128.22,ST ANN'S ROAD SURGERY,-0.08783399999999998,51.581428
89.47,LEIGH FAMILY PRACTICE,-2.511927,53.493519
24.3,THE PRACTICE FELTHAM,-0.411086,51.446367
60.94,HENDON WAY SURGERY,-0.241873,51.579182
1.94,THE FLOWERS HUB,-1.438061,53.418053
61.53,CARTMEL SURGERY,-2.946985,54.199165
179.32999999999996,ALNWICK MEDICAL GROUP,-1.6967470000000002,55.410086
85.03999999999998,NETHERFIELD HOUSE,-1.548435,55.063632
181.88,PRACTICE 3  MEDICAL CENTRE  BRIDLINGTON,-0.201064,54.084715
102.9,THE ALMONDBURY SURGERY,-1.751311,53.631868
87.72999999999998,NEWLAND SURGERY,-1.424247,53.695146
705.73,BEACON MEDICAL PRACTICE,0.331219,53.157472
10.69,GREENFIELDS MEDICAL CENTRE (YVS RAO),-1.168583,52.966506
144.14,TREETON MEDICAL CENTRE,-1.354708,53.384994
147.84,MEADOWGREEN HEALTH CENTRE,-1.480804,53.326831
347.83,BOROUGHBURY MEDICAL CENTRE,-0.245486,52.577858
117.0,THE ROOKERY MEDICAL CENTRE,0.405573,52.245158
69.67999999999999,CRUDDAS PARK SURGERY,-1.630965,54.968173
36.25,THE CHESTNUTS & HALLGATE SURGERY,-0.403621,53.778985
25.56,HAWORTH MEDICAL PRACTICE,-1.954883,53.831322
70.72999999999998,FIELDHEAD SURGERY,-1.854229,53.641358
199.8,CROFTON AND SHARLSTON MED PRAC,-1.427042,53.656573
320.88,SHIRES HEALTHCARE,-1.215692,53.202513
88.04,ORCHARD SURGERY,-1.278154,52.836522
106.84,ST GEORGES MED PRACTICE,-1.132346,52.930754
25.97,WELBECK SURGERY,-1.147823,52.979645
127.49,WICKHAM MARKET MEDICAL CENTRE,1.363674,52.151842
8.34,TODDINGTON MEDICAL CENTRE,-0.530482,51.945856
27.87,THE RANDOLPH SURGERY,-0.186852,51.529819
41.94,DR YADAVA N PRACTICE,0.334586,51.476703
52.13,ST.PAUL'S WAY MEDICAL CTR,-0.024483,51.517862
198.89,THORNHILLS MEDICAL PRACTICE,0.440958,51.300117
240.71000000000004,OAKLANDS HEALTH CENTRE,1.08253,51.069106
61.7,HEXTABLE SURGERY,0.182972,51.409182
127.13,LONGCROFT CLINIC,-0.192332,51.325314
104.88,THE ROEHAMPTON SURGERY,-0.242431,51.451154
148.77,WYKE REGIS & LANEHOUSE MEDICAL PRACTICE,-2.475127,50.594634
18.9,WHITCHURCH SURGERY,-0.8426209999999998,51.882174
34.32,CRICK MEDICAL PRACTICE,-1.135861,52.343212
104.16,KINGSWOOD HEALTH CENTRE,-2.499974,51.462895
185.43,THE VILLAGE SURGERY,-2.219972,53.033945
248.94,BIDDULPH VALLEY SURGERY,-2.178498,53.116111
66.53999999999999,RIVERSIDE SURGERY,-1.699518,52.632337
82.03,THREE VILLAGES MEDICAL PRACTICE,-2.146398,52.465406
43.08,STONE CROSS MEDICAL CENTRE,-1.982689,52.545444
78.09999999999998,STOCKTON HEATH MED.CENTRE,-2.582161,53.37195
67.64,THE VILLAGE SURGERIES GROUP,-2.771265,53.124246
1055.71,ILEX VIEW MEDICAL PRACTICE,-2.280663,53.70081
76.22,SHIFA SURGERY,-2.475999,53.757295
53.0,CHORLTON FAMILY PRACTICE,-2.279717,53.443773
150.56,OLDHAM MEDICAL SERVICES,-2.111235,53.52535699999999
37.37000000000001,MELROSE SURGERY,-0.9598620000000002,51.451692
27.32,DR R KAPUR & PARTNERS,-1.119092,52.631036
106.54,LEADGATE SURGERY,-1.805988,54.860562
241.45,ACLE MEDICAL PARTNERSHIP,1.548667,52.640969
25.71,PEEL CROFT,-1.6339549999999998,52.799271
92.79,MARTONSIDE MEDICAL CENTRE,-1.220329,54.553175
40.26000000000001,ROCKLIFFE COURT SURGERY,-1.544074,54.483444
142.82999999999996,BEDLINGTONSHIRE MED.GROUP,-1.598682,55.1322
52.82,WESTBOURNE SURGERY,-1.8061,53.650937
81.01,MIDDLESTOWN,-1.600562,53.650545
51.1,DR WEBB AND PARTNERS,-1.308041,52.968251
96.72000000000001,GOYT VALLEY MEDICAL PRACTICE,-1.983113,53.3305
123.83,CASTLE STREET MEDICAL CENTRE,-1.293753,53.229627
91.0,SILVERDALE MEDICAL CENTRE,-1.090548,52.672318
184.78,HOLT MEDICAL PRACTICE,1.116042,52.914476
100.24,HOWARD HOUSE SURGERY,1.349626,51.96149
166.94,PARKBURY HOUSE SURGERY,-0.334063,51.756766
32.22,UXENDON CRESCENT SURGERY,-0.292809,51.572063
32.83,STERNDALE SURGERY,-0.221441,51.498326
193.6,AEGIS MEDICAL CENTRE,0.467525,51.57556
19.89,AMWELL GROUP PRACTICE,-0.11081700000000001,51.528043
137.83,MEOPHAM MEDICAL CENTRE,0.359744,51.368901
72.89999999999998,WESTERHAM PRACTICE,0.070437,51.266465
37.49,FORGE CLOSE SURGERY,0.016555,51.377137
128.42,STEYNING HEALTH CENTRE,-0.329972,50.890666
135.94,LAVANT ROAD SURGERY,-0.781051,50.853385
26.4,THORNTON & VALLEY PARK SURGERY,-0.120709,51.388871
68.51,JOHNSON (SHEEN LANE),-0.267239,51.465848
14.72,MOORDOWN MEDICAL CENTRE,-1.874485,50.756212
9.18,LITTLEDOWN SURGERY,-1.833439,50.741638
72.69,EMMER GREEN SURGERY,-0.972861,51.483584
14.93,WOLVERTON HEALTH CENTRE,-0.814934,52.054197
1442.5400000000004,ST THOMAS MEDICAL GROUP,-3.54518,50.714472
78.94,YOXALL,-1.7931740000000003,52.767984
25.43,GREET MEDICAL PRACTICE,-1.857778,52.453195
54.05,PEDMORE MEDICAL PRACTICE,-2.118211,52.457029
165.56,BOSWORTH MEDICAL CENTRE,-1.7536330000000002,52.480569
150.65,THE PARK MEDICAL PRACTICE,-2.739045,53.77018
33.19,CROSSWAYS PRACTICE,-3.023992,53.484655
108.36,THE OLD DISPENSARY,-1.987226,50.803427
27.83,STROUD GREEN MEDICAL CENTRE,-0.114328,51.570059
1.53,LCW HOUNSLOW CCG OOH,-0.217218,51.522362
190.28,WEST SOMERSET HEALTHCARE,-3.3186760000000004,51.161419
125.87,WEM AND PREES MEDICAL PRACTICE,-2.722566,52.859338
107.29,ALL SAINTS SURGERY,-1.644121,52.794285
152.97,CENTRAL SURGERY,-1.265473,52.371743
70.32,OMNIA PRACTICE,-1.839082,52.475709
50.81999999999999,SCHOOLACRE ROAD SURGERY,-1.785797,52.497659
78.03,DORRIDGE SURGERY,-1.752074,52.372757
215.58,MORETON CROSS GROUP PRACTICE,-3.111975,53.403551
242.3,WITTON MEDICAL CENTRE,-2.507553,53.740232
1.53,WALMERSLEY ROAD MEDICAL PRACTICE,-2.289525,53.599849
40.43,WEST COMMON LANE TEACHING PRACTICE,-0.682441,53.57473100000001
27.08,QUEENS ROAD SURGERY,-1.474524,52.522119
7.5,BEVAN HEALTHCARE CIC,-1.753352,53.795581
120.04,RIVERSIDE MEDICAL PRACTICE,-1.315584,54.56887
3.06,MEDICUS HEALTH PARTNERS-ENFIELD ISLAND,-0.016992,51.668586
147.06,RISING BROOK,-2.118782,52.787133
6.8100000000000005,BLOOMSBURY SURGERY,-1.871892,52.49324300000001
131.2,ST JAMES MEDICAL PRACTICE2,-2.097323,52.514234
24.18,KHAN MEDICAL PRACTICE,-2.000799,52.613174
6.12,LINGHOLME HEALTH CENTRE,-2.744752,53.457769
193.51,PEEL HOUSE MEDICAL PRACTICE,-2.365995,53.75089200000001
40.32,ASHURST PRIMARY CARE,-2.772723,53.563208
12.63,RED BANK GROUP PRACTICE,-2.323706,53.560143
66.89,MARPLE BRIDGE SURGERY,-2.053323,53.400594
233.06,GRASMERE SURGERY,-2.511455,53.503236
93.98,GRAVESEND MEDICAL CENTRE,0.369986,51.443932
105.58,PEASE WAY MEDICAL CENTRE,-1.576495,54.618581
10.71,ELSDON AVENUE SURGERY,-1.525885,55.07062
55.72,DR WICKREMESINGHE SSG,-0.123521,51.469491
362.87,TELDOC,-2.435206,52.672614
75.18,CROSLAND MOOR SURGERY,-1.809637,53.63841
20.51,THE ROSEBERRY PRACTICE,-1.292215,54.611726
230.04,ST ANDREW'S MEDICAL PRACTICE,-1.598213,54.699634
148.22,TANFIELD VIEW MEDICAL GROUP,-1.701373,54.869939
18.9,DR MITCHELL,-0.503581,53.72075
130.06,BEECH HOUSE SURGERY,-1.465892,54.010836
58.22,MANOR PARK SURGERY,-1.628914,53.814076
52.86,PARKSIDE SURGERY,-1.391868,53.097732
118.98,SPINNEY HILL MEDICAL CENTRE,-1.109212,52.637381
29.17,SPRINGFIELD MEDICAL CENTRE,-1.195502,53.003599
240.02,PARKGATE MEDICAL CENTRE,-1.342798,53.455454
43.49,BURWELL SURGERY,0.331841,52.273327
52.95,MARTLESHAM SURGERY,1.272068,52.061314
9.170000000000002,THE AVENUE SURGERY,-0.319031,51.518389
57.43000000000001,THE LILYVILLE SURGERY,-0.199155,51.47377
15.82,WEST LONDON MEDICAL CENTRE,-0.454699,51.525731
276.96,ST.JAMES SURGERY,1.147433,51.787326
37.35,WITHAM HEALTH CENTRE,0.642876,51.800559
30.27,QUEENS AVENUE PRACTICE,-0.147916,51.591852
173.53,SANDWICH MEDICAL PRACTICE,1.337364,51.274071
15.85,DR RHK SINHA'S PRACTICE,-0.103058,51.482668
27.8,THE ADDISCOMBE SURGERY,-0.061851,51.376293
99.33,ADELAIDE MEDICAL CENTRE,-1.475274,51.208539
283.21,THE CAMBRIDGE PRACTICE,-0.76565,51.254364
78.59,THE WILLESDEN MEDICAL CENTRE,-0.233873,51.547532
46.99,EASTMEAD AVENUE SURGERY,-0.36274,51.531443
41.92,KINCORA DOCTORS SURGERY,-0.412216,51.511666
48.39,DR M GOYAL'S PRACTICE,0.156711,51.540066
99.64,TOLLGATE MEDICAL CENTRE,0.056362,51.515573
29.47,HETHERINGTON GROUP PRACTICE,-0.12823,51.460932
10.63,SELHURST MEDICAL PRACTICE,-0.088969,51.390012
63.85,THE WATERFIELD PRACTICE,-0.733923,51.409204
31.15,JERICHO HEALTH CENTRE,-1.265958,51.760293
58.52,PONTESBURY MEDICAL PRAC,-2.887922,52.650521
206.71,TUTBURY HEALTH CENTRE,-1.686361,52.858454
88.06999999999998,TEAN SURGERY,-1.988036,52.954415
21.27,WAKE GREEN SURGERY,-1.883357,52.446103
254.37,THORNLEY STREET MEDICAL CENTRE,-2.125789,52.58843
18.58,MEREPARK MEDICAL CENTRE,-2.300747,53.093285
96.75,RAINHILL VILLAGE SURGERY,-2.763813,53.41631
12.24,MILE LANE HEALTH CENTRE,-2.335248,53.587814
92.24000000000002,NEW ISLINGTON MEDICAL CENTRE,-2.219472,53.4829
350.4,CLARENDON MEDICAL CENTRE,-2.079951,53.45264
73.28,BRAITHWAITE RD SURGERY,-2.574985,53.477412
46.28,WOODGRANGE MEDICAL PRACTICE,0.025253,51.548596
19.18,JARVIS MEDICAL PRACTICE,-2.095095,53.537786
31.68,DR SP TALPAHEWA,-0.260303,51.616115
0.94,IC24 LTD (NORFOLK & WISBECH OOH),0.891514,51.129106
112.26,BRANDON MEDICAL PRACTICE,0.6233,52.448489
30.81,BOLTON MEDICAL CENTRE,-2.431399,53.56543
10.71,THE MANSELL ROAD PRACTICE,-0.358969,51.525654
45.42,WESTCROFT HEALTH CENTRE,-0.795699,52.006367
4.59,READING WALK-IN HEALTH CENTRE,-0.9758960000000002,51.454809
3.75,8 TO 8 TOP-UP HUB QMH,0.101687,51.419041
185.71,LOWTHER MEDICAL CENTRE,-3.586392,54.545056
84.59,COLLEGE LANE SURGERY,-1.336292,53.644573
36.66,THE SURGERY CLIFTON ROAD,-1.737497,53.013356
42.64,THE ORCHARD MED PRACTICE,-1.231693,52.533972
404.91,MUNRO MEDICAL CENTRE,-0.147427,52.794037
37.63,MOSBOROUGH HEALTH CENTRE,-1.364873,53.325238
103.9,ORCHARD SURGERY MELBOURN,0.020092,52.080651
323.6,HIGH STREET SURGERY,1.756043,52.482123
95.0,ANDAMAN SURGERY,1.715485,52.45691600000001
230.37,STANMORE MEDICAL GROUP,-0.204612,51.913274
66.01,PUCKERIDGE & STANDON SURGERY,0.019374,51.888296
148.94,KING GEORGE SURGERY,-0.206096,51.907416
27.31,COMMONWEALTH HEALTH CENTRE,0.36308,51.463166
34.59,KEATS GROUP PRACTICE,-0.17103,51.555534
55.15,BURNT ASH SURGERY,0.009913000000000002,51.452782
175.04,HILLVIEW MEDICAL CENTRE,-0.557727,51.315501
111.31,DOWNING STREET GROUP PRACTICE,-0.7989009999999998,51.212905
32.46,ASHBURTON PARK MEDICAL CENTRE,-0.064221,51.384147
134.92,TAMWORTH HOUSE MEDICAL CENTRE.,-0.146254,51.40122
69.87,PARKSIDE PRACTICE,-1.353169,50.970948
23.44,ST.PETERS SURGERY,-1.372792,50.897829
13.97,NEATH HILL HEALTH CENTRE,-0.747321,52.060411
20.58,BATHEASTON MEDICAL CENTRE,-2.317387,51.406032
66.52,DARTMOUTH MEDICAL PRACTICE,-3.580811,50.351157
190.99,DARTFORD EAST HEALTH CENTRE,0.236914,51.440747
105.69,CHURCH STREET PRACTICE,-0.459783,51.37345
72.28999999999998,THE GREYSWOOD PRACTICE,-0.144853,51.419489
46.44,BOLINGBROKE MEDICAL CENTRE (THMP),-0.168282,51.45617
14.72,LEYBOURNE SURGERY,-1.88721,50.758437
130.74,THE BORDER PRACTICE,-0.740565,51.240995
167.68,PATFORD HOUSE PARTNERSHIP,-2.005519,51.437601
29.87,CHATHAM STREET SURGERY,-0.981895,51.455924
133.68,THE CROSS KEYS PRACTICE,-0.830848,51.723655
24.49,WHITELADIES MEDICAL GROUP,-2.612382,51.465097
50.87000000000001,HILLCREST SURGERY,-2.431687,51.311982
36.4,DEVON SQUARE SURGERY,-3.60508,50.529985
25.08,ESTOVER SURGERY,-4.0952,50.411271
124.6,THE ROYAL WELL SURGERY,-2.0815,51.906706
67.67999999999999,APSLEY SURGERY,-2.187008,53.035377
126.01,THE LIMES SURGERY MEDICAL CENTRE,-2.114052,52.456884
91.36000000000001,ASHFIELD ROAD SURGERY,-2.132841,52.62604399999999
116.27,NORTHGATE MEDICAL CENTRE,-2.892972,53.19509300000001
234.54,RIVERSIDE SURGERY,-3.006197,53.372004
137.81,LAYTON MEDICAL CENTRE,-3.027291,53.827425
233.78000000000003,HT PRACTICE,-2.110496,53.478305
26.55,WESTLEIGH MEDICAL PRACTICE,-2.526024,53.510851
23.270000000000003,MEDICUS HEALTH PARTNERS-CURZON AVENUE,-0.036518,51.645435
90.08,WINDMILL SURGERY,-1.48555,52.449933
35.84999999999999,ARNOS GROVE MEDICAL CENTR,-0.129838,51.615476
1.53,ST.QUINTIN HEALTH CENTRE,-0.220325,51.519199
53.83,PARK COMMUNITY PRACTICE,-1.871717,53.725678
1.94,CHESTERFIELD HEALTH PROVIDER LTD,-1.43962,53.233943
5.28,MELROSE SURGERY,-1.287301,54.609397
40.72,BLACKETTS MEDICAL PRACTICE,-1.559007,54.527221
51.83,DR A SINHA,-0.108523,53.567689
56.01000000000001,WILLINGTON SURGERY,-1.566835,52.850285
33.33,UPWELL STREET SURGERY,-1.434724,53.406424
1026.26,LAKENHAM SURGERY,1.296577,52.6183
256.58000000000004,MANOR FARM MEDICAL CENTRE,0.690513,52.648544
241.72,PLOWRIGHT MEDICAL CENTRE,0.686691,52.655577
98.04,REGAL CHAMBERS SURGERY,-0.275959,51.952843
93.09,STANHOPE SURGERY,-0.032073,51.688002
15.26,THE GARWAY MEDICAL PRACTICE,-0.185494,51.515392
227.21,BEECHWOOD SURGERY,0.292731,51.608567
41.55,THE NIGHTINGALE PRACTICE,-0.062434,51.558261
72.95,THE GRAHAM PRACTICE,0.048721,51.541534
83.93999999999998,ISLAND HEALTH,-0.013513,51.495357
128.43,STANFORD MEDICAL CENTRE,-0.148293,50.838378
93.4,NEWINGTON ROAD SURGERY,1.399222,51.343459
160.32,BELVEDERE MEDICAL CENTRE,0.144376,51.482567
88.49000000000002,ST.LAWRENCE SURGERY,-0.390026,50.823979
166.43,MID SUSSEX HEALTH CARE,-0.175279,50.933719
73.88999999999999,THE WHITELEY SURGERY,-1.266072,50.88262
431.82,ACORN HEALTH PARTNERSHIP,-1.114058,51.245047
532.16,PORTSDOWN GROUP PRACTICE,-1.080952,50.812876
173.38,THE ELMS PRACTICE,-0.976476,50.789794
100.28,ESPLANADE SURGERY,-1.158697,50.731943
42.52,GLASTONBURY HEALTH CENTRE,-2.712893,51.148733
478.93,MAYFIELD SURGERY,-2.13456,52.982709
73.01,BRIDGE MEDICAL,-1.506726,55.038077
7.65,WINDSOR MEDICAL CENTRE,-1.622157,53.693875
39.01,ASHBOURNE MEDICAL PRACTICE,-1.737589,53.012862
114.39,THE UPPINGHAM SURGERY,-0.723557,52.594972
273.84000000000003,ABBEY MEDICAL GROUP,-1.119194,53.100674
99.73,LOWMOOR ROAD SURGERY,-1.244634,53.100062
84.27000000000002,BIRLEY HEALTH CENTRE,-1.396985,53.340317
114.07,PARKFIELD MEDICAL CENTRE,-0.179588,51.695129
23.6,REDWOOD PRACTICE,-0.359614,51.461125
25.14,SUNRISE MEDICAL CENTRE,-0.382255,51.51087
94.01,THE THORPE BAY SURGERY,0.757986,51.534599
58.85,HOLBORN MEDICAL CENTRE,-0.118539,51.522233
35.120000000000005,BRICK LANE SURGERY,-0.048612,51.657327
32.730000000000004,ABBEY COURT,0.26122,51.137755
62.48,ELM LODGE SURGERY,-0.096232,51.451506
171.03000000000003,HUDSON (SEYMOUR HOUSE),-0.292773,51.462401
26.55,OPEN DOOR SURGERY,-0.155581,51.443166
184.79,THE LIGHTHOUSE GROUP PRACTICE,-1.0805049999999998,50.796551
196.18,THE ORCHARD PARTNERSHIP,-1.865867,51.077878
89.04999999999998,WHADDON MEDICAL CENTRE,-0.7662759999999998,52.000308
59.76000000000001,SONNING COMMON HEALTH CTR,-0.982114,51.515603
141.2,LANDER MEDICAL PRACTICE,-5.055864,50.259982
43.3,BROSELEY MEDICAL PRACTICE,-2.481266,52.611554
32.44,BONEY HAY SURGERY,-1.926768,52.690328
41.42,BEECH TREE MEDICAL PRACTICE,-1.252936,52.377534
47.13,ALUM ROCK MEDICAL CENTRE,-1.850664,52.489901
5.28,GREENFIELD MEDICAL CENTRE,-1.855764,52.491684
3.75,THE SURGERY,-2.605295,53.024859
86.59,PARKGATE SURGERY,-2.882743,53.564772
52.11,MARPLE MEDICAL PRACTICE,-2.064954,53.39495
11.4,CLOVER CITY PRACTICE,-1.46659,53.38187
38.42,ASPATRIA MEDICAL GROUP,-3.337992,54.762123
274.33,WILLIAM BROWN CENTRE,-1.33142,54.757994
75.64,WELLSPRING MEDICAL PRACT.,-1.564066,55.037289
39.07,RED HOUSE MEDICAL CENTRE,-1.424063,54.925457
219.99,COLNE VALLEY GROUP PRACTICE,-1.9282130000000002,53.602096
29.020000000000003,FAMILY DOCTORS,-1.440964,53.798248
117.02,ROYSTON GROUP PRACTICE,-1.451018,53.600005
41.65,SOUTHEY GREEN MEDICAL CTR,-1.477666,53.419051
31.83,IVRY STREET MEDICAL PRACTICE,1.148624,52.064021
37.99,NORTH FULHAM SURGERY,-0.199224,51.486415
1.53,LAI CHUNG FONG QUEENS PARK HEALTH CENTRE,-0.205826,51.530911
69.61999999999999,NEWBURY GROUP PRACTICE,0.085981,51.576435
280.48,HARDWICKE HOUSE GROUP PRACTICE,0.725792,52.0382
71.61,WHEATFIELD SURGERY,-0.495144,51.904445
16.81,BRAMPTON HEALTH CENTRE,-0.277386,51.586099
37.28,DOCKLANDS MEDICAL CENTRE,-0.021143,51.491152
81.58,BELMONT SURGERY,0.340829,51.061952
22.88,LONG CATLIS ROAD SURGERY,0.595579,51.348325
86.78,ABBEY WOOD SURGERY,0.11653,51.497094
60.58000000000001,WOOLSTONE MEDICAL CENTRE,-0.036776,51.438421
100.28,MINET GREEN HEALTH PRACTICE,-0.105204,51.475715
78.01999999999998,SOUTHGATE MEDICAL GROUP,-0.194559,51.102316
98.76,NEW ADDINGTON GROUP PRACTICE,-0.018557,51.344382
36.11,BANBURY ROAD MEDICAL CENTRE,-1.263535,51.774771
116.24,THE ARMADA FAMILY PRACTICE,-2.571861,51.413438
91.60000000000002,STAFFORD MEDICAL GROUP,-2.914755,51.35259
110.37,BROCKWORTH SURGERY,-2.156696,51.844575
268.02,SEVERN VALLEY MEDICAL PRACTICE,-2.235045,52.190415
236.29,DAWLEY MEDICAL PRACTICE,-2.466781,52.664322
92.6,LEEK HEALTH CENTRE,-2.019347,53.105691
39.33,CHASE MEADOW HEALTH CENTRE,-1.608604,52.268838
11.38,HILL TOP PRACTICE,-2.011775,52.537791
80.70999999999998,MAGHULL HEALTH CENTRE (DR SAPRE),-2.943932,53.515597
104.97,LIME SQUARE MEDICAL CENTRE,-2.164901,53.473649
49.57,WINDERMERE SURGERY,-2.205709,53.55956
17.88,BEESTON VILLAGE SURGERY,-1.569152,53.772415
4.59,HATTON MEDICAL PRACTICE,-0.433285,51.457879
70.87000000000002,BLURTON MEDICAL CENTRE,-2.156565,52.972002
122.13,BIRBECK MEDICAL GROUP,-2.742581,54.656125
51.46,BEWICK ROAD SURGERY,-1.601653,54.956398
19.82,WENLOCK ROAD SURGERY,-1.455226,54.972635
39.05,WINTERTON MEDICAL PRACTICE,-0.606876,53.652511
120.63,THE OLD SCHOOL MEDICAL PRACTICE,-1.1424040000000002,53.916163
232.93,KEIGHLEY ROAD SURGERY,-1.893907,53.754239
115.91,MULBERRY STREET MEDICAL PRACTICE,-1.66397,53.794738
127.24,CHATSWORTH ROAD MEDICAL CENTRE,-1.467337,53.231374
103.48,CRICH MEDICAL PRACTICE,-1.482573,53.084327
58.52,MEXBOROUGH HEALTH CENTRE,-1.279795,53.494237
145.23,ST VINCENT MEDICAL CENTRE,-1.124029,53.525476
86.04999999999998,LUDHAM AND STALHAM GREEN SURGERIES,1.534423,52.709131
121.42,BENTHAM ROAD HEALTH CENTRE,-2.50627,53.73058399999999
110.66,CRESWELL AND LANGWITH MEDICAL CENTRE,-1.215835,53.262654
258.35,NORWOOD MEDICAL CENTRE,-3.222974,54.119201
110.41,BEECHWOOD GROUP PRACTICE,-3.545472,54.642376
53.71,DENMARK STREET SURGERY,-1.552252,54.538825
34.01,WELL CLOSE MEDICAL GROUP,-2.006127,55.77245799999999
95.4,PALLION FAMILY PRACTICE,-1.414195,54.908604
33.879999999999995,PICTON MEDICAL CENTRE,-1.77624,53.807296
186.47,PARKSIDE MEDICAL CENTRE,-0.021998,52.981526
255.1,ORCHARD MEDICAL PRACTICE,-1.206764,53.141121
76.54999999999998,THE BURNS PRACTICE,-1.12309,53.520707
82.49000000000002,WINCOBANK MEDICAL CENTRE,-1.416316,53.419405
3.75,UEA MEDICAL CENTRE,1.241391,52.622369
61.14,THE VILLAGE SURGERY,-0.168135,51.648069
27.13,THE CHELSEA PRACTICE,-0.166915,51.486814
93.64,ST. BARTHOLOMEWS SURGERY,0.051755,51.532409
73.43,RYDAL,0.020102,51.608432
93.96,GROSVENOR & ST JAMES MEDICAL CENTRE,0.264349,51.137424
100.98,KING GEORGE ROAD SURGERY,0.518518,51.348911
35.65,THE THREE ZERO SIX MEDICAL CENTRE,-0.076403,51.450741
19.04,VIRGINIA WATER MEDICAL PRACTICE,-0.568235,51.403367
23.290000000000006,NEW OTTERSHAW SURGERY,-0.526005,51.361938
15.97,THE ALTON PRACTICE,-0.239471,51.44914
585.52,THE WILLOW GROUP,-1.143034,50.800579
135.27,ALEXANDER HOUSE SURGERY,-0.7520019999999998,51.293749
67.00999999999999,RIDGEWAY VIEW FAMILY PRACTICE,-1.7915709999999998,51.524175
41.55,GREEN MEADOWS SURGERY,-0.677163,51.426939
120.86,PORT VIEW SURGERY,-4.214351,50.40735
149.45999999999995,CHURCHDOWN SURGERY,-2.171559,51.882487
125.16,STANMORE HOUSE SURGERY,-2.231468,52.391138
80.59,WARGRAVE HOUSE SURGERY,-2.712261,52.055418
52.06,VENTNOR MEDICAL CENTRE,-1.203791,50.594548
44.46,THE HALL PRACTICE,-0.561016,51.606986
90.19,WEST VIEW SURGERY,-2.50212,51.411923
25.4,HARTLAND SURGERY,-4.482549,50.992721
95.44,STATION DRIVE SURGERY,-2.715141,52.370132
235.63,SOLIHULL HEALTHCARE PARTNERSHIP,-1.775235,52.419642
160.89,CONCEPT HOUSE SURGERY,-2.98492,53.449136
172.13,ADELAIDE STREET SURGERY,-3.048397,53.817351
110.13,LOCKWOOD GP SURGERY,-2.989833,53.850947
29.31,CAVENDISH HEALTH CENTRE,-0.148092,51.519331
175.22,BROWNLOW GROUP PRACTICE,-2.96585,53.405021
28.08,HEATHROW MEDICAL CENTRE,-0.433924,51.49302
15.71,THE ENTERPRISE PRACTICE,-0.320613,51.601113
44.31,ODDFELLOWS HALL & ST CLEMENTS,0.327906,51.480703
52.26000000000001,CHAUCER SURGERY,-1.45237,52.515151
48.91,THE ENDEAVOUR PRACTICE,-1.235397,54.575047
72.34,THE LAKES MEDICAL PRACTICE,-2.742581,54.656125
36.69,EAST PARADE SURGERY,-1.529793,53.996354
20.56,FIELDHEAD SURGERY,-1.639379,53.831787
85.42999999999998,BASLOW HEALTH CENTRE,-1.617823,53.246144
58.03,OSMASTON SURGERY,-1.467954,52.911084
24.33,ASQUITH SURGERY,-1.117116,52.601489
103.46,HOLBEACH MEDICAL CENTRE,0.014430000000000002,52.804778
39.7,YEADING MEDICAL CENTRE,-0.397019,51.533634
34.74,MAYFAIR MEDICAL CENTRE,-0.150172,51.513536
296.28,SUN LANE,1.087469,51.071536
60.39,LYDDEN SURGERY,1.23991,51.163193
36.42,THE CHURCH VIEW PRACTICE,0.609995,51.363412
99.19,TRIANGLE GROUP PRACTICE,-0.011071,51.457798
101.89,SELSDON PARK MEDICAL PRACTICE,-0.06457300000000002,51.342409
38.07,LAMBOURN SURGERY,-1.526933,51.504696
101.32,BICESTER HEALTH CENTRE,-1.157239,51.896742
98.99,FOWEY RIVER PRACTICE,-4.635394,50.337915
141.86,KNOWLE HOUSE SURGERY,-4.134098,50.40863
694.0,HOLTS HEALTH CENTRE,-2.406966,51.931555
184.86,CUMBERLAND HOUSE,-2.145844,52.901549
68.1,BILBROOK MEDICAL CENTRE,-2.181749,52.624775
73.89,VALE OF RED HORSE,-1.510351,52.15797
191.12,BALSALL COMMON & MERIDEN GROUP PRACTICE,-1.643862,52.394956
83.78999999999998,LANCE LANE MEDICAL CENTRE,-2.911916,53.396196
60.4,DR A GUPTA BENIM MEDICAL CENTRE,-2.947804,53.419395
191.83,DINAS LANE MEDICAL CENTRE,-2.861513,53.417388
565.01,LANCASTER MEDICAL PRACTICE,-2.797202,54.047583
65.81,DR GWD BHIMA,-2.154239,53.611617
180.33,RIVERSIDE MEDICAL CENTRE,-2.672299,53.748112
58.25,LITTLETOWN FAMILY MED PRACT,-2.134298,53.529137
207.5,NEW COURT SURGERY,-2.30878,52.113538
30.0,THE BARHAM & CLAYDON SURGERY,1.109866,52.110175
19.59,SWANWOOD PARTNERSHIP,0.519034,51.613356
5.970000000000001,NIGHTINGALE HOUSE,-0.159747,51.449354
6.94,CROWN WOOD MEDICAL CENTRE,-0.736934,51.395919
117.05,THE JUNCTION SURGERY,-1.759212,53.643662
3.75,DORKING HEALTHCARE LLP,-0.333421,51.225985
21.53,GREAT BRIDGE HEALTH CENTRE,-2.02775,52.527792
22.65,GREENWOOD SURGERY,0.605168,51.653143
163.99,MIDDLE CHARE MEDICAL GROUP,-1.573113,54.855636
73.54999999999998,I J HEALTHCARE,-1.531354,54.88104
17.38,OAK GLEN SURGERY,-1.816352,53.854799
280.11,WELLINGTON HOUSE,-1.634561,53.714775
204.18,SKELMANTHORPE FAMILY DOCTORS,-1.650686,53.591604
120.38,LEIGH VIEW MEDICAL PRACTICE,-1.558358,53.728574
29.98,OAKWOOD SURGERY,-1.4290459999999998,52.941386
70.91,THE KAKOTY PRACTICE,-1.473444,53.5464
31.68,PHOENIX PRIMARY CARE (SOUTH) LTD,-0.435422,51.918016
1.53,NORTH NORFOLK HUB 2 (BIRCHWOOD),1.38334,52.820065
48.3,GILDERSOME HEALTH CENTRE,-1.6293,53.756554
27.32,HAZELMERE MEDICAL CENTRE,-1.16453,52.57337
103.34,BURNGREAVE SURGERY,-1.459815,53.393327
127.4,FELTWELL SURGERY,0.527056,52.48268
39.27,QUEENS PARK HEALTH CENTRE,-0.493075,52.133151
13.66,ALBANY PRACTICE,-0.310054,51.48676
39.52,CASSIDY ROAD MEDICAL CENTRE,-0.199015,51.479154
322.41,COLCHESTER MEDICAL PRACTICE,0.909325,51.890029
83.75,ROWHEDGE SURGERY,0.945058,51.85767
24.48,DR VM PATEL,0.228776,51.561113
18.630000000000006,THE HEATHCOTE PRIMARY CARE CENTRE,0.062768,51.593832
36.42,ESHER GREEN SURGERY,-0.370196,51.375782
36.61,CHILDS (THAMESIDE),-0.326599,51.427449
71.64999999999998,THE CHESSER SURGERY,-0.177303,51.374927
71.27000000000002,MOREDON MEDICAL CENTRE,-1.8070689999999998,51.582197
149.17999999999995,ASHFIELD MEDICAL CENTRE,-0.7382729999999998,52.019666
138.69,BUGBROOKE MEDICAL PRACTICE,-1.005426,52.211409
134.91,TRESCOBEAS SURGERY,-5.085333,50.15531
61.2,BUDSHEAD MEDICAL PRACTICE,-4.150289,50.417443
93.64,TEIGN ESTUARY MEDICAL GROUP,-3.496462,50.5456
60.76,MITCHELDEAN SURGERY,-2.488369,51.865935
74.58,LUSON,-3.229566,50.977398
147.17000000000004,HARESFIELD HOUSE SURGERY,-2.202996,52.194829
29.16,HEDNESFORD MEDICAL PRACTICE,-2.000697,52.71233
226.68,LAUREL HOUSE SURGERY,-1.692825,52.636563
52.37,HANDSWORTH WOOD MED.CTR.,-1.928196,52.51303299999999
228.15,LONGFORD PRIMARY CARE CENTRE,-1.48555,52.449933
266.02,TETTENHALL MEDICAL PRACTICE,-2.159502,52.600723
52.65,READESMOOR MEDICAL GROUP PRACTICE,-2.216792,53.163762
116.79,NEWTOWN SURGERY,-2.735705,53.362158
74.05000000000003,ROPE GREEN MEDICAL CENTRE,-2.453958,53.06655
43.77,PENNY LANE SURGERY,-2.915004,53.389404
118.07,ABINGDON FAMILY HEALTH CARE CENTRE,-2.943503,53.440571
232.05,WINGATE MEDICAL CENTRE,-2.874647,53.488385
176.82,AINSDALE MEDICAL CENTRE,-3.03882,53.602403
28.91,CORNERSTONE SURGERY,-2.457402,53.58815500000001
197.41,BARLBOROUGH MEDICAL PRACTICE,-1.284471,53.289528
29.87,VICTORIA PARK HEALTH CENTRE,-1.1192,52.619071
109.45,THE WRAGBY SURGERY,-0.301337,53.287948
84.27000000000002,SOUTH GRANGE MEDICAL GROUP PRACTICE,-1.166506,54.56995500000001
38.64,QUEEN STREET MEDICAL PRACTICE,-3.589063,54.546567
18.96,OLD FORGE SURGERY,-2.079758,54.623041
41.67,EGTON SURGERY,-0.7552379999999999,54.445555
66.84,VESPER ROAD,-1.615337,53.827318
48.58000000000001,GLADSTONE HOUSE SURGERY,-1.307927,52.968816
8.34,THE PRACTICE-SAYEED,-1.106589,52.63081700000001
150.87,GLEADLESS MEDICAL CENTRE,-1.451325,53.356551
147.66,TRAMWAYS AND MIDDLEWOOD MEDICAL CENTRES,-1.515268,53.418958
49.89,LANGSTONE WAY SURGERY,-0.210815,51.606981
55.01,ELMTREES SURGERY,-0.335968,51.550787
153.36,TULASI MEDICAL CENTRE,0.12448900000000002,51.561005
48.88,THE MILLER PRACTICE,-0.092165,51.551419
93.29,WARRIOR SQUARE SURGERY,0.562007,50.852963
52.74999999999999,SNODLAND MEDICAL PRACTICE,0.441488,51.326053
34.07,SUTTON VALENCE GROUP PRACTICE,0.59403,51.211195
114.41,LEITH HILL PRACTICE,-0.322969,51.150452
142.33,THE GROVES MEDICAL CENTRE,-0.26224,51.410048
56.87000000000001,THE MARINE & OAKRIDGE PARTNERSHIP,-1.806532,50.722838
51.96,MALTHOUSE MEADOWS SURGERY,-2.568038,50.668698
125.11,THE STAUNTON SURGERY,-0.978019,50.851067
180.89,PORT ISAAC SURGERY,-4.824594,50.589808
48.36,THE CORINTHIAN SURGERY,-2.0815,51.906706
129.67,ST JOHNS HOUSE SURGERY,-2.25911,52.18874
27.93,CASTLEFIELDS,-2.129518,52.801013
577.31,ADDERLEY GREEN SURGERY,-2.135511,52.991714
102.41,HARBURY SURGERY,-1.458027,52.236759
17.48,DR BILAS,-2.063063,52.612824
177.39,BLUNDELLSANDS SURGERY,-3.041273,53.484452
113.63,QUEEN SQUARE MEDICAL PRACTICE,-2.800994,54.046219
44.07,DILL HALL SURGERY,-2.390844,53.754996
33.6,WEST TIMPERLEY MEDICAL CENTRE,-2.353117,53.402699
72.33000000000001,MARUS BRIDGE PRACTICE,-2.643772,53.529393
3.06,SUMMERLEE MEDICAL CENTRE,-0.652145,52.337022
3.05,HEALTH E1,-0.07152500000000002,51.518304
29.71,SLAG LANE MC,-2.575634,53.47856899999999
19.03,THE GRANGE MEDICAL CENTRE,-0.262039,52.57839
35.56,WESTCOTES MEDICAL CENTRE,-1.153587,52.63133199999999
1.53,DERBY CITY SOUTH HEALTHCARE LTD,-1.531656,52.891817
23.49,REDGATE MEDICAL CENTRE,-2.987659,51.126385
74.31,GREAT WITLEY SURGERY,-2.361004,52.291152
109.48,MADELEY PRACTICE,-2.345126,52.999856
99.44,GREEN RIDGE SURGERY,-1.8710349999999998,52.428433
70.92,RIVER BROOK MEDICAL CENTRE,-1.913809,52.43303
97.65,BUNBURY MEDICAL PRACTICE,-2.649377,53.116827
85.99000000000002,MURDISHAW,-2.662128,53.323997
93.27,ROCK COURT SURGERY,-2.916187,53.411597
82.15999999999998,POPLAR HOUSE SURGERY,-3.03076,53.754721
74.81,QUEENSWAY MEDICAL CENTRE,-2.995384,53.846569
160.20999999999995,CASTLETON HEALTH CENTRE,-2.18229,53.597034
4.59,HAVEN HEALTH,1.327039,51.96536
36.83,DR KK CHAN & PARTNERS,-2.489022,53.524185
76.66000000000003,SWANSWELL MEDICAL CENTRE,-1.816529,52.432515
67.89999999999999,DR MALIK - KENT ELMS HC,0.664114,51.563831
37.94,CITY ROAD MEDICAL CENTRE,-0.091116,51.527895
0.16,SALFORD GP OUT OF HOURS,-2.323424,53.487545
30.28,BOTOLPH BRIDGE COMMUNITY HEALTH CENTRE,-0.261557,52.562595
10.56,SHORTSTOWN MEDICAL CENTRE,-0.432463,52.110853
1.53,MK URGENT CARE SERVICES OOH,-0.7357599999999997,52.026384
130.06,THE HAWTHORNS SURGERY,-1.825965,52.538746
134.93,PARK HOUSE MEDICAL CENTRE,-2.805295,53.42670699999999
44.73,SOUTH KING STREET MEDICAL CENTRE,-3.047855,53.816775
133.52,DR A CALOW'S PRACTICE,-2.503837,53.742584
148.5,ST MARY'S MEDICAL CENTRE,-2.108554,53.543625
144.84,CHEADLE MEDICAL PRACTICE,-2.213539,53.393745
60.64,GREEN STREET GREEN MED CT,0.089996,51.354366
42.52,3/ST ANDREWS MEDICAL CENTRE,-2.339619,53.484875
42.63,HORIZON HEALTH CENTRE,-2.965121,51.331294
1.54,ANN MARIE HOWES CENTRE,-1.7785380000000002,52.464805
6.8100000000000005,BLACKFRIARS,-2.254244,53.484135
26.44,CALDBECK SURGERY,-3.050622,54.749864
51.4,OXFORD STREET SURGERY,-3.5505760000000004,54.64373
1.53,WRAYSDALE HOUSE SURGERY,-3.076077,54.367247
146.57,SAVILLE MEDICAL GROUP,-1.609598,54.976095
29.61,COOK BF,-0.357512,53.780969
51.07000000000001,PEELER HOUSE SURGERY,-0.438756,53.72252
112.86,DR INGRAM & PTRS,-1.526892,54.136451
329.1400000000001,LINGWELL CROFT SURGERY,-1.535053,53.749986
120.85,HOUNSFIELD SURGERY,-0.811033,53.183702
40.32,LENSFIELD MEDICAL PRACTICE,0.124449,52.198365
57.7,CEDAR BROOK PRACTICE,-0.41413199999999994,51.534092
96.24,ROSE VILLA SURGERY,0.506616,51.566232
57.39,ADELAIDE MEDICAL CENTRE,-0.161257,51.543548
18.06,DR DHITAL PRACTICE,-0.003074,51.587786
28.17,HOLLINGTON SURGERY,0.872487,51.151423
129.09,WOODLANDS HEALTH CENTRE,0.38485,51.18077
7.5,NORHEADS LANE SURGERY,0.026739,51.314542
53.77,HARTLAND WAY SURGERY,-0.045782,51.374372
101.03,BOYATT WOOD SURGERY,-1.36001,50.977856
32.78,GROVE VILLAGE MEDICAL CENTRE,-0.43095,51.449161
110.39,THE ROSS PRACTICE,0.114548,51.757005
23.22,DERRY COURT MEDICAL PRACTICE,0.281244,51.50931
139.24,THE UPSTAIRS SURGERY,0.140105,51.573716
68.34,HAMSTREET SURGERY,0.858768,51.064324
56.42,MARLOWE PARK MEDICAL CTR.,0.468039,51.387696
3.88,KINGFISHER MEDICAL CENTRE,-0.030503,51.481876
66.2,LEE ROAD SURGERY,0.009418,51.462503
24.87,TATTENHAM HEALTH CENTRE,-0.239555,51.310997
167.34,FITZALAN MEDICAL GROUP,-0.537647,50.80654
130.42,WALLINGTON FAMILY PRACTICE,-0.150861,51.357264
42.93,SHELLEY MANOR HOLDENHURST MEDICAL CENTRE,-1.834451,50.723834
17.9,THE BIRCHWOOD PRACTICE,-1.99846,50.740218
81.53999999999998,EAST COWES MEDICAL CENTRE,-1.28618,50.757449
43.77,THE CEDARS SURGERY,-0.72004,51.52561
87.22999999999998,NEWBURY STREET PRACTICE,-1.425847,51.598763
21.12,COWLEY ROAD MEDICAL PRACTICE,-1.232493,51.747185
94.98,COURTSIDE SURGERY,-2.41621,51.540461
4.58,PEMBROKE ROAD SURGERY,-2.618518,51.464336
94.72000000000001,VEOR SURGERY,-5.299615,50.209958
87.69,ST JAMES MEDICAL CENTRE,-3.101806,51.018121
86.50999999999998,MALVERN HEALTH CENTRE,-2.30878,52.113538
35.56,BATH ROW MEDICAL PRACTICE,-1.9084709999999998,52.47264200000001
30.99,THE WAND MEDICAL CENTRE,-1.888682,52.464187
9.83,PARKFIELD MEDICAL CENTRE,-1.775824,52.509264
99.62,PINFOLD MEDICAL,-2.000799,52.613174
93.62,WHITBY GROUP PRACTICE SURGERY   (GREEN),-2.910629,53.26751
62.62,PARK LANE SURGERY,-2.12262,53.257964
202.35,MORETON HEALTH CLINIC,-3.112556,53.400453
103.9,HAZELDENE MEDICAL CENTRE,-2.161372,53.516187
445.21,THE ROYTON & CROMPTON FAMILY PRACTICE,-2.121594,53.566109
32.5,SPRINGFIELD SURGERY,-2.122963,53.382123
500.49,LONGSHOOT MEDICAL PRACTICE,-2.620127,53.54967
4.59,ST. KATHERINE'S DOCK PRACTICE,-0.068285,51.506983
46.66,STACKYARD AND WOOLSTHORPE SURGERY,-0.7611,52.852515
54.87,WARWICK GATES FAM.HTH.CTR,-1.53869,52.268666
82.48,AELFGAR SURGERY,-1.937701,52.763581
60.89,CHARTFIELD SURGERY,-0.22769,51.457191
3.18,LYME BAY MEDICAL PRACTICE,-2.940806,50.727464
121.53,THE WEAVER VALE SURGERY,-2.531272,53.1909
21.27,MALLING HEALTH CENTRE SANDWELL,-1.987515,52.530863
9.87,MALLING HEALTH AT FOLESHILL,-1.50223,52.430909
116.55,QUEENS PARK MEDICAL CENTRE,-1.31388,54.569163
21.12,THE DISCOVERY PRACTICE,-1.235397,54.575047
30.95,HALTWHISTLE MEDICAL GROUP,-2.46484,54.970071
261.82,SOUTH AXHOLME PRACTICE,-0.822225,53.526186
20.78,THE STREET LANE PRACTICE,-1.513393,53.843234
134.95,HANNAGE BROOK MEDICAL CENTRE,-1.571366,53.077623
56.83000000000001,KINGTHORNE GROUP PRACTICE,-1.123235,53.525937
61.34,UPPERTHORPE MEDICAL CENTRE,-1.486819,53.389904
64.03,PAGE HALL MEDICAL CENTRE,-1.447214,53.407238
37.17,MILTON SURGERY,0.162445,52.241924
49.46,LAWSON ROAD SURGERY,1.299479,52.643625
26.39,WISH PARK SURGERY,-0.189693,50.834027
91.12,STATION ROAD SURGERY,-0.014887,51.377081
88.89,CATERHAM VALLEY MED.PRACT,-0.07904999999999998,51.280488
205.7,PARK ROAD GROUP PRACTICE,-0.744969,51.333905
162.91,JUDGES CLOSE SURGERY,-0.008422,51.123706
153.41,ST.JAMES'S MEDICAL CENTRE,-0.093079,51.381806
13.77,LONDON STREET SURGERY,-0.967864,51.451368
95.51,FINCHAMPSTEAD PRACTICE,-0.858066,51.375104
42.39,GRANGE ROAD SURGERY,-2.61945,51.413052
74.58,PERRANPORTH SURGERY,-5.154753,50.345271
101.66,PEVERELL PARK SURGERY,-4.14782,50.393672
3.75,IMPROVED ACCESS,-0.7316669999999998,53.754518
14.31,DR SINHA GC,0.540725,51.250796
45.7,DR THAVAPALAN AND PARTNERS,0.139516,51.472278
93.08,PARISHES BRIDGE MED.PRACT,-0.50614,51.338063
182.07,COPPICE SURGERY,-0.500448,50.813155
82.00999999999998,SAXONBROOK MEDICAL CENTRE,-0.153336,51.107379
9.28,ST.HELENS MEDICAL CENTRE,-1.109209,50.698751
55.94,MAGNOLIA HOUSE SURGERY,-0.634123,51.400008
59.7,HOLLYWOOD MEDICAL CENTRE,-1.882154,52.389572
369.32,THE ATHERSTONE SURGERY,-1.542368,52.578489
171.1,LORDSWOOD HOUSE GROUP MEDICAL PRACTICE,-1.961221,52.459054
31.66,GARRETTS GREEN LANE SURGERY,-1.788691,52.468447
54.33,KEELINGE HOUSE,-2.107892,52.501399
122.75,ABERCROMBY FAMILY PRACTICE,-2.961744,53.399032
91.19,MOSS WAY,-2.897438,53.457115
146.59,BARNOLDSWICK MED CTR,-2.185821,53.915124
99.27,STANLEY COURT SURGERY,-2.840112,53.602357
109.44,ORIENT ROAD MEDICAL PRACTICE,-2.325434,53.494182
105.22,FIELD STREET SURGERY,-1.291408,52.771768
142.93,SHOTFIELD MEDICAL PRACTICE,-0.150861,51.357264
21.81,DR KV GOPAL'S PRACTICE,-0.32136,53.787408
61.53,HIGHGROVE SURGERY,0.098727,51.538564
75.96,CATOR MEDICAL CENTRE,-0.032721,51.404873
23.5,SPARCELLS SURGERY,-1.8348220000000002,51.577482
42.38,TOFTWOOD MEDICAL CENTRE,0.940694,52.666121
154.20999999999995,SACRISTON MEDICAL CENTRE,-1.628413,54.819683
66.33,WINGATE MEDICAL PRACTICE INTRAHEALTH,-1.378951,54.725581
67.48,SOMERCOTES MEDICAL CENTRE,-1.3726,53.082351
72.31,HIBALDSTOW MEDICAL PRACTICE,-0.525672,53.510462
194.07,WILLOWBROOK MEDICAL PRACTICE,-1.267337,53.122839
20.54,RADFORD MEDICAL PRACTICE (KAUR),-1.167635,52.956339
80.00999999999998,ELM LANE SURGERY,-1.460525,53.421626
912.01,BARRACK LANE MEDICAL CENTRE,1.14631,52.06038
23.34,SANDY HEALTH CENTRE,-0.287515,52.130075
54.74,HIGHVIEW MEDICAL CENTRE,-0.17421099999999998,51.698571
41.04,SUPREME MEDICAL CENTRE,-0.19538599999999998,51.599453
138.27999999999997,CARADOC SURGERY,1.243916,51.837547
66.71000000000001,SOUTHGATE ROAD MEDICAL CENTRE,-0.085497,51.540861
131.69,SMA MEDICAL PRACTICE,-0.008594,51.571154
111.83,THE STATION PRACTICE,0.578137,50.857944
127.23,GUILDHALL STREET SURGERY,1.177815,51.082363
65.35,LAKE MEDICAL CENTRE,0.745568,51.357777
23.25,STAINES THAMESIDE MEDICAL,-0.515108,51.431014
67.89,TINKERS LANE SURGERY,-1.9006040000000002,51.543578
48.35,SUMMERTOWN HEALTH CENTRE,-1.26328,51.774383
77.39,CHARLTON MEDICAL PRACTICE,-2.451006,52.694589
73.94,BISHOPS CASTLE SURGERY,-2.994911,52.494716
147.47,DR ROBINSON & PARTNERS,-2.234115,53.08736700000001
27.39,THE KHATTAK MEMORIAL SURGERY,-1.861403,52.465722
126.14,BRIDGEGATE MEDICAL CENTRE,-3.208695,54.114321
22.33,WESTCROFT HOUSE SURGERY,-3.528592,54.48314499999999
244.22,PROSPECT MEDICAL CENTRE,-1.646189,54.974185
156.97,THE KIRTON LINDSEY AND SCOTTER SURGERY,-0.594073,53.474089
66.05000000000001,MARSH SURGERY,-1.804024,53.651743
254.51,BELLBROOKE SURGERY,-1.506516,53.808917
88.22,WELBECK ROAD HEALTH CENTRE,-1.286529,53.230761
42.24,THE BILLESDON SURGERY,-0.93947,52.618174
180.47000000000003,NORTH THORESBY SURGERY,-0.056751,53.46502
136.47,COLLINGHAM MEDICAL CENTRE,-0.760437,53.145703
86.49000000000002,MEADOWS HEALTH CENTRE (LARNER),-1.147343,52.943574
1191.68,IXWORTH SURGERY,0.8308489999999998,52.303312
22.5,PRIORY GARDENS SURGERY,-0.519311,51.885662
79.22,CROMWELL MEDICAL CENTRE,-0.050079,51.701953
20.56,SAVITA MEDICAL CENTRE,-0.342809,51.586549
45.8,MEDICAL CENTRE,-0.380148,51.507298
42.2,COVENT GARDEN MEDICAL CENTRE,-0.123689,51.515564
51.15,DR M FATEH'S PRACTICE,0.157542,51.529574
187.19,LEN VALLEY PRACTICE,0.722875,51.23739
16.25,ORCHARD FAMILY PRACTICE,0.609995,51.363412
128.9,THE ALBION SURGERY,0.147415,51.454049
121.01,CHISLEHURST MEDICAL PRACTICE,0.066938,51.419678
796.4,NEXUS HEALTH GROUP,-0.101958,51.495617
82.71,DORKING MEDICAL PRACTICE,-0.335515,51.228526
79.0,FAIRHILL MEDICAL PRACTICE,-0.282871,51.417069
89.5,RAVENSBURY PARK MEDICAL CENTRE,-0.178462,51.398578
115.47,CRESCENT PROVIDENCE SURGERY,-1.84515,50.727059
121.57,BROCKHURST MEDICAL CENTRE,-1.15337,50.808243
88.47999999999998,WATER MEADOW SURGERY,-0.61304,51.702589
22.64,ISLIP SURGERY,-1.238616,51.824927
65.19,CLARENCE PARK SURGERY,-2.976401,51.335556
159.34,ST.AGNES SURGERY,-5.202589,50.310768
95.63,BARTONGATE SURGERY,-2.237564,51.861207
47.12,THE HARLEQUIN SURGERY,-1.777883,52.49537
301.5200000000001,THE RIDGEWAY SURGERY,-2.120862,52.53580899999999
55.24,CASTLE MEADOWS SURGERY,-2.118369,52.515734
25.92,DRS RAJCHOLAN & GEORGE,-2.057836,52.613672
23.49,MANCHESTER ROAD SURGERY,-2.571248,53.396596
16.53,BROKEN CROSS SURGERY,-2.12262,53.257964
197.71,BLOOMFIELD MEDICAL CENTRE,-3.043644,53.804417
134.21,DR N NAGPAL'S PRACTICE,-2.467033,53.746299
125.56,TREGENNA GROUP PRACTICE,-2.256528,53.37075600000001
32.59,AL-SHIFA MEDICAL CENTRE,-2.229695,53.433705
319.1600000000001,LONGFORD STREET MEDICAL CENTRE,-2.218524,53.594259
12.93,SAXENA L,-2.668958,53.521291
3.06,GP HEALTHCARE ALLIANCE - ASHINGDON,0.690219,51.600747
166.85,LINTONVILLE MEDICAL GROUP,-1.570274,55.183776
97.34,GREENHEAD FAMILY DOCTORS,-1.792009,53.649463
78.9,EYAM SURGERY,-1.674512,53.283741
45.93,BEAUMONT LODGE MEDICAL PRACTICE,-1.160488,52.658279
59.95,THE ROSSINGTON PRACTICE,-1.075072,53.475939
274.43,YAXLEY GROUP PRACTICE,-0.251101,52.516866
87.72999999999998,BRUNDALL MEDICAL PARTNERSHIP,1.437022,52.622669
200.81,SUNDON MEDICAL CENTRE,-0.469351,51.914875
137.22,WENTWORTH MEDICAL PRACTICE.,-0.187898,51.607748
21.93,THE CORFTON ROAD SURGERY,-0.297591,51.519743
247.07,QUEENSWAY  MEDICAL CENTRE,0.714012,51.541786
15.54,GREEN LANE SURGERY,0.133751,51.561295
64.03,THE RIDGEWAY SURGERY,-0.011031,51.628702
139.03,GREENSANDS (POTTON),-0.212813,52.127186
135.6,VILLAGE SURGERY,-0.357349,51.814184
36.4,ST ALBANS SURGERY,0.133341,51.537112
103.23,THE CEDARS SURGERY,0.173742,51.395873
66.8,THE CRANE,0.535827,51.09887
62.91,THORKHILL SURGERY,-0.327072,51.384166
91.6,NORTHBOURNE MEDICAL CENTRE,-0.260244,50.840955
144.81,OLD COULSDON MEDICAL PRACTICE,-0.11782999999999999,51.306622
120.94,QUEENSWAY MEDICAL CENTRE,-0.718506,52.304899
110.74,HARRIS MEMORIAL SURGERY,-5.267098,50.246646
12.77,PARK VIEW SURGERY,-4.139146,50.382894
103.88,PARK MEDICAL PRACTICE,-2.54672,51.186037
132.12,MILL BANK,-2.118627,52.80489
188.3,TRINITY COURT SURGERY,-1.71272,52.194836
64.32000000000001,COALWAY ROAD MEDICAL PRACTICE,-2.156481,52.569146
208.43,42 KINGSWAY,-3.020167,53.481011
200.31,VITTORIA MED CTR G,-3.030156,53.396375
111.29,REGENT HOUSE SURGERY,-2.635371,53.650323
118.19,SANDY LANE SURGERY,-2.694715,53.689488
29.44,CROSTON MEDICAL CENTRE,-2.773743,53.666146
26.04,THE OLD LINKS SURGERY,-3.030913,53.762695
22.31,SWARLAND AVENUE SURGERY,-1.578629,55.006365
28.28,THE HAVEN SURGERY,-1.712272,54.825105
33.56,THE SPRINGFIELD SURGERY (BINGLEY),-1.827829,53.846937
50.09,WOODHOUSE HILL SURGERY,-1.770976,53.666685
19.16,COLLEGE STREET MEDICAL PRACTICE,-1.28258,52.904266
110.47,GREENGATE MEDICAL CENTRE,-1.12854,52.680551
148.96,THE CALVERTON PRACTICE,-1.081907,53.037134
113.5,EAST NORFOLK MEDICAL PRACTICE,1.725527,52.619127
611.75,VIDA HEALTHCARE,0.423448,52.75729200000001
55.03,GOODCARE PRACTICE,-0.376261,51.531514
41.16,COCKHEDGE MEDICAL CENTRE,-2.589833,53.390932
48.36,CRANE PARK SURGERY,-0.361463,51.445073
10.69,QUEENS PARK SURGERY,0.413747,51.637337
143.25,THE DAWES FAMILY PRACTICE,-2.165423,53.619474
6.84,INTERMEDIATE CARE,-2.279832,53.47952
26.25,108 RAWLING ROAD(RAWLING ROAD PRACTICE),-1.615084,54.951328
164.35,SCARTHO MEDICAL CENTRE,-0.094601,53.536399
253.8,DR JAD WEIR & PARTNERS,-0.265989,53.755985
125.96,MANSTON SURGERY,-1.450915,53.803865
141.03,NEW SOUTHGATE SURGERY,-1.50415,53.692762
125.77,IMPERIAL ROAD SURGERY,-1.556557,53.140474
102.9,RICHMOND MEDICAL CENTRE,-0.596637,53.18754
46.34,JACKSDALE MEDICAL CENTRE,-1.336566,53.058873
129.04,DARTON HEALTH CENTRE PRACTICE,-1.530099,53.586085
35.41,ST.JOHNS GROUP PRACTICE,-1.151942,53.507052
68.98,CHURCH HILL SURGERY,1.229008,52.428527
26.38,THE WOOTTONS SURGERY,0.437136,52.79034300000001
27.24,SOUTHEND ROAD SURGERY,0.439549,51.526952
83.62999999999998,HIGHWOODS SURGERY,0.918233,51.911087
194.67,STAR LANE MEDICAL CENTRE,0.010674,51.519873
153.46,BOLTON ROAD SURGERY,0.285926,50.767612
81.19,LINKS MEDICAL PRACTICE,0.014808000000000002,51.419793
217.03,CRANLEIGH MEDICAL PRACTICE,-0.487062,51.140612
26.27,LIFEBOAT QUAY MEDICAL CENTRE,-1.9849259999999997,50.718724
56.35,OLD TOWN SURGERY,-1.796355,51.550429
58.53,OAK TREE SURGERY,-4.451958,50.460716
57.11,ARGYLL HOUSE,-1.16613,50.726904
54.31,CRESSEX HEALTH CENTRE,-0.7788009999999999,51.617114
171.24,WALLINGFORD MEDICAL PRACTICE,-1.128258,51.595495
42.06,ASHBURTON SURGERY,-3.748595,50.519053
55.05,WALLINGBROOK HEALTH CENTRE,-3.875034,50.914387
43.98,LONGLEVENS SURGERY,-2.212032,51.875911
45.69,DR DO YATES' PRACTICE,-1.9837080000000002,52.986389
46.4,HIGHERLAND SURGERY,-2.232632,53.009021
51.03,LAURIE PIKE HEALTH CENTRE,-1.899142,52.505172
114.63,PERRY PARK SURGERY,-1.904357,52.525683
