total_cost,name,longitude,latitude
3662.1300000000001,KENMORE MEDICAL CENTRE,-2.235223,53.323079
2690.7699999999995,HIGH STREET SURGERY,-2.12262,53.257964000000001
2726.9099999999999,TOFT ROAD SURGERY,-2.3730720000000001,53.300724000000002
5911.1499999999996,SOUTH PARK SURGERY,-2.12262,53.257964000000001
6467.1700000000001,CUMBERLAND HOUSE SURGERY,-2.12262,53.257964000000001
4220.0600000000004,HANDFORTH HEALTH CENTRE,-2.2146469999999998,53.347873999999997
4762.3400000000001,PARK LANE SURGERY,-2.12262,53.257964000000001
1909.3699999999999,BROKEN CROSS SURGERY,-2.12262,53.257964000000001
2004.05,HASLINGTON SURGERY,-2.3949379999999998,53.097684000000001
5439.9900000000007,HUNGERFORD MEDICAL CENTRE,-2.427003,53.09787
3311.4200000000001,THE WEAVERHAM SURGERY,-2.5775049999999999,53.262306000000002
4234.1400000000003,WATLING STREET SURGERY,-2.514081,53.260250999999997
3980.8100000000004,OAKWOOD MEDICAL CENTRE,-2.5441790000000002,53.27167
6462.119999999999,THE WEAVER VALE SURGERY,-2.531272,53.190899999999999
3544.2299999999996,CAUSEWAY MEDICAL CENTRE,-2.5895380000000001,53.380541000000001
4638.8799999999992,CULCHETH MEDICAL CENTRE,-2.525547,53.451644999999999
4819.7500000000009,LATCHFORD MEDICAL CENTRE,-2.561658,53.381000999999998
2099.3200000000002,PARKVIEW MEDICAL CENTRE,-2.5883069999999999,53.404594000000003
1584.74,MANCHESTER ROAD SURGERY,-2.5712480000000002,53.396596000000002
2313.46,THE LAKESIDE SURGERY,-2.4841150000000001,53.376873000000003
6678.3299999999999,BIRCHWOOD MEDICAL CENTRE,-2.5265,53.415480000000002
3913.1800000000003,WESTBROOK MEDICAL CENTRE,-2.6322109999999999,53.408504000000001
4482.9200000000001,THE ERIC MOORE PARTNERSHIP,-2.5971600000000001,53.393403999999997
805.25,COCKHEDGE MEDICAL CENTRE,-2.5898330000000001,53.390931999999999
4511.3800000000001,HELSBY HEALTH CENTRE,-2.7705220000000002,53.270466999999996
3886.1100000000001,WHITBY GROUP PRACTICE SURGERY   (GREEN),-2.9106290000000001,53.267510000000001
7958.3199999999988,PRINCEWAY SURGERIES,-2.7268210000000002,53.293052000000003
11842.52,GREAT SUTTON MEDICAL CENTRE,-2.937481,53.276992
4736.0400000000009,THE ELMS MEDICAL CENTRE,-2.8929719999999999,53.195093
2122.3800000000001,THE HANDBRIDGE MED.CTR.,-2.8894280000000001,53.183658000000001
1899.24,FOUNTAINS MEDICAL PRACTICE,-2.8929719999999999,53.195093
4467.5799999999999,NORTHGATE VILLAGE SURGERY,-2.8929719999999999,53.195093
6720.8700000000008,HESWALL & PENSBY GROUP PRACTICE,-3.1001609999999999,53.329183999999998
4705.7799999999997,DEVANEY MED CTR,-3.037525,53.385199999999998
6659.2099999999991,WHETSTONE LANE MED CTR,-3.0296979999999998,53.387309999999999
11816.829999999998,ST CATHERINE'S SURGERY,-3.0265309999999999,53.380029
3089.4099999999999,ST HILARY GROUP PRACTICE,-3.0613600000000001,53.422187999999998
7153.869999999999,VITTORIA MED CTR G,-3.0301559999999998,53.396374999999999
5304.1300000000001,MORETON HEALTH CLINIC,-3.1125560000000001,53.400452999999999
3045.8700000000003,HOYLAKE & MEOLS MEDICAL CTR,-3.155589,53.399847999999999
2837.7699999999995,LISCARD GROUP PRACTICE,-3.0458639999999999,53.415672000000001
13131.649999999998,MIRIAM PRIMARY CARE GROUP,-3.0464899999999999,53.398246
1622.1100000000001,CHURCH ROAD MEDICAL PRACTICE,-3.0236779999999999,53.350093000000001
356.24000000000001,GP ACCESS SERVICE,-3.0160680000000002,53.390805999999998
102.89,WESTERN CHESHIRE GP SERVICE OOH,-2.9022999999999999,53.211542000000001
6241.7299999999996,ORCHARD COURT SURGERY,-1.566648,54.532361999999999
8470.0100000000002,NEASHAM ROAD SURGERY,-1.542648,54.517256000000003
417.62,ST WERBURGH'S MEDICAL PRACTICE HOMELESS,-2.8906839999999998,53.194462999999999
238,DARLINGTON CCG FT COMMUNITY PRACTICE,-1.563733,54.530374000000002
7581.5499999999993,WILLINGTON MEDICAL GROUP,-1.6943360000000001,54.710276
10619.359999999999,NORTH HOUSE SURGERY,-1.7472620000000001,54.716993000000002
10523.52,BISHOPGATE MEDICAL CENTRE,-1.6762109999999999,54.659157999999998
4.5,WIRRAL COMMUNITY NMP,-3.0265309999999999,53.380029
2155.6400000000003,PINFOLD MEDICAL PRACTICE,-1.835958,54.626542999999998
2532.5900000000001,THE NEW SEAHAM MEDICAL GROUP,-1.3653219999999999,54.834795999999997
3354.4099999999999,WINGATE MEDICAL PRACTICE INTRAHEALTH,-1.378951,54.725580999999998
10337.079999999998,BEVAN MEDICAL GROUP,-1.3880950000000001,54.760835999999998
2024.0799999999999,EVENWOOD MEDICAL PRACTICE,-1.758629,54.620131999999998
5469.0399999999991,SILVERDALE FAMILY PRACTICE,-1.4100870000000001,54.800243999999999
28.5,BISHOP AUCKLAND PRIMARY CARE SERVICES,-1.6782410000000001,54.656610999999998
3424.1399999999999,BELMONT & SHERBURN MEDICAL GROUP,-1.52816,54.786147999999997
11177,CONSETT MEDICAL CENTRE,-1.8277589999999999,54.851312
6636.1999999999998,SACRISTON MEDICAL CENTRE,-1.6284130000000001,54.819682999999998
21.300000000000001,SEDGEFIELD PRIMARY CARE SERVICES,-1.5802320000000001,54.629666999999998
5909.6299999999992,CESTRIA HEALTH CENTRE,-1.597685,54.851720999999998
25.800000000000001,WEARDALE COMMUNITY HOSPITAL,-2.018564,54.748007000000001
5282.3800000000001,OAKFIELDS HEALTH GROUP,-1.816527,54.903623000000003
2236.6700000000001,THE HAVEN SURGERY,-1.712272,54.825105000000001
1494.3500000000001,DENHOLM HOUSE,-1.6358619999999999,54.7545
18070.889999999999,QUEENS PARK MEDICAL CENTRE,-1.3138799999999999,54.569163000000003
14770.969999999999,TENNANT STREET MEDICAL PRACTICE,-1.313593,54.568615999999999
8398.9899999999998,BANKHOUSE SURGERY,-1.214164,54.682341999999998
9887.0899999999983,WOODBRIDGE PRACTICE,-1.2921279999999999,54.538148999999997
12149.959999999999,HAVELOCK GRANGE PRACTICE,-1.214164,54.682341999999998
24.899999999999999,WEEKEND SUPPORT FOR VULNERABLE PEOPLE,-1.8438669999999999,54.866692
16485.66,MCKENZIE HOUSE SURGERY,-1.210386,54.672421999999997
4800.4699999999993,THE KOH PRACTICE,-1.2175990000000001,54.685239000000003
2170.7799999999997,PARK LANE SURGERY,-1.4251309999999999,54.604638999999999
13091.950000000001,ALMA MEDICAL CENTRE,-1.3176479999999999,54.569490000000002
3707.0500000000002,MCKENZIE GROUP PRACTICE,-1.239266,54.660465000000002
413.56,THE ARRIVAL PRACTICE,-1.3125929999999999,54.572111999999997
12,EXTENDED HOURS SERVICE-TENNANT STREET,-1.313593,54.568615999999999
4851.3199999999997,SPRINGWOOD SURGERY,-1.055444,54.532597000000003
6190.9900000000007,WESTBOURNE MEDICAL CENTRE,-1.216402,54.571717
4748.5500000000002,BROTTON SURGERY,-0.93635699999999999,54.565266000000001
9972.5,CROSSFELL HEALTH CENTRE,-1.203883,54.560833000000002
9137.5499999999993,HILLSIDE PRACTICE,-0.981124,54.563130000000001
5059.8600000000006,ZETLAND MEDICAL PRACTICE,-1.016392,54.591700000000003
6556.6499999999996,KINGS MEDICAL CENTRE,-1.216402,54.571717
4788.5900000000001,CAMBRIDGE MEDICAL GROUP,-1.2523,54.554149000000002
6798.3699999999999,THE GREEN HOUSE SURGERY,-1.0688070000000001,54.599299000000002
6039.2300000000005,COULBY MEDICAL PRACTICE,-1.213762,54.524805000000001
4509.9700000000003,THE DISCOVERY PRACTICE,-1.2353970000000001,54.575046999999998
4030.21,THE ESTON SURGERY,-1.168042,54.571137
4660.4000000000005,HUNTCLIFF SURGERY,-0.974692,54.582762000000002
1727.6300000000001,THE RAVENSCAR SURGERY,-1.0688070000000001,54.599299000000002
1138.8200000000002,NT&H COMM RESP N,-1.2278370000000001,54.702398000000002
6645.0500000000002,THE DUNSTAN PARTNERSHIP,-2.3842789999999998,53.582354000000002
7419.6300000000001,KILDONAN HOUSE,-2.545363,53.594788000000001
3907.5200000000004,SWAN LANE MEDICAL CENTRE,-2.4423910000000002,53.566944999999997
4286.3600000000006,STABLE FOLD SURGERY,-2.5234299999999998,53.552405
10651.92,KEARSLEY MEDICAL CENTRE,-2.382838,53.543205
7238.1199999999999,STONEHILL MEDICAL CENTRE,-2.402444,53.543635000000002
2676.4899999999998,LEVER CHAMBERS 2,-2.4324430000000001,53.565624
10071.77,UNSWORTH GROUP PRACTICE,-2.5085540000000002,53.550457999999999
4096.0800000000008,MANDALAY MEDICAL CENTRE,-2.4321139999999999,53.610582999999998
2971.54,HALLIWELL SURGERY 2,-2.4317380000000002,53.588321999999998
3487.6300000000001,HEATON MEDICAL CENTRE,-2.4693480000000001,53.587999000000003
772.17999999999995,BRADFORD STREET SURGERY,-2.4182250000000001,53.576838000000002
2064.9799999999996,LITTLE LEVER HEALTH CENTRE 2,-2.3706239999999998,53.559818
3513.8099999999995,SPRING VIEW MEDICAL CENTRE,-2.369742,53.560836999999999
2493.0799999999999,HALLIWELL SURGERY 3,-2.4317380000000002,53.588321999999998
1777.24,WYRESDALE ROAD SURGERY,-2.4521959999999998,53.581577000000003
771.79999999999995,DEANE CLINIC 1,-2.464537,53.567884999999997
4483.5699999999997,FAIRFAX GROUP PRACTICE,-2.2835700000000001,53.533828
3016.7599999999998,BLACKFORD HOUSE MEDICAL CENTRE,-2.283325,53.574266000000001
11371.9,MINDEN FAMILY PRACTICES - DR SAXENA,-2.2885909999999998,53.595529999999997
3331.54,ROCK HEALTHCARE LIMITED,-2.2885909999999998,53.595529999999997
276.74000000000001,CHARLOTTE STREET SURGERY,-2.4246349999999999,53.592517999999998
4887.8500000000004,THE PARKS MEDICAL PRACTICE,-2.121594,53.566108999999997
8269.0800000000017,FAILSWORTH GROUP PRACTICE,-2.1567470000000002,53.509855000000002
4699.3700000000008,CH MEDICAL PRACTICE,-2.1450680000000002,53.533205000000002
8933.9199999999983,THE ROYTON & CROMPTON FAMILY PRACTICE,-2.121594,53.566108999999997
2794.6599999999999,HOPWOOD HOUSE MEDICAL PRACTICE,-2.0954670000000002,53.542109000000004
2380.3099999999999,ROYTON MEDICAL CENTRE,-2.1238600000000001,53.565731
3992.46,GREENBANK MEDICAL PRACTICE,-2.0961660000000002,53.537928999999998
2843.4300000000003,LEES MEDICAL PRACTICE,-2.074881,53.540281
65.219999999999999,BURY GP PRACTICES LTD,-2.294365,53.598005999999998
1439.6699999999998,JALAL PRACTICE,-2.1169449999999999,53.543824000000001
3770.2200000000003,KAPUR FAMILY CARE,-2.1305339999999999,53.537309999999998
2138.1700000000001,SUNVALLEY MEDICAL PRACTICE,-2.0950950000000002,53.537785999999997
4230.4099999999999,HILL TOP SURGERY,-2.1007560000000001,53.520110000000003
5418.8900000000003,EDENFIELD ROAD SURGERY,-2.1886709999999998,53.622297000000003
6795.8400000000001,PETERLOO MEDICAL CENTRE,-2.2061600000000001,53.546759999999999
7249.7800000000007,LONGFORD STREET MEDICAL CENTRE,-2.2185239999999999,53.594259000000001
2573.5799999999999,HEALEY SURGERY,-2.1627860000000001,53.633087000000003
1205.4099999999999,INSPIRE MEDICAL CENTRE,-2.1382539999999999,53.622745999999999
3010.9700000000003,THE DAWES FAMILY PRACTICE,-2.1654230000000001,53.619473999999997
2526.3900000000003,HEADY HILL SURGERY,-2.241622,53.593657
2188.0799999999999,THE VILLAGE MEDICAL CTR.,-2.0979939999999999,53.642757000000003
3168.52,TRINITY MEDICAL CENTRE,-2.0994000000000002,53.642442000000003
1676.8299999999999,BIRTLE VIEW MEDICAL PRACTICE,-2.2277,53.595185999999998
13.5,7 DAY ACCESS PHOENIX HUB,-2.2186620000000001,53.592207000000002
2992.7800000000002,4/ST ANDREWS MEDICAL PRACTICE,-2.3396189999999999,53.484875000000002
3981.2200000000003,THE LIMES MEDICAL PRACTICE,-2.3975270000000002,53.522942
8849.6899999999987,SILVERDALE MEDICAL PRACTICE,-2.3314750000000002,53.518793000000002
3561.9399999999996,ORIENT ROAD MEDICAL PRACTICE,-2.325434,53.494182000000002
7215.3700000000008,SORREL BANK MEDICAL PRACTICE,-2.2948149999999998,53.493344
6204.6300000000001,THE MOSSLANDS MEDICAL PRACTICE,-2.432258,53.437925
666.08000000000004,ORCHARD MEDICAL PRACTICE,-2.4209480000000001,53.502915999999999
335.25999999999999,DR DAVIS'S MEDICAL PRACTICE,-2.2604700000000002,53.506995000000003
8666.0099999999984,SALFORD PRIMARY CARE TOGETHER,-2.423902,53.529871999999997
8630.5699999999997,MANOR MEDICAL PRACTICE,-2.1367129999999999,53.403466999999999
92.920000000000002,EMERGENCY DEPT PRIMARY CARE STREAMING,-2.3376299999999999,53.484827000000003
3872.4899999999998,ADSHALL ROAD MEDICAL PRAC,-2.1910720000000001,53.390044000000003
4128.4400000000005,HULME HALL MEDICAL GROUP,-2.191357,53.366475000000001
4092.9700000000003,SPRINGFIELD SURGERY,-2.1229629999999999,53.382123
2672.8800000000001,SOUTH REDDISH MEDICAL CTR 2,-2.156517,53.422308999999998
5603.2699999999995,ARCHWOOD MEDICAL PRACTICE,-2.0996610000000002,53.426288999999997
1557.6500000000001,SIMMONDLEY MEDICAL PRACTICE,-1.969041,53.439540000000001
4209.6799999999994,STAVELEIGH MEDICAL CENTRE,-2.0582509999999998,53.484571000000003
5701.3099999999995,MEDLOCK VALE MEDICAL PRACTICE,-2.1425019999999999,53.479061999999999
9656.9599999999991,HAUGHTON/THORNLEY MEDICAL CENTRES,-2.0761159999999999,53.446745999999997
16934.84,MILLGATE HEALTHCARE PARTNERSHIP,-2.1184639999999999,53.455601999999999
11.559999999999999,BURY URGENT TREATMENT CENTRE,-2.25562,53.600439000000001
3632.6300000000006,GROSVENOR MEDICAL CENTRE,-2.0591050000000002,53.481451999999997
2924.1700000000001,STAMFORD HOUSE,-2.0786419999999999,53.493647000000003
1572.3000000000002,WATERLOO MEDICAL CENTRE,-2.1039159999999999,53.498778000000001
1002.3700000000001,MILLBROOK MEDICAL PRACTICE,-2.034281,53.492265000000003
2931.4399999999996,BODMIN ROAD HEALTH CENTRE,-2.351718,53.428122999999999
8018.7799999999997,FIRSWAY HEALTH CENTRE,-2.3554680000000001,53.421289000000002
3692.4399999999996,FLIXTON ROAD MEDICAL CENTRE,-2.3626640000000001,53.448267000000001
4886.3600000000006,ST JOHNS MEDICAL CENTRE,-2.3521580000000002,53.386719999999997
6044.8500000000004,NORTH TRAFFORD GROUP PRACTICE,-2.2994810000000001,53.453882
2991.8800000000001,TRAFFORD HEALTH CENTRE,-2.3706809999999998,53.454059999999998
2248.48,ZAMAN,-2.6437719999999998,53.529392999999999
7151.7300000000014,STANDISH MEDICAL PRACTICE,-2.660666,53.584567999999997
141.72999999999999,INTERMEDIATE CARE,-2.2798319999999999,53.479520000000001
4675.630000000001,NEWTOWN MEDICAL PRACTICE,-2.6696970000000002,53.538479000000002
5749.2199999999993,LONGSHOOT MEDICAL PRACTICE,-2.6201270000000001,53.549669999999999
5189.25,ELLIOTT STREET SURGERY,-2.4693160000000001,53.514178000000001
2609.0900000000001,DR SEABROOK,-2.6324990000000001,53.551430000000003
1758.76,SAXENA L,-2.6689579999999999,53.521290999999998
2334.5099999999998,FOXLEIGH FAMILY SURGERY,-2.511927,53.493518999999999
3739.75,MEADOWVIEW SURGERY,-2.5008110000000001,53.527489000000003
2127.79,DR VARDHAN'S SURGERY,-2.4479129999999998,53.500768999999998
3264.7899999999995,XAVIER CA,-2.561051,53.471941999999999
2187.48,INTRAHEALTH PLATT BRIDGE,-2.5959249999999998,53.522278999999997
1611.5999999999999,LEIGH SPORTS VILLAGE,-2.5310790000000001,53.489454000000002
1263.78,MAULDETH MEDICAL CENTRE,-2.213428,53.434838999999997
5100.5,PEEL HALL MEDICAL CENTRE,-2.2650169999999998,53.379925
4213.6399999999994,ST GEORGE'S MEDICAL CENTRE,-2.1890309999999999,53.509666000000003
1427.6999999999998,DICKENSON ROAD MEDICAL CENTRE,-2.2009609999999999,53.455984999999998
7664.1399999999985,GORTON MEDICAL CENTRE,-2.1719849999999998,53.463168000000003
5946.3900000000003,NEW COLLEGIATE MEDICAL CENTRE,-2.2360769999999999,53.504378000000003
2171.29,DR CUNNINGHAM & PARTNERS,-2.224996,53.470565000000001
4561.4099999999999,CORNERSTONE FAMILY PRACTICE,-2.1950970000000001,53.474421999999997
5112.0500000000002,FLORENCE HOUSE MEDICAL PRACTICE,-2.1625909999999999,53.472679999999997
5661.2600000000002,TREGENNA GROUP PRACTICE,-2.2565279999999999,53.370756
2430.8099999999999,PRINCESS ROAD SURGERY,-2.2436250000000002,53.440373999999998
3533.3399999999992,BROOKLANDS MEDICAL PRACTICE,-2.3042530000000001,53.400981999999999
3982.3400000000001,HAZELDENE MEDICAL CENTRE,-2.1613720000000001,53.516187000000002
1069.77,FERNCLOUGH SURGERY,-2.216154,53.505890000000001
2205.9000000000001,DR CHIU  KOH AND GAN,-2.224996,53.470565000000001
1881.28,DR KHAN'S PRACTICE,-2.1841569999999999,53.484307999999999
2448.9900000000002,THE ALEXANDRA PRACTICE,-2.2557450000000001,53.443125999999999
1628.8099999999999,CORKLAND ROAD MEDICAL PRACTICE,-2.2738779999999998,53.441827000000004
3159.29,THE NEVILLE FAMILY CENTRE,-2.2206290000000002,53.522770999999999
854.19000000000005,AL-SHIFA MEDICAL CENTRE,-2.229695,53.433705000000003
1458.54,DIDSBURY MEDICAL CENTRE - DR WHITAKER,-2.2318190000000002,53.420371000000003
1585.1200000000001,LONGSIGHT MEDICAL PRACTICE,-2.2018870000000001,53.457583999999997
2341.2599999999998,DAM HEAD MEDICAL CENTRE,-2.2123200000000001,53.526139000000001
2043.2100000000003,MP VICTORIA MILL,-2.2142919999999999,53.489632999999998
749.92000000000007,CITY HEALTH CENTRE,-2.2428149999999998,53.482926999999997
1075.1000000000001,HAWTHORN MC,-2.2045439999999998,53.443216
753.3900000000001,NURSING HOME PROJECT TEAM (SOUTH),-2.25528,53.390625
3,MFT ADULT COMMUNITY SERVICES,-2.1885240000000001,53.446351999999997
122.86999999999999,PRIMARY CARE MANCHESTER LIMITED,-2.2142919999999999,53.489632999999998
38.269999999999996,SOUTHPORT  FORMBY AND SOUTH SEFTON OOH,-2.1340340000000002,53.450605000000003
5543.3299999999999,OAKENHURST MEDICAL PRACTICE,-2.486748,53.750551999999999
4066.2999999999997,STEPPING STONE PRACTICE,-2.4566460000000001,53.747582000000001
3868.25,DR DC MATHUR & PTNR,-2.4908739999999998,53.728364999999997
1908.71,LIMEFIELD SURGERY,-2.5038939999999998,53.749881999999999
2515.9099999999999,SPRING-FENISCO HEALTHLINK,-2.4666800000000002,53.691097999999997
2372.0500000000002,DR N NAGPAL'S PRACTICE,-2.4670329999999998,53.746299
11682.349999999999,WATERLOO MEDICAL CENTRE,-3.0413579999999998,53.799799
64.260000000000005,GORTON PARKS INTERMEDIATE CARE UNIT,-2.1801740000000001,53.465465999999999
11507.980000000001,GLENROYD MEDICAL CENTRE,-3.0335030000000001,53.849555000000002
13495.280000000001,CLEVELEYS GROUP PRACTICE,-3.0425450000000001,53.875110999999997
11245.919999999998,HIGHFIELD SURGERY,-3.047383,53.781401000000002
3799.0199999999995,ARNOLD MEDICAL CENTRE,-3.0380259999999999,53.789679999999997
137.59999999999999,COMPASS MEDICAL PRACTICE,-3.0518480000000001,53.818696000000003
6786.3799999999992,THE CRESCENT SURGERY,-3.0425450000000001,53.875110999999997
13388.439999999999,BLOOMFIELD MEDICAL CENTRE,-3.043644,53.804417000000001
11422.43,NORTH SHORE SURGERY,-3.0335030000000001,53.849555000000002
6493.9400000000005,COPPULL MEDICAL PRACTICE,-2.6625009999999998,53.619714999999999
4288.8199999999997,THE CHORLEY SURGERY,-2.6324510000000001,53.651344999999999
87.849999999999994,BLACKPOOL LOCALITY CHS,-3.04853,53.805489000000001
6979.0000000000009,WORDEN MEDICAL CENTRE,-2.7093159999999998,53.689644999999999
5316.6799999999994,REGENT HOUSE SURGERY,-2.6353710000000001,53.650323
7412.5199999999995,SANDY LANE SURGERY,-2.694715,53.689487999999997
5340.1399999999994,ROSLEA SURGERY,-2.6625510000000001,53.733794000000003
2938.0200000000004,CENTRAL PARK SURGERY,-2.6960679999999999,53.695314000000003
11.300000000000001,PRIMARY CARE DVT SERVICE,-2.473916,53.764969999999998
2406.73,THE SURGERY CHORLEY,-2.6362220000000001,53.652566
1677.8800000000001,CROSTON MEDICAL CENTRE,-2.7737430000000001,53.666145999999998
1606.6000000000001,NEW LONGTON SURGERY,-2.743528,53.724232000000001
2336.3700000000003,PRESTON ROAD SURGERY,-2.6409419999999999,53.709578
2222.71,BUCKSHAW VILLAGE HEALTH CENTRE,-2.6580029999999999,53.678415000000001
6583.0700000000015,YORKSHIRE STREET MEDICAL CENTRE,-2.2346550000000001,53.789104999999999
11843.35,IRWELL MEDICAL PRACTICE,-2.1982740000000001,53.699744000000003
7446.4300000000003,REEDYFORD HLTH CARE GROUP,-2.2188500000000002,53.838042000000002
10914.280000000001,PARKSIDE SURGERY,-2.2412299999999998,53.794992000000001
7785.8600000000006,BARNOLDSWICK MED CTR,-2.1858209999999998,53.915123999999999
6305.0100000000002,DR THM MACKENZIE & PARTNERS,-2.3246739999999999,53.703952999999998
5496.3000000000002,KIDDROW MEDICAL PRACTICE,-2.2886259999999998,53.795175
5265.8899999999994,BURNLEY WOOD MEDICAL CENTRE,-2.2357499999999999,53.784199999999998
4619.8699999999999,BLACKBURN RD MEDICAL CENTRE,-2.3753700000000002,53.752780999999999
1859.54,DR BELLO'S SURGERY,-2.390844,53.754995999999998
3396.7199999999998,RICHMOND MEDICAL CENTRE,-2.3848739999999999,53.752327999999999
917.22000000000003,KING STREET MEDICAL CTR,-2.3694199999999999,53.753931999999999
4780.369999999999,GREAT HARWOOD MEDICAL GROUP,-2.4036460000000002,53.788353000000001
5143.5100000000002,THE WEAVERS PRACTICE,-2.4142109999999999,53.768459
2210.0899999999997,AVHAC REGISTERED PATIENTS,-2.3669210000000001,53.759583999999997
166.44,ELHT NMPS,-2.2278790000000002,53.810423999999998
5626.3000000000011,THE NEW HALL LANE PRACTICE,-2.6797849999999999,53.762782999999999
3271.1300000000001,BRIARWOOD MEDICAL CENTRE,-2.735957,53.769731999999998
7390.3199999999997,BRIDGEGATE MEDICAL CENTRE,-3.2086950000000001,54.114320999999997
5308.5,STATION HOUSE SURGERY,-2.7397360000000002,54.331958999999998
6785.2799999999988,WATERLOO HOUSE SURGERY,-3.2680210000000001,54.208939999999998
2577.29,NUTWOOD MEDICAL PRACTICE,-2.9156650000000002,54.187956
3669.21,LIVERPOOL HOUSE SURGERY,-3.2095199999999999,54.112712999999999
1874.75,DR A BISARYA,-2.8067470000000001,53.550182
12902.27,EXCEL PRIMARY CARE,-2.7589009999999998,53.538342999999998
1838.6799999999998,STANLEY COURT SURGERY,-2.840112,53.602356999999998
4425.0699999999997,KIRKHAM HEALTH CENTRE,-2.8785409999999998,53.781939000000001
6243.3199999999997,ASH TREE HOUSE SURGERY,-2.8712580000000001,53.783476
136.86000000000001,GREAT HARWOOD SURGERY,-2.4142109999999999,53.768459
5680.5500000000002,FLEETWOOD SURGERY,-3.0338430000000001,53.912666999999999
1571.04,THE OLD LINKS SURGERY,-3.030913,53.762695000000001
6414.619999999999,APPLETON VILLAGE SURGERY,-2.729552,53.371391000000003
7740.9399999999996,TOWER HOUSE PRACTICE,-2.7324600000000001,53.341171000000003
21388.399999999998,ASTON HEALTHCARE LIMITED,-2.8310490000000001,53.404553
12138.209999999999,MILLBROOK MEDICAL CENTRE,-2.8875839999999999,53.475696999999997
5828.6399999999994,THE MACMILLAN SURGERY,-2.8844270000000001,53.482602999999997
3918.7600000000002,CEDAR CROSS MEDICAL CENTRE,-2.8008869999999999,53.415641999999998
2106.9299999999998,COLBY MEDICAL CENTRE,-2.8428070000000001,53.419525999999998
137.09999999999999,PDS MEDICAL SDHC & OOH'S,-3.0104160000000002,53.920955999999997
198.20999999999998,EAST LANCS MEDICAL SERVICE OOH,-2.442698,53.747768999999998
5266.0500000000002,42 KINGSWAY,-3.0201669999999998,53.481011000000002
7230.4099999999999,BOOTLE VILLAGE SURGERY,-2.9896739999999999,53.449573000000001
1342.21,CROSBY VILLAGE SURGERY,-3.0265330000000001,53.493774999999999
7055.4300000000003,THE STRAND MEDICAL CENTRE,-2.9928620000000001,53.453932999999999
6502.5299999999997,PARK STREET SURGERY,-2.9868749999999999,53.450288
2282.0300000000002,KINGSWAY SURGERY,-3.0201669999999998,53.481011000000002
1409.3399999999999,SEAFORTH VILLAGE SURGERY,-3.0069710000000001,53.465932000000002
4105.2600000000002,CHRISTIANA HARTLEY MEDICAL PRACTICE,-2.9834710000000002,53.640301999999998
3236.9899999999998,AINSDALE VILLAGE SURGERY,-3.0365259999999998,53.601202999999998
10430.440000000001,ST MARKS MEDICAL CENTRE (TCG MEDICAL),-2.9954550000000002,53.646917000000002
1278.8000000000002,LINCOLN HOUSE SURGERY,-3.0122089999999999,53.618786
53.199999999999996,ST BARTHOLOMEW'S COURT NURSING HOME,-2.8578730000000001,53.412227999999999
5307.9200000000001,VISTA ROAD SURGERY,-2.6454589999999998,53.457808
2828.77,PHOENIX MEDICAL CENTRE,-2.7401230000000001,53.455694999999999
3131.9999999999995,HALL STREET MEDICAL CENTRE,-2.7324799999999998,53.452649999999998
2905.5799999999999,PARKFIELD SURGERY,-2.74261,53.456685999999998
5571.3000000000002,THE SPINNEY MEDICAL CTR.,-2.7576269999999998,53.442442999999997
3131.8599999999997,BETHANY MEDICAL CENTRE,-2.758616,53.45317
2837.7600000000002,SANDFIELD MEDICAL CENTRE,-2.7435770000000002,53.450845999999999
3846.9599999999996,MARSHALLS CROSS MEDICAL CENTRE,-2.7189009999999998,53.439528000000003
6852.0299999999997,THE MARGARET THOMPSON MED CENTRE,-2.8217379999999999,53.345973999999998
8494.869999999999,WESTMORELAND GP CENTRE,-2.9311039999999999,53.466323000000003
1256.3599999999999,STORRSDALE MEDICAL CENTRE,-2.905742,53.376691999999998
7177.1000000000004,OAK VALE MEDICAL CENTRE,-2.899832,53.397239999999996
4120.5299999999997,SEFTON PARK MEDICAL CENTRE,-2.9348429999999999,53.393087999999999
4495.1199999999999,ABERCROMBY FAMILY PRACTICE,-2.9617439999999999,53.399031999999998
3950.3899999999999,BOUSFIELD - ROBERTS,-2.9775749999999999,53.431542
5823.3199999999997,ISLINGTON HOUSE MEDICAL CENTRE,-2.9646050000000002,53.415790999999999
4730.5799999999999,GATEACRE BROW SURGERY,-2.8632,53.383291
2885.3399999999997,GILLMOSS MEDICAL CENTRE,-2.8978489999999999,53.459457999999998
1811.0699999999999,PICTON GREEN,-2.9430160000000001,53.398876000000001
2510.8699999999999,DERBY LANE MEDICAL CENTRE,-2.9142939999999999,53.415917
6057.75,ALBION SURGERY,-2.9646050000000002,53.415790999999999
8668.6800000000003,MERE LANE GROUP PRACTICE,-2.968594,53.425851999999999
765.91000000000008,EDGE HILL HEALTH @ MOSSLEY HILL SURGERY,-2.9114599999999999,53.386833000000003
73.459999999999994,WIDNES WALK IN CENTRE,-2.7357049999999998,53.362158000000001
66.370000000000005,RUNCORN GP EXTRA,-2.7270449999999999,53.331865000000001
2320.1999999999998,KNOTTY ASH MEDICAL CENTRE,-2.88707,53.419961000000001
3544.4899999999998,BROWNLOW HEALTH AT KENSINGTON,-2.9509280000000002,53.407685000000001
1.5,EXTENSIVE CARE SERVICE FYLDE AND WYRE,-2.9503699999999999,53.739559999999997
740.47000000000003,POULTER ROAD MEDICAL CENTRE,-2.952728,53.466681999999999
2519.6700000000001,SPEKE HC - DR SINGH & DR BICHA,-2.8387929999999999,53.340910999999998
5011.4499999999989,STANLEY MEDICAL CENTRE,-2.9825330000000001,53.427266000000003
3293.71,MOSS WAY,-2.8974380000000002,53.457115000000002
1917.52,ROCKY LANE MEDICAL CENTRE,-2.8934229999999999,53.403581000000003
2292.0300000000002,PARK VIEW,-2.9355820000000001,53.421982
3647.9299999999998,THE ROTHBURY PRACTICE,-1.91181,55.309091000000002
14656.059999999999,LINTONVILLE MEDICAL GROUP,-1.5702739999999999,55.183776000000002
15867.190000000002,SEATON PARK MEDICAL GROUP,-1.5611930000000001,55.171194999999997
5960.5100000000002,HALTWHISTLE MEDICAL GROUP,-2.4648400000000001,54.970070999999997
15835.330000000002,WELLWAY MEDICAL GROUP,-1.6897180000000001,55.169477000000001
3871.75,FORUM FAMILY PRACTICE,-1.5915159999999999,55.084480999999997
1799.23,HUMSHAUGH & WARK MED GRP,-2.125343,55.036036000000003
1093.6200000000001,SCOTS GAP MEDICAL GROUP,-1.940563,55.172745999999997
4707.0699999999997,UNION BRAE & NORHAM PRAC,-2.0117780000000001,55.766713000000003
2850,BRANCH END SURGERY,-1.897791,54.947130999999999
1142.9200000000001,FELTON SURGERY,-1.7113,55.298651999999997
7415.869999999999,MAYFIELD MEDICAL GROUP,-1.4964489999999999,54.977880999999996
7519.4500000000007,TRINITY MEDICAL CENTRE,-1.436785,54.987693
6808.4200000000001,ELLISON VIEW SURGERY,-1.5073780000000001,54.973433
3143.0500000000002,STANHOPE PARADE HEALTH CENTRE,-1.431179,54.984988000000001
6478.2799999999997,THE G.P.SUITE,-1.4919770000000001,54.980657000000001
15275.23,DEERNESS PARK MEDICAL GROUP,-1.3727499999999999,54.899942000000003
5175.2600000000002,DR BHATE SURGERY,-1.37324,54.905515999999999
11216.639999999999,DR STEPHENSON & PARTNERS,-1.524864,54.913411000000004
7565.079999999999,FULWELL MEDICAL CENTRE ,-1.3830119999999999,54.930486000000002
6300.8299999999999,ASHBURN MEDICAL CENTRE,-1.3740250000000001,54.895167999999998
6012.9300000000003,WESTBOURNE MEDICAL GROUP,-1.4954639999999999,54.866867999999997
3694.3500000000004,HYLTON MEDICAL GROUP,-1.4141950000000001,54.908603999999997
7440.75,NEW SILKSWORTH MEDICAL PRACTICE,-1.4072169999999999,54.870953999999998
1794.49,PARK LANE PRACTICE,-1.3843780000000001,54.901305000000001
3368.7399999999998,MONKWEARMOUTH HEALTH CENTRE,-1.3816550000000001,54.913134999999997
6472.5100000000002,DR WEATHERHEAD & ASSOCIATES,-1.401824,54.919454999999999
355.31,FARMBOROUGH COURT,-1.453835,54.927796000000001
967.00999999999999,SOUTH TYNESIDE & SUNDERLAND NHS FT SUN,-1.508853,54.984211999999999
112.12,URGENT CARE CENTRE BUNNY HILL OOH,-1.447219,54.926589
42.299999999999997,SUNDERLAND EXTENDED ACCESS SERVICE,-1.531242,54.898814000000002
2818.5,APPLEBY MEDICAL PRACTICE,-2.4929929999999998,54.578082000000002
4599.4400000000005,FUSEHILL MEDICAL PRACTICE,-2.9228700000000001,54.890621000000003
2176.52,DALSTON MEDICAL GROUP,-2.9855420000000001,54.841375999999997
34.969999999999999,SOUTH TYNESIDE & SUNDERLAND NHS FT STY,-1.508853,54.984211999999999
105.40000000000001,SOUTH TYNESIDE ENHANCED PRIMARY CARE,-1.5012760000000001,54.966622999999998
8850.9099999999999,JAMES STREET GROUP PRACT,-3.5502919999999998,54.644831000000003
4883.0299999999997,WESTCROFT HOUSE SURGERY,-3.5285920000000002,54.483145
3762,FELL TOWER MEDICAL CENTRE,-1.5990549999999999,54.935037999999999
5441.9300000000003,ST. ALBANS MEDICAL GROUP,-1.5681240000000001,54.947989999999997
2968.3600000000001,MILLENNIUM FAMILY PRACTICE,-1.6036630000000001,54.962972000000001
4675.9899999999998,CRAWCROOK MEDICAL CENTRE,-1.7875019999999999,54.965705
7.7999999999999998,PALLION PRIMARY CARE SERVICES,-1.4141950000000001,54.908603999999997
7390.25,WHICKHAM COTTAGE MEDICAL CENTRE,-1.6772260000000001,54.94538
3518.7199999999998,BEACON VIEW MEDICAL CENTRE,-1.5842020000000001,54.933064999999999
777.77999999999997,108 RAWLING ROAD(RAWLING ROAD PRACTICE),-1.615084,54.951327999999997
1812.3299999999999,SUNNISIDE SURGERY,-1.675081,54.922936
7310.1899999999987,PROSPECT MEDICAL CENTRE,-1.6461889999999999,54.974184999999999
6076.54,PARK MEDICAL GROUP,-1.64537,55.013928999999997
5147.75,DENTON PARK MEDICAL GROUP,-1.698725,54.993107999999999
4778.8099999999995,THROCKLEY PRIMARY CARE CENTRE,-1.7588539999999999,54.992882000000002
1399.3,REGENT MEDICAL CENTRE,-1.6228039999999999,55.009008000000001
791.90000000000009,BROADWAY MEDICAL CENTRE,-1.6213150000000001,55.016049000000002
6034.1799999999994,NEWBURN SURGERY,-1.743614,54.985644000000001
40.880000000000003,MARIE CURIE HOSPICE,-1.6437090000000001,54.968345999999997
4681.9700000000003,WEST FARM SURGERY,-1.584058,55.012062999999998
4294.3600000000006,LANE END SURGERY,-1.577226,55.008904000000001
2898.8099999999999,SWARLAND AVENUE SURGERY,-1.5786290000000001,55.006365000000002
13048.290000000001,COLLINGWOOD SURGERY,-1.456596,55.011192999999999
6559.8900000000012,PRIORY MEDICAL GROUP,-1.4501230000000001,55.010030999999998
7909.6499999999996,BEWICKE MEDICAL CENTRE,-1.4997469999999999,54.996631000000001
8343.6599999999999,THE VILLAGE GREEN SURGERY,-1.5292779999999999,54.996308999999997
2526.9700000000003,THE WILLERBY SURGERY,-0.44727099999999997,53.758380000000002
6362.3499999999995,THE SNAITH AND RAWCLIFFE MEDICAL GROUP,-1.0244139999999999,53.689286000000003
7259.5300000000007,LEVEN & BEEFORD MEDICAL PRACTICE,-0.312863,53.890915
9973.6299999999992,THE PARK SURGERY,-0.43937900000000002,54.009290999999997
4821.7399999999998,GILBERDYKE HEALTH CENTRE,-0.73166699999999996,53.754517999999997
132.45000000000002,UC24 - LIVERPOOL EXTENDED ACCESS SERVICE,-2.9299550000000001,53.404119999999999
15095.000000000002,THE RIDINGS MEDICAL GROUP,-0.62206600000000001,53.765217999999997
15192.43,DR THORNTON & PARTNERS,-0.87547900000000001,53.714838999999998
2900.23,DR AC MILNER,-0.43433500000000003,53.748494999999998
1641.1500000000001,PARK VIEW SURGERY,-0.43583300000000003,53.729790000000001
2915.6000000000004,STAITHES SURGERY,-0.79411299999999996,54.553165
4121.5100000000002,THIRSK DOCTORS SURGERY,-1.342786,54.230936
1254.51,REETH MEDICAL CENTRE,-1.94543,54.387708000000003
4388.8999999999996,NORTH HOUSE SURGERY,-1.524,54.139046
4399,RIPON SPA SURGERY,-1.5270790000000001,54.136164000000001
2414.5100000000002,KINGSWOOD SURGERY,-1.5170509999999999,53.991495
2416.5900000000001,SPRINGBANK SURGERY,-1.299166,54.004036999999997
4945.8400000000001,CHURCH AVENUE MEDICAL GROUP,-1.535757,54.006020999999997
1904.21,PARK PARADE SURGERY,-1.529793,53.996353999999997
2325.9699999999998,CHP LTD - BRANSHOLME,-0.32135999999999998,53.787407999999999
27508.189999999999,EAST HULL FAMILY PRACTICE,-0.30839100000000003,53.755107000000002
19234.18,DR JAD WEIR & PARTNERS,-0.26598899999999998,53.755985000000003
12472.27,THE BRIDGE GROUP PRACTICE,-0.37575900000000001,53.787554999999998
3317.6700000000001,HASTINGS MEDICAL CENTRE,-0.39342700000000003,53.749841000000004
1664.6799999999998,DELTA HEALTHCARE,-0.29283500000000001,53.764280999999997
4299.2700000000004,GOODHEART SURGERY,-0.32135999999999998,53.787407999999999
2839.27,LAURBEL SURGERY,-0.257019,53.778463000000002
1791.1300000000001,DR KV GOPAL'S PRACTICE,-0.32135999999999998,53.787407999999999
4184.1100000000006,NORTHPOINT,-0.32135999999999998,53.787407999999999
6813.1000000000013,BEACON MEDICAL,-0.037662000000000001,53.557000000000002
3402.1799999999998,THE CHANTRY HEALTH GROUP,-0.091675000000000006,53.563205000000004
5840.2700000000004,SCARTHO MEDICAL CENTRE,-0.094601000000000005,53.536399000000003
3171.5799999999999,THE LYNTON PRACTICE,-0.034731999999999999,53.548563999999999
4790.5600000000004,WOODFORD MEDICAL PRACTICE,-0.112579,53.564436000000001
7663.7799999999997,BIRKWOOD MEDICAL CENTRE,-0.10520699999999999,53.557414999999999
2180.4899999999998,BISWAS B,-0.047232999999999997,53.568511000000001
587.88,HEALING PARTNERSHIP,-0.17186399999999999,53.577708000000001
14374.700000000001,ANCORA MEDICAL PRACTICE,-0.65528699999999995,53.570914000000002
7558.3999999999996,SOUTH AXHOLME PRACTICE,-0.82222499999999998,53.526186000000003
3755.73,BRIDGE STREET SURGERY,-0.49512099999999998,53.551684000000002
3768.3599999999997,THE OSWALD ROAD MEDICAL SURGERY,-0.65339999999999998,53.588137000000003
5885.7399999999998,THE KIRTON LINDSEY AND SCOTTER SURGERY,-0.59407299999999996,53.474088999999999
6739.3900000000003,RIVERSIDE SURGERY,-0.49182300000000001,53.553584000000001
1278.73,BARNETBY MEDICAL CENTRE,-0.40358500000000003,53.574129999999997
2194.9799999999996,WEST TOWN SURGERY,-0.44386199999999998,53.685751000000003
540.73000000000002,CHCP - URGENT CARE OOH,-0.37332399999999999,53.729806000000004
1727.71,AMPLEFORTH SURGERY,-1.104697,54.200350999999998
2485.04,ESCRICK SURGERY,-1.047722,53.879893000000003
3837.5500000000002,DALTON TERRACE SURGERY,-1.096902,53.952258
150,GLENRIDDING HEALTH CENTRE,-2.951273,54.544383000000003
3574.7600000000002,SHERBURN GROUP PRACTICE,-1.253519,53.798594000000001
9536.0900000000001,BEECH TREE SURGERY,-1.08053,53.774940000000001
1896.5599999999999,TOLLERTON SURGERY,-1.2145090000000001,54.071092999999998
1405.3300000000002,HELMSLEY SURGERY,-1.0564180000000001,54.249239000000003
7046.7100000000009,MY HEALTH GROUP,-1.0346569999999999,54.038966000000002
19510.220000000001,YORK MEDICAL GROUP,-1.119408,53.955920999999996
5855.8099999999995,SCOTT ROAD MEDICAL CENTRE,-1.07483,53.785052999999998
4687.3099999999995,GOLDTHORPE MEDICAL CENTRE PMS PRACTICE,-1.310932,53.528120000000001
10856.309999999999,THE DOVE VALLEY PMS PRACTICE,-1.46034,53.529021
6209.9399999999996,THE ROSE TREE PMS PRACTICE,-1.416417,53.578187
8819.8199999999997,HOYLAND MEDICAL PRACTICE,-1.4377200000000001,53.499820999999997
7299.5399999999991,WOMBWELL MEDICAL CENTRE  PRACTICE,-1.3989199999999999,53.521897000000003
5700.7199999999993,VICTORIA MEDICAL CENTRE PMS PRACTICE,-1.4908269999999999,53.556704000000003
2280.6999999999998,DARTON HEALTH CENTRE PRACTICE,-1.5300990000000001,53.586084999999997
4440.5499999999993,ST GEORGE'S MEDICAL CENTRE PMS PRACTICE,-1.4828250000000001,53.579059999999998
1491.26,MONK BRETTON HEALTH CENTRE PRACTICE,-1.4518880000000001,53.566608000000002
8792.25,DEARNE VALLEY GROUP PRACTICE,-1.3098939999999999,53.546377
24117.860000000001,LARWOOD SURGERY,-1.106149,53.319032
11096.699999999999,RIVERSIDE HEALTH CENTRE,-0.94331900000000002,53.324334999999998
1922.4400000000001,NORTH LEVERTON SURGERY,-0.822245,53.332037999999997
20164.059999999998,GREAT NORTH MEDICAL GROUP,-1.1860189999999999,53.583323999999998
5291.1700000000001,THE RANSOME PRACTICE,-1.1484970000000001,53.551017999999999
6288.3099999999995,THE ROSSINGTON PRACTICE,-1.075072,53.475938999999997
5958.4200000000001,KINGTHORNE GROUP PRACTICE,-1.123235,53.525936999999999
54.579999999999998,INTERMEDIATE CARE SERVICE,-0.37332399999999999,53.729806000000004
7326.4599999999991,ST.JOHNS GROUP PRACTICE,-1.151942,53.507052000000002
5948.1599999999999,BENTLEY SURGERY,-1.1467860000000001,53.546053000000001
4967.6199999999999,FRANCES STREET MEDICAL CENTRE,-1.1304099999999999,53.524011999999999
6719,THE NEW SURGERY,-1.2810859999999999,53.494641999999999
3660.1199999999999,DUNSVILLE MEDICAL CENTRE,-1.02783,53.562539000000001
1246.79,PARK VIEW SURGERY,-1.161562,53.521574000000001
9.3000000000000007,EXTENDED ACCESS PCD THORNE MOOR PRACTICE,-0.96634799999999998,53.613647999999998
13855.170000000002,DINNINGTON GROUP PRACTICE,-1.207322,53.369571999999998
781.82000000000005,KINGSWELL SURGERY  PMS PRACTICE,-1.6281939999999999,53.525776999999998
14228.249999999998,THE MAGNA GROUP PRACTICE,-1.307088,53.476959999999998
4713.21,WICKERSLEY HEALTH CENTRE,-1.279671,53.422308999999998
5540.46,MORTHEN ROAD SURGERY,-1.280737,53.420687999999998
2839.1599999999999,THORPE HESLEY SURGERY,-1.4326019999999999,53.458646999999999
2338.6000000000004,SHAKESPEARE ROAD SURGERY,-1.3414980000000001,53.439160000000001
8075.8900000000003,CHAPELGREEN PRACTICE,-1.4790410000000001,53.459173
2852.3599999999997,BUCHANAN ROAD SURGERY,-1.4709970000000001,53.422894999999997
6643.6300000000001,NORWOOD MEDICAL CENTRE,-1.46987,53.413102000000002
3805.5099999999993,CARTERKNOWLE & DORE MEDICAL PRACTICE,-1.4887280000000001,53.353453999999999
5740.2900000000009,WHITE HOUSE SURGERY,-1.4208590000000001,53.368487999999999
3756.3199999999997,FAR LANE MEDICAL CENTRE,-1.507692,53.409334999999999
5144.8900000000003,UPPERTHORPE MEDICAL CENTRE,-1.4868189999999999,53.389904000000001
3522.7299999999996,THE MATHEWS PRACTICE BELGRAVE,-1.4718150000000001,53.366593999999999
2940.7400000000002,WOODSEATS MEDICAL CENTRE,-1.4802679999999999,53.339962
3789.1300000000001,ELM LANE SURGERY,-1.4605250000000001,53.421626000000003
44.57,NEWCASTLE HOSPITALS COMMUNITY HEALTH,-1.5933919999999999,55.002783000000001
2081.1800000000003,PAGE HALL MEDICAL CENTRE,-1.447214,53.407238
3624.6999999999998,GRENOSIDE SURGERY,-1.496578,53.438313000000001
767.15999999999997,RUSTLINGS ROAD MEDICAL CENTRE,-1.5116270000000001,53.367742999999997
6371.5999999999995,CLOVER GROUP PRACTICE,-1.4088499999999999,53.384842999999996
2762.1999999999998,DEVONSHIRE GREEN MEDICAL CENTRE,-1.4775929999999999,53.379508999999999
2169.3099999999999,DARNALL HEALTH CENTRE (MEHROTRA),-1.4103969999999999,53.388202999999997
4767.7200000000003,RICHMOND MEDICAL CENTRE,-1.408504,53.360957999999997
5714.1600000000008,HACKENTHORPE MEDICAL CENTRE,-1.37435,53.345556999999999
2688.3900000000003,OWLTHORPE MEDICAL CENTRE,-1.3758619999999999,53.33869
1865.6700000000001,STANNINGTON MEDICAL CENTRE,-1.546538,53.393247000000002
283.35000000000002,SHEFFIELD CITY GP HC (WIC),-1.4771319999999999,53.382841999999997
827.25,ILKLEY & WHARFEDALE MEDICAL PRACTICE,-1.8148010000000001,53.923304999999999
10066.030000000001,FARFIELD GROUP PRACTICE,-1.9137919999999999,53.866151000000002
994.56000000000006,ADDINGHAM SURGERY,-1.8814230000000001,53.943683
8658.590000000002,SUNNYBANK MEDICAL CENTRE,-1.767997,53.737918999999998
16.5,IMPROVED ACCESS,-0.73166699999999996,53.754517999999997
6527.8199999999997,WINDHILL GREEN MEDICAL CENTRE,-1.7649250000000001,53.835411999999998
6346.0099999999993,ASHCROFT SURGERY,-1.7121310000000001,53.823092000000003
42.179999999999993,NORTH SATELLITE UNIT,-1.487911,53.421720000000001
2827.0500000000002,THE SPRINGFIELD SURGERY (BINGLEY),-1.8278289999999999,53.846936999999997
4329.6999999999998,RYDINGS HALL SURGERY,-1.7825489999999999,53.703063999999998
3565.6999999999998,ROSEGARTH SURGERY,-1.871551,53.714894999999999
5636.1199999999999,DR CHIN AND PARTNERS,-1.808848,53.725938999999997
2392.6300000000001,RASTRICK HEALTH CENTRE,-1.7921769999999999,53.688817
4852.7600000000002,LISTER LANE SURGERY,-1.865496,53.722572999999997
7839.1500000000005,BEECHWOOD MEDICAL CENTRE,-1.881168,53.743243999999997
6,PGPA IMPROVED ACCESS SOUTH,-1.9104159999999999,53.707155
171.49000000000001,BRADFORD STUDENT HEALTH SERVICE,-1.768359,53.785322999999998
978.89999999999998,DR LOCAL CARE DIRECT OOH,-1.7624569999999999,53.680157000000001
9335.1100000000006,KENSINGTON PARTNERSHIP,-1.7855350000000001,53.801110999999999
1935.7100000000003,THE AVICENNA MEDICAL PRACTICE,-1.721849,53.797834000000002
950.15999999999997,THE LISTER SURGERY,-1.77624,53.807296000000001
2291.8299999999999,DR IA GILKAR & PARTNERS,-1.7855350000000001,53.801110999999999
1205.6500000000001,FRIZINGHALL MEDICAL CENTRE,-1.7735970000000001,53.818857999999999
2540.71,SHEPLEY HEALTH CENTRE,-1.7121999999999999,53.585726999999999
4391.3599999999997,THE LINDLEY GROUP PRACT.,-1.817448,53.654307000000003
9581.2800000000007,THE GRANGE GROUP PRACTICE,-1.7813509999999999,53.662292000000001
1486.1699999999998,THE LINDLEY VILLAGE SURG.,-1.8257099999999999,53.661330999999997
1929.3099999999999,WOODHOUSE HILL SURGERY,-1.7709760000000001,53.666685000000001
1431.3400000000001,GREENHEAD FAMILY DOCTORS,-1.792009,53.649462999999997
448.99000000000007,UNIVERSITY HEALTH CENTRE,-1.775547,53.643836999999998
2218.8000000000002,DR HANDA  & PARTNER,-1.7768820000000001,53.663209000000002
1299.03,MARSH SURGERY,-1.8040240000000001,53.651743000000003
1389.1500000000001,THE NOOK AND CLIFTON GROUP,-1.8435520000000001,53.657086
3496.0100000000002,CALDER VIEW SURGERY,-1.634884,53.689743999999997
72.260000000000005,EXTENDED ACCESS SERVICE,-0.37332399999999999,53.729806000000004
5116.1400000000003,GROVE HOUSE SURGERY,-1.62477,53.711742999999998
7942.8400000000001,DOCTOR LANE HEALTH CENTRE,-1.6967220000000001,53.675714999999997
4709.5200000000004,EIGHTLANDS SURGERY,-1.634884,53.689743999999997
4648.3100000000004,THE GREENWAY MEDICAL PRACTICE,-1.7131639999999999,53.722206999999997
3142.6500000000001,HEALDS ROAD SURGERY,-1.651637,53.700113000000002
3020.8699999999999,CHERRY TREE SURGERY,-1.6366369999999999,53.714745999999998
353.51999999999998,LOCALA SOUTH CM,-1.626822,53.710923000000001
4.5,NL EXTENDED ACCESS,-0.64723200000000003,53.568261
8769.3700000000008,RIVERSIDE MEDICAL CENTRE,-1.3580179999999999,53.727986000000001
10421.52,DR SP SINGH AND PARTNERS,-1.309879,53.589945
7963.8099999999995,NORTHGATE,-1.309437,53.693964999999999
7108.2200000000012,ST THOMAS ROAD SURGERY,-1.355934,53.674889999999998
10115.169999999998,FRIARWOOD SURGERY,-1.3072010000000001,53.688271
11069.889999999999,TRINITY MEDICAL CENTRE,-1.4948379999999999,53.679941999999997
6966.0799999999999,HENRY MOORE CLINIC,-1.3544940000000001,53.720793999999998
5251.7200000000003,HOMESTEAD,-1.5187470000000001,53.682270000000003
6859.6900000000005,NEW SOUTHGATE SURGERY,-1.5041500000000001,53.692762000000002
195.88,SOUTH YORK RESPIRATORY NURSES,-1.0829070000000001,53.951836999999998
3884.04,DR DP DIGGLE & DR RE PHILLIPS,-1.309879,53.589945
9802.1700000000001,KING'S MEDICAL PRACTICE,-1.419613,53.700642999999999
5778.04,PROSPECT SURGERY,-1.5833429999999999,53.681522999999999
1760.8099999999999,PARK VIEW SURGERY,-1.421662,53.698109000000002
1365.96,PATIENCE LANE SURGERY,-1.4336869999999999,53.703802000000003
3200.3299999999999,HIGHFIELD SURGERY,-1.607718,53.855739999999997
3906.9300000000003,MANSTON SURGERY,-1.450915,53.803865000000002
6719.1599999999999,PRIORY VIEW MEDICAL CENTRE,-1.5751489999999999,53.791634999999999
2541.0299999999997,WESTGATE SURGERY,-1.6991609999999999,53.904781
6572.46,THE WHITFIELD PRACTICE,-1.5265089999999999,53.779893999999999
5338.6800000000003,EAST PARK MEDICAL CENTRE,-1.5149440000000001,53.793168000000001
2863.6399999999999,WOODHOUSE MEDICAL PRACTICE,-1.547539,53.812627999999997
9285.75,WEST LODGE SURGERY,-1.690609,53.826124
7106.3600000000006,AIRE VALLEY SURGERY,-1.6848810000000001,53.866663000000003
3647.0499999999997,ASHFIELD MEDICAL CENTRE,-1.4493450000000001,53.807454
887.95000000000005,HAREHILLS CORNER SURGERY,-1.518815,53.815689999999996
3903.7199999999993,THE STREET LANE PRACTICE,-1.513393,53.843234000000002
3667.3699999999999,BURLEY PARK MEDICAL CENTRE,-1.5797559999999999,53.807541999999998
8660.9899999999998,BELLBROOKE SURGERY,-1.506516,53.808917000000001
3270.5199999999995,PARK EDGE PRACTICE,-1.4830410000000001,53.825209999999998
1471.1599999999999,ST MARTINS PRACTICE,-1.5321400000000001,53.822114999999997
2951.8499999999999,DR A KHAN & K MUNEER,-1.5265089999999999,53.779893999999999
1128,OAKWOOD SURGERY,-1.5071730000000001,53.82676
2192.6100000000001,HAWTHORN SURGERY,-1.6011169999999999,53.782448000000002
189.25999999999999,COMMUNITY RESPIRATORY SERVICE,-1.5261990000000001,53.811432000000003
3689.2300000000005,REVEL SURGERY,-1.361421,52.412280000000003
2929.6400000000003,BENNFIELD SURGERY,-1.2654609999999999,52.371760000000002
5072.3900000000003,WILLENHALL  PRIMARY CARE CENTRE - 1,-1.459978,52.387714000000003
1795.5,HILLFIELDS HEALTH CENTRE - 1,-1.508005,52.413401
2710.0599999999999,JUBILEE HEALTHCARE,-1.5188839999999999,52.403422999999997
4948.3000000000002,THE GABLES MEDICENTRE,-1.5082880000000001,52.440911999999997
5118.1399999999994,FORREST MEDICAL CENTRE,-1.5594380000000001,52.394599999999997
4242.0500000000002,WOOD END HEALTH CENTRE,-1.464197,52.435642999999999
2545.9900000000002,SPRINGFIELD MEDICAL PRACTICE,-1.531085,52.437994000000003
1984.5,KENSINGTON ROAD SURGERY,-1.5324009999999999,52.402569999999997
5952.8399999999992,WOODSIDE MEDICAL CENTRE,-1.5792740000000001,52.407214000000003
1557.79,ALLESLEY VILLAGE SURGERY,-1.568432,52.424695999999997
984.38,LIMBRICK WOOD SURGERY,-1.5785579999999999,52.406832999999999
400.62,GEORGE ELIOT MEDICAL CENTRE,-1.506534,52.419528
641.99000000000001,CITY OF COVENTRY HEALTH CENTRE,-1.508005,52.413401
3081.2800000000002,WOODWAY MEDICAL CENTRE,-1.444418,52.437564999999999
1446.4499999999998,BROAD LANE SURGERY,-1.582328,52.412303999999999
711.87,MALLING HEALTH AT FOLESHILL,-1.50223,52.430909
52.060000000000002,SLOAN SATELLITE UNIT,-1.4764109999999999,53.358255
3504.8800000000001,ST.KATHERINES SURGERY,-2.4257460000000002,52.036302999999997
6268.7600000000002,THE MORTIMER MEDICAL PRAC,-2.8151540000000002,52.249803999999997
4368.21,PENDEEN SURGERY,-2.5843389999999999,51.910919999999997
3503.71,CHAPEL END SURGERY,-1.5163180000000001,52.537230000000001
11770.300000000001,BEDWORTH HEALTH CENTRE,-1.4726570000000001,52.478625999999998
10879.259999999998,THE ATHERSTONE SURGERY,-1.542368,52.578488999999998
4881.5,HAZELWOOD GROUP PRACTICE,-1.706804,52.496958999999997
1806.1300000000001,STATION STREET SURGERY,-1.548378,52.576642
2118.27,RUGBY ROAD SURGERY,-1.4193519999999999,52.476714000000001
1454.8800000000001,THE OLD COLE HOUSE PRACTICE,-1.4750430000000001,52.477262000000003
6709.0299999999997,ST STEPHENS SURGERY,-1.943289,52.307640999999997
5532.2000000000007,THE DOW SURGERY,-1.942439,52.307425000000002
3788.9299999999998,HOLLYWOOD MEDICAL CENTRE,-1.8821540000000001,52.389572000000001
2112.73,FENNY COMPTON SURGERY,-1.390136,52.168557999999997
3837.4000000000001,AVONSIDE HEALTH CENTRE,-1.561177,52.289085
3668.1400000000003,CASTLE MEDICAL CENTRE,-1.575817,52.34151
7534.25,CROFT MEDICAL CENTRE,-1.511374,52.278398000000003
4235.96,ROTHER HOUSE MEDICAL CENTRE,-1.713746,52.193728
3197.0999999999999,HENLEY-IN-ARDEN MED CTR,-1.7787170000000001,52.290666999999999
3559.1899999999996,ABBEY MEDICAL CENTRE,-1.5774619999999999,52.342962999999997
7140.4400000000005,TRINITY COURT SURGERY,-1.71272,52.194836000000002
1374.4499999999998,SPA MEDICAL CENTRE,-1.5252779999999999,52.284514000000001
1638.8000000000002,WARWICK GATES FAM.HTH.CTR,-1.5386899999999999,52.268666000000003
6980.8799999999992,SPRING GARDENS GROUP MEDICAL PRACTICE,-2.2163710000000001,52.191664000000003
4613.1700000000001,SPA MEDICAL PRACTICE,-2.1534930000000001,52.266877000000001
6569.6700000000001,PERSHORE MEDICAL PRACTICE,-2.0777749999999999,52.114043000000002
7940.4499999999998,MALVERN HEALTH CENTRE,-2.3087800000000001,52.113537999999998
10436.330000000002,KIDDERMINSTER MEDICAL CENTRE,-2.2464840000000001,52.389054000000002
6409.0599999999995,YORK HOUSE MEDICAL CTR.,-2.2804380000000002,52.339069000000002
9244.9700000000012,THE CHURCH STREET PRACTICE,-2.2510690000000002,52.389035999999997
1.5,COMMUNITY NON MEDICAL PRESCRIBING,-1.5832029999999999,52.289965000000002
5863.9000000000005,THE RIDGEWAY SURGERY,-2.1208619999999998,52.535809
4129.2700000000004,KINGSWINFORD MEDICAL PRACTICE,-2.1603180000000002,52.498179999999998
10423.609999999999,AW SURGERIES,-2.1224319999999999,52.482312999999998
5329.1200000000008,THE GREENS HEALTH CENTRE,-2.0991749999999998,52.529004999999998
3418.4099999999999,NETHERTON HEALTH CENTRE,-2.079024,52.487972999999997
3714.4899999999998,RANGEWAYS ROAD SURGERY,-2.149734,52.487288999999997
3999.6099999999997,KEELINGE HOUSE,-2.1078920000000001,52.501398999999999
1635.55,CENTRAL CLINIC,-2.0757750000000001,52.507976999999997
748.62000000000012,QUINCY RISE SURGERY,-2.1295440000000001,52.467435999999999
1342.79,CASTLE MEADOWS SURGERY,-2.1183689999999999,52.515734000000002
1973.6199999999999,BATH STREET MEDICAL CENTRE,-2.1130360000000001,52.544983000000002
3267.8899999999999,LAURIE PIKE HEALTH CENTRE,-1.8991420000000001,52.505172000000002
76,CITY ROAD MEDICAL CENTRE,-1.9422010000000001,52.485557999999997
1483.46,HOCKLEY MEDICAL PRACTICE,-1.9153789999999999,52.485979
374.27000000000004,HOLLY ROAD SURGERY,-1.9202239999999999,52.505412999999997
57.600000000000001,BRADFORD EXTENDED ACCESS,-1.7798590000000001,53.780909999999999
4314.6899999999996,THE SMETHWICK MEDICAL CENTRE,-1.968127,52.494880999999999
7938.7799999999997,BLACK COUNTRY FAMILY PRACTICE,-2.0711819999999999,52.528846000000001
3283.8000000000002,CRANKHALL LANE MEDICAL CENTRE,-1.9964459999999999,52.552833999999997
2418.5200000000004,PORTWAY FAMILY PRACTICE,-2.0300940000000001,52.497695999999998
8183.0500000000011,LINKWAY MEDICAL PRACTICE,-1.9979819999999999,52.516002999999998
1132.3400000000001,SAREPHED MEDICAL CENTRE,-1.9703980000000001,52.490305999999997
2993.3100000000004,GLEBEFIELDS SURGERY,-2.0529030000000001,52.540587000000002
1133.52,DR UI HAQUE N,-1.984396,52.512729999999998
954.18000000000006,DR DEWAN VK,-1.9979819999999999,52.516002999999998
1828.3800000000001,BROADWAY HEALTH CENTRE,-1.9240930000000001,52.482796999999998
411.40999999999997,PARSONAGE STREET WIC,-1.9875149999999999,52.530862999999997
532.66999999999996,HEATH STREET HEALTH CENTRE,-1.9373530000000001,52.487685999999997
4382.1700000000001,PORTLAND MEDICAL PRACTICE,-1.9211990000000001,52.602513000000002
5534.7299999999996,LICHFIELD ST SURGERY,-1.9778910000000001,52.587156
4113.0900000000001,LOCKSTOWN PRACTICE,-2.0571350000000002,52.585445
3955.5699999999997,MOSSLEY & DUDLEY FIELDS MEDICAL PRACTICE,-2.0162650000000002,52.621326000000003
2463.6999999999998,ST MARY'S SURGERY,-2.0007990000000002,52.613174000000001
2077.4299999999998,BROADWAY MEDICAL CENTRE,-1.977295,52.567611999999997
1259.45,BIRCHILLS HEALTH CENTRE,-1.9954099999999999,52.591121999999999
1359.5900000000001,BLACKWOOD HEALTH CENTRE,-1.8916649999999999,52.580060000000003
8510.0799999999981,PINFOLD MEDICAL,-2.0007990000000002,52.613174000000001
302.27000000000004,WALDOC LTD OOH,-2.0052590000000001,52.614172000000003
10099.129999999999,HARDEN BLAKENALL,-1.987663,52.614941999999999
2312.9100000000003,COALWAY ROAD MEDICAL PRACTICE,-2.1564809999999999,52.569146000000003
9513.5200000000004,PRESTBURY MEDICAL PRACTICE,-2.0927509999999998,52.607429000000003
4408.5,WODEN ROAD SURGERY,-2.1100370000000002,52.593317999999996
2187.6100000000001,DRS RAJCHOLAN & GEORGE,-2.057836,52.613672000000001
336.07000000000005,PARKFIELD MEDICAL CENTRE,-2.1170680000000002,52.567042999999998
3111.0100000000002,DR ST PIERRE-LIBBERTON,-2.1004960000000001,52.610551000000001
2313.5,DR SHARMA,-2.0771769999999998,52.568441999999997
721.31999999999994,TETTENHALL ROAD MEDICAL PRACTICE,-2.1536409999999999,52.592281
5396.5900000000001,BAGARY'S MEDICAL PRACTICE,-2.1145160000000001,52.609160000000003
5071.6300000000001,BILSTON URBAN VILLAGE MEDICAL CENTRE,-2.0760260000000001,52.562705000000001
2555.1099999999997,THE PARK MEDICAL CENTRE,-1.8484179999999999,52.466335999999998
2312.8899999999999,THE POOLWAY MEDICAL CENTRE,-1.7956350000000001,52.485306000000001
4666.0599999999995,THE SWAN MEDICAL CENTRE,-1.817596,52.462578999999998
1505.1399999999999,KINGSBURY ROAD MEDICAL CENTRE,-1.838716,52.515318000000001
4655.2599999999993,HILLCREST SURGERY,-1.8647530000000001,52.544631000000003
5608.7699999999995,MILLENNIUM MEDICAL CENTRE,-1.966947,52.437632999999998
2659.8400000000001,BATH ROW MEDICAL PRACTICE,-1.908471,52.472642
5696.7200000000003,ASHFIELD SURGERY,-1.7999039999999999,52.540709
3877.25,LEACH HEATH MEDICAL CENTRE,-2.0130050000000002,52.392138000000003
9297.6700000000001,LORDSWOOD HOUSE GROUP MEDICAL PRACTICE,-1.9612210000000001,52.459054000000002
8851.3199999999997,ST HELIERS MEDICAL PRACTICE,-1.975786,52.412759999999999
7664.6899999999996,THE HARLEQUIN SURGERY,-1.7778830000000001,52.495370000000001
3123.4799999999996,WOODGATE VALLEY HEALTH CENTRE,-1.9914229999999999,52.442663000000003
1653.3600000000001,SELLY PARK SURGERY,-1.9164350000000001,52.444045000000003
1226.47,FIRSTCARE PRACTICE,-1.8879429999999999,52.457394999999998
2108.23,THE ST.CLEMENTS SURGERY,-1.8672949999999999,52.498559999999998
5790.71,RESERVOIR ROAD SURGERY,-1.857329,52.523882
4747.1999999999998,NORTHWOOD MEDICAL CENTRE,-1.932971,52.415484999999997
2522.54,THE WAND MEDICAL CENTRE,-1.888682,52.464187000000003
8048.2099999999991,COLLEGE ROAD SURGERY (KS),-1.8742129999999999,52.536766
4164.3999999999996,KARIS MEDICAL CENTRE,-1.931659,52.474620999999999
4259.3299999999999,GOODREST CROFT SURGERY,-1.8680460000000001,52.414935999999997
2712.8699999999999,SMALL HEATH MEDICAL PRACTICE,-1.861882,52.472555
2503.9299999999998,FERNLEY MEDICAL CENTRE,-1.8645670000000001,52.451602999999999
4469.1199999999999,BARTLEY GREEN MEDICAL PRACTICE,-2.0030450000000002,52.436235000000003
4977.5299999999997,DRUIDS HEATH SURGERY,-1.8987890000000001,52.405307000000001
582.54999999999995,THE KHATTAK MEMORIAL SURGERY,-1.8614029999999999,52.465722
2995.9900000000002,BG HEALTH,-1.9589220000000001,52.414436000000002
583.81999999999994,UNIVERSITY MEDICAL PRACTICE,-1.9379869999999999,52.455843999999999
2975.8099999999999,PERRY PARK SURGERY,-1.9043570000000001,52.525683000000001
1450.3099999999999,CAVENDISH MEDICAL PRACTICE,-1.9373530000000001,52.487685999999997
776.22000000000003,BOURNVILLE SURGERY,-1.933138,52.431128000000001
1225.2,GARRETTS GREEN LANE SURGERY,-1.788691,52.468446999999998
1043.97,HIGHGATE MEDICAL CENTRE,-1.8874599999999999,52.464365000000001
831.21000000000004,NASEBY MEDICAL CENTRE,-1.8449530000000001,52.489175000000003
1576.1300000000001,MOOR GREEN LANE MED.CTR.,-1.910533,52.438178999999998
4556.8999999999996,MIRFIELD SURGERY,-1.776956,52.469071999999997
1363,BALSALL HEATH HEALTH CENTRE (S),-1.8879429999999999,52.457394999999998
1063.6599999999999,STRENSHAM ROAD SURGERY,-1.892563,52.453842999999999
5653.8600000000006,CAPE HILL MEDICAL CENTRE,-1.954259,52.488404000000003
491.42000000000002,COLLEGE ROAD SURGERY,-1.8652869999999999,52.442182000000003
2149.5,PARKFIELD MEDICAL CENTRE,-1.7758240000000001,52.509264000000002
3748.29,ST.MARGARETS MEDICAL PRACTICE,-1.806468,52.437871999999999
7259.0599999999995,MANOR HOUSE LANE SURGERY,-1.8027070000000001,52.461306
5174.79,NORTHBROOK HEALTH CENTRE,-1.8212729999999999,52.419657000000001
6688.3599999999997,GREEN LANE SURGERY,-1.7486790000000001,52.503867
70.090000000000003,BADGER OUT OF HOURS SERVICE,-1.774365,52.417122999999997
1087.1800000000001,AMAANAH MEDICAL PRACTICE,-1.8519570000000001,52.490837999999997
202.09999999999999,URGENT CARE CENTRE,-1.8778980000000001,52.542091999999997
8490.8899999999994,IRIDIUM MEDICAL PRACTICE  RICHMOND PCC,-1.817518,52.478023999999998
1229.0999999999999,THE HILL GP PRACTICE,-1.8586450000000001,52.444555999999999
4.5,SOLIHEALTH KNOWLE HUB,-1.7384550000000001,52.390618000000003
12.510000000000002,DUDLEY COMMUNITY SERVICES,-2.1185179999999999,52.502943999999999
836.99000000000001,VICARAGE ROAD SURGERY,-1.9066860000000001,52.427594999999997
490.88999999999999,SPRINGFIELD MEDICAL PRACT,-1.859629,52.444952999999998
8491.9200000000001,WILLOWBROOK MEDICAL PRACTICE,-1.2673369999999999,53.122838999999999
3981.2299999999996,KING'S MEDICAL CENTRE,-1.2634559999999999,53.123443999999999
3567.4099999999999,ASHFIELD HOUSE (ANNESLEY),-1.2560469999999999,53.076509999999999
5961.3999999999996,ROUNDWOOD SURGERY,-1.2005049999999999,53.147336000000003
4715.71,SKEGBY FAMILY MEDICAL CENTRE,-1.273344,53.142336999999998
1826.1599999999999,JACKSDALE MEDICAL CENTRE,-1.3365659999999999,53.058872999999998
4576.0200000000004,MEDEN MEDICAL SERVICES,-1.1526289999999999,53.207242999999998
1453.9900000000002,HP NMP'S M & A CCG,-1.1431009999999999,53.130243999999998
4132.3199999999997,COLLINGHAM MEDICAL CENTRE,-0.76043700000000003,53.145702999999997
3870.7300000000005,SOUTHWELL MEDICAL CENTRE,-0.95551600000000003,53.081328999999997
8272.6299999999992,SHERWOOD MEDICAL PARTNERSHIP,-1.1378779999999999,53.157488000000001
5281.0799999999999,ST ALBANS MEDICAL CENTRE,-1.1930369999999999,53.007114999999999
3749.1600000000003,ELMSWOOD SURGERY,-1.1415930000000001,52.983750999999998
6624.3499999999985,RIVERGREEN MEDICAL CENTRE,-1.175662,52.906008
1389.72,RADFORD MEDICAL PRACTICE (KAUR),-1.167635,52.956339
2620.8899999999999,QUEENS BOWER SURGERY,-1.1507769999999999,53.005355999999999
2398.5,MEADOWS HEALTH CENTRE (LARNER),-1.147343,52.943573999999998
2573.9499999999998,RHR MEDICAL CENTRE,-1.2255020000000001,52.978501999999999
4932.2299999999996,THE WINDMILL PRACTICE,-1.1347499999999999,52.951951000000001
2428.6300000000001,HIGHGREEN PRACTICE (KHAN),-1.171945,52.964494999999999
2150.77,THE ALICE MEDICAL CENTRE,-1.162245,52.994892999999998
4986.380000000001,GRANGE FARM MEDICAL CENTRE,-1.235252,52.960227000000003
7327.0100000000002,TRENTSIDE MEDICAL GROUP,-1.0746290000000001,52.964658999999997
6382.8000000000002,STENHOUSE MEDICAL CENTRE,-1.1302110000000001,53.005324000000002
4993.4299999999994,THE CALVERTON PRACTICE,-1.081907,53.037134000000002
3927.29,DAYBROOK MEDICAL PRACTICE,-1.1401380000000001,53.001513000000003
1440.3699999999999,PLAINS VIEW SURGERY,-1.119038,52.986130000000003
2035.4099999999999,WEST OAK SURGERY,-1.1076459999999999,52.981614
8443.8499999999985,BELVOIR HEALTH GROUP,-0.95465500000000003,52.952913000000002
1894.9300000000001,EAST BRIDGFORD MED CENTRE,-0.95757599999999998,52.978633000000002
1735.48,THE RUDDINGTON MED CENTRE,-1.1513659999999999,52.891589000000003
1667.3100000000002,MUSTERS MEDICAL PRACTICE,-1.144908,52.930475999999999
131.81999999999999,SUNRISE MEDICAL PRACTICE (GHATTAORA),-1.1869149999999999,52.913127000000003
8489.7199999999993,SPRINGS HEALTH CENTRE,-1.265531,53.277740000000001
6121.3099999999995,BLUE DYKES SURGERY,-1.414353,53.167482999999997
8733.8500000000004,OLD STATION SURGERY,-1.3124690000000001,52.978912000000001
4559.2799999999997,SOMERCOTES MEDICAL CENTRE,-1.3726,53.082351000000003
3497.9899999999998,IMPERIAL ROAD SURGERY,-1.556557,53.140473999999998
1840.9300000000001,EYAM SURGERY,-1.674512,53.283740999999999
1505.8000000000002,PARK LANE SURGERY,-1.479808,52.955553000000002
6900.5500000000002,WELBECK ROAD HEALTH CENTRE,-1.286529,53.230761000000001
5814.0799999999999,WHITTINGTON MOOR SURGERY,-1.431065,53.260995999999999
8719.5900000000001,CHESTERFIELD MEDICAL PARTNERSHIP,-1.4377800000000001,53.238232000000004
1843.0599999999999,WEST HALLAM MEDICAL CTR,-1.3591629999999999,52.966624000000003
5133.71,ALVASTON MEDICAL CENTRE,-1.4296219999999999,52.893808
8457.3499999999985,THE VILLAGE SURGERY,-1.343137,53.104495
5873.6099999999997,HOLLYBROOK MEDICAL CENTRE,-1.5316559999999999,52.891817000000003
6735.0699999999997,LITTLEWICK MEDICAL CENTRE,-1.3048379999999999,52.966451999999997
4127.7700000000004,HANNAGE BROOK MEDICAL CENTRE,-1.571366,53.077623000000003
3865.3600000000001,BUXTON MEDICAL PRACTICE,-1.9204479999999999,53.253120000000003
6010.4899999999989,RIVERSDALE SURGERY,-1.484996,53.024099999999997
1904.9700000000003,OAKHILL MEDICAL PRACTICE,-1.4583109999999999,53.305661999999998
4670.6999999999998,ELMWOOD MEDICAL CENTRE,-1.920787,53.255122999999998
8495.9799999999996,INSPIRE HEALTH,-1.433573,53.238031999999997
5166.2600000000002,KILLAMARSH MEDICAL PRACTICE,-1.3214570000000001,53.325026999999999
2442.9099999999999,EVELYN MEDICAL CENTRE,-1.7479260000000001,53.348844999999997
4068.25,DR WS RIDDELL'S PRACTICE,-1.2237229999999999,53.260140999999997
3056.9400000000005,COLLEGE STREET MEDICAL PRACTICE,-1.2825800000000001,52.904266
2863.8100000000004,WELLBROOK MEDICAL CENTRE,-1.6308940000000001,52.868344999999998
3883.96,GRESLEYDALE HEALTHCARE CENTRE,-1.5768409999999999,52.760758000000003
1521.4199999999998,DERBY FAMILY MEDICAL CENTRE,-1.4810220000000001,52.906350000000003
1539.0999999999999,BROOK MEDICAL CENTRE,-1.49217,52.932322999999997
2774.1399999999994,FAMILY FRIENDLY SURGERY,-1.2886629999999999,53.230325000000001
2039.0900000000001,DR V CHAWLA'S PRACTICE,-1.437055,53.200933999999997
429,DHU HEALTH CARE CIC,-1.4590719999999999,52.913794000000003
328.56,ASHTON VIEW MEDICAL CTR,-1.5157419999999999,53.809511000000001
3,PRIMARY CARE PLUS DERBY CNE,-1.432644,52.928801
4600.7300000000005,ALCONBURY SURGERY,-0.256797,52.371699
35403.019999999997,OCTAGON MEDICAL PRACTICE,-0.103578,52.622000999999997
5457.4099999999999,YAXLEY GROUP PRACTICE,-0.25110100000000002,52.516866
645.75999999999999,DR GI JONES' PRACTICE,-1.471058,53.166525999999998
1273.76,BRIDGE STREET MEDICAL CENTRE,0.118896,52.207794
2143.9700000000003,KIMBOLTON MEDICAL CENTRE,-0.38916699999999999,52.302565999999999
7771.8599999999997,NEW QUEEN STREET SURGERY,-0.12768399999999999,52.558053999999998
4621.3199999999997,THE HICKS GROUP PRACTICE,-0.188273,52.334235999999997
5507.3799999999992,CORNERSTONE PRACTICE,0.091322,52.548858000000003
2419.98,BOTTISHAM MEDICAL PRACTICE,0.25992900000000002,52.224676000000002
71.709999999999994,DCHS SOUTH DERBYSHIRE CCG,-1.4418820000000001,53.221288000000001
6356.9799999999996,MERCHEFORD HOUSE,0.092096999999999998,52.548411999999999
1971.72,WELLAND MEDICAL,-0.21356900000000001,52.593682000000001
3096.3999999999996,EAST BARNWELL HEALTH CENTRE,0.16722000000000001,52.213951999999999
4042.1500000000001,RIVERSIDE PRACTICE,0.082494999999999999,52.551521999999999
8015.4400000000005,FENLAND GROUP PRACTICE,0.17935999999999999,52.482377
1545.01,MILTON SURGERY,0.16244500000000001,52.241923999999997
1479.1300000000001,THORPE ROAD,-0.258436,52.573258000000003
1443.9099999999999,AILSWORTH MEDICAL CENTRE,-0.35247200000000001,52.577435000000001
1558.8999999999999,DOGSTHORPE MEDICAL CENTRE,-0.22649,52.599505999999998
2064.5500000000002,HAMPTON HEALTH,-0.26362400000000002,52.539023999999998
4042.7200000000003,OUNDLE,-0.47229700000000002,52.485582999999998
228.77000000000001,HUC IUC C&P,-0.25872600000000001,52.574106999999998
2324.96,BILDESTON HEALTH CENTRE,0.90956199999999998,52.104326999999998
3684.1700000000001,IXWORTH SURGERY,0.83084899999999995,52.303311999999998
4255.1800000000003,NEEDHAM MARKET COUNTRY PRACTICE,1.0535540000000001,52.146245
1923.52,DEBENHAM GROUP PRACTICE,1.1810130000000001,52.222003000000001
7948.7199999999993,GROVE MEDICAL CENTRE,1.350452,51.971789000000001
2772.0099999999998,LITTLE ST JOHN STREET SURGERY,1.3192919999999999,52.094017999999998
3304.27,SAXMUNDHAM HEALTH CENTRE,1.491892,52.218243000000001
4735.8999999999996,FRAMFIELD HOUSE SURGERY,1.3081739999999999,52.090192999999999
7993.9800000000014,BARRACK LANE MEDICAL CENTRE,1.1463099999999999,52.060380000000002
1442.0799999999999,DR SOLWAY & DR MALLICK PRACTICE,1.16235,52.057341999999998
14800.34,EAST NORFOLK MEDICAL PRACTICE,1.725527,52.619126999999999
12753.410000000002,THE MILLWOOD PARTNERSHIP,1.698455,52.584750999999997
5047.25,CUTLERS HILL SURGERY,1.508456,52.347546000000001
7986.0500000000011,ROSEDALE SURGERY,1.7059960000000001,52.457186999999998
9588.0900000000001,CROMER GROUP PRACTICE,1.3078879999999999,52.924456999999997
4310.3600000000006,BRUNDALL MEDICAL PARTNERSHIP,1.437022,52.622669000000002
7461,FAKENHAM MEDICAL PRACTICE,0.86759299999999995,52.839328999999999
6569.9699999999993,MAGDALEN MEDICAL PRACTICE,1.2989440000000001,52.643272000000003
3898.3200000000002,HELLESDON MEDICAL PRACTICE,1.2538309999999999,52.670098000000003
3532.2999999999993,BACON ROAD MEDICAL CENTRE,1.261142,52.626243000000002
3989.1000000000004,THE LIONWOOD MEDICAL PRACTICE,1.319958,52.632404999999999
4009.2600000000002,LAWSON ROAD SURGERY,1.2994790000000001,52.643625
3599.8700000000003,CHET VALLEY MEDICAL PRACTICE,1.4739500000000001,52.534624000000001
3356.2000000000003,MATTISHALL SURGERY,1.034195,52.658794999999998
3655.5100000000002,WYMONDHAM MEDICAL PARTNERSHIP,1.1216649999999999,52.572175999999999
2067.98,CHURCH HILL SURGERY,1.2290080000000001,52.428527000000003
4060.1899999999996,THEATRE ROYAL SURGERY,0.94238299999999997,52.683767000000003
6125.6599999999999,ELMHAM SURGERY,0.94301900000000005,52.752310999999999
6595.0699999999997,WATTON MEDICAL PRACTICE,0.82682299999999997,52.570450999999998
3742.1200000000003,HEATHGATE MEDICAL PRACTICE,1.34355,52.572516999999998
2015.2499999999998,SHIPDHAM SURGERY,0.89446199999999998,52.628852000000002
2802.3299999999999,TOFTWOOD MEDICAL CENTRE,0.94069400000000003,52.666120999999997
6535.8500000000004,BRIDGE STREET SURGERY,0.376166,52.602927999999999
23267.52,VIDA HEALTHCARE,0.42344799999999999,52.757292
2085.1500000000001,BOUGHTON SURGERY,0.50911399999999996,52.589033000000001
2717.5299999999997,THE WOOTTONS SURGERY,0.43713600000000002,52.790343
1503.3,WICKHAMBROOK SURGERY,0.54748799999999997,52.171290999999997
5128.5599999999995,THE LONG MELFORD PRACTICE,0.72075199999999995,52.076464999999999
4486.1599999999999,BOTESDALE HEALTH CENTRE,1.0060309999999999,52.344298000000002
4611.9300000000003,MOUNT FARM SURGERY,0.742641,52.245213999999997
6688.2800000000007,WOOLPIT HEALTH CENTRE,0.89276299999999997,52.223517000000001
2843.1399999999999,OAKFIELD SURGERY,0.41178100000000001,52.242936
3864.0599999999999,SWAN SURGERY,0.71730899999999997,52.248775999999999
3099.9599999999996,KELVEDON & FEERING HEALTH CENTRE,0.69779400000000003,51.834358999999999
1542.4400000000001,THE WRITTLE SURGERY,0.42654799999999998,51.732480000000002
6761.5100000000002,BADDOW VILLAGE SURGERY,0.50356199999999995,51.719262999999998
9472.7999999999993,CHELMER MEDICAL PARTNERSHIP,0.459513,51.749313000000001
2226.3299999999999,HUMBER ROAD SURGERY,0.48396,51.747557999999998
1258.6700000000001,KINGSWAY SURGERY,0.60516800000000004,51.653143
1370.6099999999999,CHELMER VILLAGE SURGERY,0.50542200000000004,51.735095999999999
588.72000000000003,WYNCROFT SURGERY,0.58152300000000001,51.693176999999999
2295.8699999999999,THE COGGESHALL SURGERY,0.68495200000000001,51.872936000000003
2651.0999999999999,SILVER END SURGERY,0.62246800000000002,51.846567
4362.79,CARADOC SURGERY,1.243916,51.837547000000001
6313.2399999999998,EAST LYNNE MEDICAL CENTRE,1.1512290000000001,51.791434000000002
4479.5099999999993,THORPE SURGERY,1.1616340000000001,51.857976000000001
3245.1500000000001,HIGHWOODS SURGERY,0.91823299999999997,51.911087000000002
11059.530000000001,NORTH CLACTON MEDICAL PRACTICE,1.162631,51.818131000000001
115.69999999999999,CLACTON MIH,1.1481730000000001,51.786082999999998
7631.79,AVELEY MEDICAL CENTRE,0.257909,51.498485000000002
1683.8999999999999,SOUTHEND ROAD SURGERY,0.43954900000000002,51.526952000000001
2474.79,BALFOUR MEDICAL CENTRE,0.338028,51.486274999999999
6675.2099999999991,STIFFORD CLAYS MEDICAL CENTRE,0.32917200000000002,51.497621000000002
2882.5,DERRY COURT MEDICAL PRACTICE,0.28124399999999999,51.509309999999999
5321.25,OLD HARLOW HEALTH CENTRE,0.13403899999999999,51.784038000000002
6882.119999999999,THE ROSS PRACTICE,0.114548,51.757004999999999
3142.1200000000003,THAXTED SURGERY,0.34345700000000001,51.955190000000002
172.44,HUC WEST ESSEX EA,-0.19172700000000001,51.782567
9623.0200000000004,ROBERT FREW MEDICAL CENTRE,0.53583800000000004,51.602009000000002
5462.4300000000003,TILE HOUSE SURGERY,0.30776799999999999,51.622553000000003
1911.3399999999999,ROCKLEIGH COURT SURGERY,0.326872,51.63026
2682.8499999999999,DR NASAH & PARTNERS,0.50555799999999995,51.567734000000002
1560.4100000000001,QUEENS PARK SURGERY,0.41374699999999998,51.637337000000002
1729.1800000000001,DR SHARMA & PARTNERS,0.44759300000000002,51.588180999999999
1466.9199999999998,FRYERNS MEDICAL CENTRE,0.48973899999999998,51.578499000000001
10315.25,DR SIMS AND PARTNERS,0.50555799999999995,51.567734000000002
7344.329999999999,DR SALAKO AND PARTNERS,0.407777,51.566074999999998
64.789999999999992,BB HEALTHCARE SOLUTIONS,0.48973899999999998,51.578499000000001
3700.0999999999999,THIRD AVENUE HEALTH CENTRE,0.56681899999999996,51.525224000000001
1786.51,ESSEX WAY SURGERY,0.56605499999999997,51.545223999999997
6711.8200000000015,CHURCH VIEW SURGERY,0.65627199999999997,51.600375999999997
2287.2900000000004,HIGH ROAD FAMILY DOCTORS,0.56283399999999995,51.549292000000001
908.97000000000003,BENFLEET SURGERY,0.56123999999999996,51.555025000000001
40.379999999999995,GP HEALTHCARE ALLIANCE - ASHINGDON,0.69021900000000003,51.600746999999998
11215.780000000002,QUEENSWAY  MEDICAL CENTRE,0.71401199999999998,51.541786000000002
4842.2599999999993,CENTRAL SURGERY - SOUTHCHURCH BLVD,0.739537,51.542189999999998
134.77000000000001,IC24 SOUTHEND/CP&R CCG OOH,0.89151400000000003,51.129106
34132.690000000002,LAKESIDE HEALTHCARE,-0.71307600000000004,52.490495000000003
1062.8099999999999,DR SUMIRA,-0.70440199999999997,52.496929000000002
4731.8600000000006,GREAT OAKLEY MEDICAL CENTRE,-0.72131699999999999,52.470376000000002
4025.0099999999998,OAKRIDGE PARK MEDICAL CENTRE,-0.77785300000000002,52.068655
2176.5500000000002,FISHERMEAD MEDICAL CENTRE,-0.74751599999999996,52.036208999999999
1302.8700000000001,KINGFISHER SURGERY,-0.729626,52.078474
6620.7299999999996,QUEENSWAY MEDICAL CENTRE,-0.71850599999999998,52.304898999999999
4848.9099999999999,HEADLANDS SURGERY,-0.72814000000000001,52.394002
7420.130000000001,ESKDAILL MEDICAL,-0.73353800000000002,52.401530999999999
4318.6999999999998,DANETRE MEDICAL PRACTICE,-1.160866,52.252040000000001
4291.1499999999996,ABINGTON PARK SURGERY,-0.86794099999999996,52.241216000000001
648.70000000000005,THE WILLOWS PRACTICE,-0.84125300000000003,52.268340000000002
306.62,STEEPLE BUMPSTEAD SURGERY,0.447079,52.039985999999999
3138.0099999999998,MAPLE ACCESS PARTNERSHIP LLP,-0.89108500000000002,52.236958000000001
1942.0500000000002,DR OLIVER DK,-0.81451099999999999,52.375858000000001
2947.1800000000003,GREENSAND SURGERY (AMPTHILL),-0.49327700000000002,52.026192999999999
7924.8100000000004,DR JL HENDERSON & PARTNERS,-0.66465200000000002,51.919122999999999
4347.3600000000006,GREENSANDS (POTTON),-0.212813,52.127186000000002
5971.71,PRIORY GARDENS SURGERY,-0.51931099999999997,51.885662000000004
2046.55,SHARNBROOK SURGERY,-0.53023100000000001,52.227181999999999
5111.79,PUTNOE MEDICAL CENTRE PARTNERSHIP,-0.43830799999999998,52.147939000000001
1960.0199999999998,GREAT BARFORD SURGERY,-0.351406,52.156171000000001
3724.3699999999999,SANDY HEALTH CENTRE,-0.28751500000000002,52.130074999999998
5251.7200000000003,KING STREET SURGERY,-0.49554799999999999,52.118732999999999
3748.6199999999999,KINGSBURY COURT SURGERY,-0.51812400000000003,51.886842999999999
3867.5799999999999,HOUGHTON CLOSE SURGERY,-0.49420700000000001,52.025585999999997
1266.1500000000001,ROTHSAY SURGERY,-0.45789099999999999,52.137839
3830.8200000000002,WRAFTON HOUSE SURGERY,-0.227021,51.766269000000001
1761.71,MUCH HADHAM HEALTH CENTRE,0.070737999999999995,51.848610999999998
5005.1900000000005,AMWELL SURGERY,-0.013311999999999999,51.759903999999999
3712.1099999999997,THE MAPLES,-0.030325000000000001,51.723258999999999
5763.9200000000001,SOUTH STREET SURGERY,0.16100500000000001,51.866760999999997
3380.2199999999993,CROMWELL MEDICAL CENTRE,-0.050078999999999999,51.701953000000003
4679.4299999999994,CHELLS SURGERY,-0.17723,51.911577000000001
1476.8199999999999,THE SOLLERSHOTT SURGERY,-0.225998,51.972341999999998
1607.7199999999998,CASTLEGATE SURGERY,-0.079826999999999995,51.794334999999997
2014.6300000000001,THE SYMONDS GREEN HEALTH CENTRE,-0.22159000000000001,51.913020000000003
5412.9999999999991,WARDEN LODGE MEDICAL PRACTICE,-0.035832000000000003,51.700097
810.48000000000002,ORCHARD SURGERY,-0.025581,51.946779999999997
2804.4200000000005,THE MEDICAL CENTRE BUNTINGFORD,-0.021829999999999999,51.949019
67.460000000000008,COMMISCEO PRIMARY CARE SOLUTIONS OOH,0.42347600000000002,51.556035999999999
2035.29,MANOR HOUSE SURGERY,-0.16122700000000001,51.916083999999998
2157.0699999999997,PARSONAGE SURGERY,0.174321,51.865482
7090.9500000000007,ROTHSCHILD HOUSE SURGERY,-0.66895199999999999,51.790809000000003
5666.3400000000001,FAIRBROOK MEDICAL CENTRE,-0.272179,51.659776999999998
2565.5299999999997,SUTHERGREY HOUSE MEDICAL CENTRE,-0.40024399999999999,51.660755000000002
4678.8400000000001,CONSULTING ROOMS,-0.39020700000000003,51.625745999999999
3080.6399999999999,VILLAGE SURGERY,-0.35734900000000003,51.814183999999997
47.460000000000001,PALLIATIVE CARE (RH),-2.1776629999999999,52.185349000000002
5802.8000000000002,EVEREST HOUSE SURGERY,-0.44884800000000002,51.755442000000002
3493.6099999999997,GADE SURGERY,-0.481406,51.636735999999999
4226.5799999999999,ELMS MEDICAL PRACTICE,-0.35200700000000001,51.818894999999998
5363.4300000000003,HIGHVIEW MEDICAL CENTRE,-0.174211,51.698571000000001
5267.5699999999997,THE COLNE PRACTICE,-0.481406,51.636735999999999
6885.2100000000009,ATTENBOROUGH SURGERY,-0.37458799999999998,51.645988000000003
1295.8099999999999,LITTLE BUSHEY SURGERY,-0.343887,51.634683000000003
1537.45,PATHFINDER PRACTICE,-0.389517,51.625821999999999
3004.0500000000002,LARKSIDE PRACTICE,-0.36943999999999999,51.892339
3483.7299999999996,SUNDON MEDICAL CENTRE,-0.46935100000000002,51.914875000000002
1792.8199999999999,DR DV SHAH'S PRACTICE,-0.48624499999999998,51.900221000000002
3171.0299999999997,BARTON HILLS MEDICAL GROUP,-0.43804500000000002,51.920011000000002
246.93000000000001,BEDS & LUTON IUC SERVICE OOH,-0.45920699999999998,52.141632999999999
6034.9100000000008,LIQUORPOND SURGERY,-0.025925,52.973500000000001
5420.4000000000005,HORNCASTLE MEDICAL GROUP,-0.10767,53.208129999999997
5519.3000000000002,MERTON LODGE SURGERY,0.173148,53.259653999999998
7389.5,EAST LINDSEY MEDICAL GROUP,0.002264,53.362240999999997
4655.2200000000003,GREYFRIARS SURGERY,-0.022797999999999999,52.975102
9975.2900000000009,THE SIDINGS MEDICAL PRACTICE,-0.033522000000000003,52.975942000000003
4741.7600000000002,NORTH THORESBY SURGERY,-0.056751000000000003,53.465020000000003
9096.6599999999999,JAMES STREET FAMILY PRACTICE,-0.00062600000000000004,53.369168999999999
1188.9000000000001,BINBROOK SURGERY,-0.178896,53.427660000000003
3043.4299999999998,LONG CLAWSON MEDICAL PRACTICE,-0.92390899999999998,52.839215000000003
3112.3100000000004,THE CENTRAL SURGERY,-1.0822039999999999,52.598976
2804.9499999999998,THE BILLESDON SURGERY,-0.93947000000000003,52.618174000000003
4096.8199999999997,THE WYCLIFFE MEDICAL PRACTICE,-1.198016,52.457324
12376.989999999998,LATHAM HOUSE MEDICAL PRACTICE,-0.88338799999999995,52.765348000000003
2449.3899999999999,EMPINGHAM MEDICAL CENTRE,-0.59378399999999998,52.667718000000001
6044.71,THE GLENFIELD SURGERY,-1.196305,52.655380999999998
5259.5999999999995,NORTHFIELD MEDICAL CENTRE,-1.1643779999999999,52.576749999999997
2135.1400000000003,HUSBANDS BOSWORTH MEDICAL CENTRE,-1.0562119999999999,52.449478999999997
7659.4800000000005,PARKER DRIVE SURGERY,-1.1430670000000001,52.656267
2642.7999999999997,STURDEE ROAD HEALTH AND WELLBEING CENTRE,-1.1432960000000001,52.590434999999999
613.63000000000011,WESTCOTES GP SURGERY (ONE),-1.1511499999999999,52.628608999999997
3286.9899999999998,BEAUMONT LODGE MEDICAL PRACTICE,-1.160488,52.658279
848.63999999999987,AL-WAQAS MEDICAL CENTRE,-1.1084130000000001,52.629060000000003
1409.45,BRANDON STREET SURGERY,-1.122261,52.648041999999997
484.44000000000005,DR U K ROY,-1.153143,52.630574000000003
2296.4299999999998,THE PARKS MEDICAL CENTRE (B HAINSWORTH),-1.177125,52.646664999999999
191.16,PUTNOE MEDICAL CENTRE WALK IN CENTRE,-0.43830799999999998,52.147939000000001
12,PC EXT ACCESS CHILTERN VALE HEALTH,-0.52585400000000004,51.884638000000002
5855.46,BOULTHAM PARK MEDICAL PRACTICE,-0.56049700000000002,53.211134000000001
8961.869999999999,CLEVELAND SURGERY,-0.78058099999999997,53.411776000000003
4641.7299999999996,RICHMOND MEDICAL CENTRE,-0.59663699999999997,53.187539999999998
2924.6000000000004,HIBALDSTOW MEDICAL PRACTICE,-0.52567200000000003,53.510461999999997
4638.0599999999995,THE WOODLAND MEDICAL PRACTICE,-0.60537600000000003,53.215749000000002
7623.079999999999,CASKGATE STREET SURGERY,-0.77767900000000001,53.399191000000002
1244.55,THE INGHAM SURGERY,-0.57716999999999996,53.336945
3479.3500000000004,WASHINGBOROUGH SURGERY,-0.47335199999999999,53.221826
2848.8199999999997,CHURCH WALK SURGERY,-0.39972999999999997,53.137830000000001
2048.5100000000002,WILLINGHAM-BY-STOW SURGERY,-0.68568799999999996,53.350873999999997
3406.1500000000005,CROSSROADS MEDICAL PRACTICE,-0.58713400000000004,53.183432000000003
4027.73,VINE STREET SURGERY,-0.642563,52.913789999999999
1668.6300000000001,STACKYARD AND WOOLSTHORPE SURGERY,-0.7611,52.852514999999997
3490.1799999999998,GREENGATE MEDICAL CENTRE,-1.1285400000000001,52.680551000000001
6595.4499999999998,MEASHAM MEDICAL UNIT,-1.508586,52.704867
3827.46,THE OLD SCHOOL SURGERY,-1.2827710000000001,52.547203000000003
4639.7700000000004,MAPLES FAMILY MED.PRACT.,-1.3677429999999999,52.541052000000001
7426.9899999999998,DR NR PULMAN'S PRACTICE,-1.357685,52.721882999999998
7356.5699999999997,BARWELL & HOLLYCROFT MEDICAL CENTRES,-1.349008,52.567264000000002
3833.6700000000001,BARROW HEALTH CENTRE,-1.1490880000000001,52.751623000000002
4330.46,BROOM LEYS SURGERY,-1.349847,52.722883000000003
1815.8400000000001,MANOR HOUSE SURGERY,-1.340835,52.785446999999998
6300.5900000000001,HEATH LANE SURGERY,-1.3229340000000001,52.575209000000001
1901.6199999999999,THE BANKS SURGERY,-1.1054390000000001,52.731019000000003
1644.79,RATBY SURGERY,-1.237697,52.643968000000001
1203.99,FIELD STREET SURGERY,-1.2914079999999999,52.771768000000002
1143.8,DR SJC CLAY'S PRACTICE,-1.216618,52.726419999999997
3574.1599999999999,MOULTON MEDICAL CENTRE,-0.062945000000000001,52.79766
3656.7600000000002,ABBEYVIEW SURGERY,-0.16356699999999999,52.671937999999997
904.94000000000005,THE SPALDING GP SURGERY,-0.15089,52.801468999999997
1868.6299999999999,NORTON CANES HEALTH CENTRE,-1.9702459999999999,52.673977000000001
2376.4000000000001,DR MANICKAM & PARTNER,-2.001763,52.710729999999998
4003.7999999999997,MOSS STREET SURGERY,-2.0128919999999999,52.702674999999999
2393.54,QUINTON PRACTICE,-2.01749,52.657122999999999
2982.8299999999999,CHADSMOOR MEDICAL PRACTICE,-2.0232830000000002,52.708030999999998
1945.2199999999998,SOUTHFIELD WAY SURGERY,-2.0187330000000001,52.658391000000002
300.20999999999998,HERTS URGENT CARE W/H OOH,-0.19172700000000001,51.782567
1613.3900000000001,NORTON CANES SURGERY,-1.9702459999999999,52.673977000000001
3489.7799999999997,AELFGAR SURGERY,-1.9377009999999999,52.763581000000002
7187.1800000000003,SANDY LANE SURGERY,-1.937103,52.756740000000001
6166.6800000000003,CARLTON STREET SURGERY,-1.6478520000000001,52.821427
7388.7200000000012,BALANCE STREET,-1.8635120000000001,52.897101999999997
8635.130000000001,PARK MEDICAL CENTRE,-2.0205129999999998,53.107255000000002
5982.8100000000004,DR J GREIG & PARTNERS,-2.019587,53.106724999999997
4077.0899999999997,DR ROBINSON & PARTNERS,-2.2341150000000001,53.087367
4863.0300000000007,DR DO YATES' PRACTICE,-1.983708,52.986389000000003
2358.98,HIGHERLAND SURGERY,-2.2326320000000002,53.009020999999997
4082.4599999999996,KINGSBRIDGE MEDICAL CENTRE,-2.2261980000000001,52.992699999999999
7358.5999999999995,LOOMER ROAD SURGERY,-2.2486320000000002,53.036306000000003
7710.5900000000001,BRIDGNORTH MEDICAL PRACTICE,-2.4229470000000002,52.537874000000002
7757.3400000000001,MARKET DRAYTON MEDICAL PRACTICE,-2.4859249999999999,52.908735
4108.2800000000007,RADBROOK GREEN SURGERY,-2.775509,52.696415000000002
1918.75,CLIVE MEDICAL PRACTICE,-2.718404,52.814216999999999
8690.4300000000003,CHURCHMERE MEDICAL GROUP,-2.8964940000000001,52.907845999999999
1554.4899999999998,BISHOPS CASTLE SURGERY,-2.9949110000000001,52.494715999999997
2601.1700000000001,CLAREMONT BANK SURGERY,-2.7586219999999999,52.708185
2594.4000000000001,BELVIDERE MEDICAL PRACT.,-2.7298640000000001,52.707340000000002
1648.8499999999999,HODNET MEDICAL PRACTICE,-2.5741869999999998,52.855752000000003
3276.2799999999997,RUSSELL HOUSE SURGERY,-2.200777,52.631297000000004
6517.1499999999996,SALTERS MEADOW HEALTH CTR,-1.9330229999999999,52.682160000000003
2708.3699999999999,CROWN MEDICAL PRACTICE,-1.6951210000000001,52.636837999999997
1880.0899999999999,CLAVERLEY,-2.3073679999999999,52.539301000000002
2289.0199999999995,TRI-LINKS MEDICAL PRACTICE,-1.6640379999999999,52.634849000000003
3030.7299999999996,FEATHERSTONE,-2.089566,52.645772999999998
4214.1599999999999,HAZELDENE HOUSE SURGERY,-2.0044960000000001,52.800688000000001
4417.8899999999994,HOLMCROFT,-2.1320899999999998,52.822459000000002
3846.1600000000003,WOLVERHAMPTON ROAD SURGERY,-2.112806,52.802486000000002
4780.8099999999995,MILL BANK,-2.118627,52.80489
3629.9799999999996,HARTSHILL MEDICAL CENTRE,-2.2106240000000001,53.009925000000003
11591.899999999998,BELGRAVE MEDICAL CENTRE,-2.132641,52.979033000000001
2601.6700000000001,DR P D MILES AND DR R VALASAPALLI,-2.1028530000000001,52.978470000000002
12565.18,THE MOORCROFT MEDICAL CTR,-2.1687919999999998,53.021984000000003
2355.6500000000001,HONEYWALL MEDICAL PRACTICE,-2.188323,53.005440999999998
7428.3799999999992,TUNSTALL PRIMARY CARE CENTRE,-2.2054260000000001,53.057414000000001
3476.79,DR H P BORSE & PARTNER,-2.1028530000000001,52.978470000000002
3058.6400000000003,MIDDLEPORT MEDICAL CENTRE,-2.2075550000000002,53.041204
10638.950000000001,CHARLTON MEDICAL PRACTICE,-2.451006,52.694589000000001
985.36000000000013,IRONBRIDGE MEDICAL PRACTICE,-2.4918450000000001,52.632837000000002
5260.8199999999997,COURT STREET MEDICAL PRACTICE,-2.449786,52.639315000000003
2296.9899999999998,HALBUTT STREET SURGERY,0.14674200000000001,51.547021000000001
1527.2700000000002,DR M FATEH'S PRACTICE,0.15754199999999999,51.529573999999997
5131.0599999999995,ST ALBANS SURGERY,0.13334099999999999,51.537112
2829.9000000000001,BARKING MEDICAL GROUP PRACTICE,0.097253000000000006,51.541314999999997
1080.4399999999998,DR P PRASAD'S PRACTICE,0.096241999999999994,51.542862
2636.71,DR SZ HAIDER'S PRACTICE,0.13071199999999999,51.553077000000002
2370.6500000000001,KING EDWARDS MEDICAL CENTRE,0.084252999999999995,51.533644000000002
1812.6999999999998,DR C OLA'S PRACTICE,0.16367000000000001,51.542357000000003
2203.4099999999999,DR AA ANSARI'S PRACTICE,0.094299999999999995,51.535423999999999
590.33999999999992,GREEN LANE SURGERY,0.13375100000000001,51.561295000000001
2780.6300000000001,DR A MOGHAL'S PRACTICE,0.14107600000000001,51.559372000000003
3488.6300000000001,HIGHGROVE SURGERY,0.098726999999999995,51.538564000000001
251.57999999999998,SHIFA MEDICAL PRACTICE,0.081372,51.531444999999998
1397.3499999999999,PRIME PRACTICE PARTNERSHIP,0.152111,51.535187000000001
642.98000000000002,DR M EHSAN,0.156834,51.532905999999997
1.5,BARKING & DAGENHAM CCG,0.17979600000000001,51.579247000000002
2959.3699999999999,OAKLEIGH ROAD HEALTH CENTRE,-0.15886700000000001,51.625214999999997
2030.3199999999999,GREENFIELD MEDICAL CENTRE,-0.20569799999999999,51.561027000000003
1572.9200000000001,PHGH DOCTORS,-0.19784499999999999,51.581100999999997
2427.52,THE SPEEDWELL PRACTICE,-0.17501,51.617148999999998
3602.1099999999997,THE OLD COURT HOUSE SURGERY,-0.20159099999999999,51.652898999999998
5088.9700000000003,WATLING MEDICAL CENTRE,-0.262021,51.603290999999999
1842.9500000000003,ST. GEORGES MEDICAL CENTRE,-0.226161,51.592731999999998
658.21000000000004,SUPREME MEDICAL CENTRE,-0.195386,51.599452999999997
3835.5200000000004,WENTWORTH MEDICAL PRACTICE.,-0.18789800000000001,51.607748000000001
2515.25,JAI MEDICAL CENTRE,-0.27754200000000001,51.622042999999998
2384.5799999999999,MULBERRY MEDICAL PRACTICE,-0.26003300000000001,51.614860999999998
676.27999999999997,COLINDALE MEDICAL CENTRE LP,-0.24954699999999999,51.591301999999999
929,THE MOUNTFIELD SURGERY,-0.19422,51.595001000000003
588.48000000000002,ROSEMARY SURGERY,-0.18415300000000001,51.596896000000001
530.60000000000002,GLOUCESTER ROAD SURGERY,-0.18305199999999999,51.647272000000001
289,BARNET FEDERATED GPS LIMITED,-0.27069900000000002,51.603679999999997
1124.8799999999999,PARK END SURGERY,-0.16564699999999999,51.556029000000002
1517.5500000000002,PRIMROSE HILL SURGERY,-0.15632199999999999,51.542183999999999
4188.3999999999996,HAMPSTEAD GROUP PRACTICE,-0.163076,51.553170999999999
2334.4899999999998,QUEENS CRESCENT PRACTICE,-0.151779,51.549657000000003
309.77999999999997,LEICESTER CITY HEALTHCARE HUBS OOH,-1.1087880000000001,52.641154
660.80999999999995,LEICS.PART.TRUST COMMUNITY PRESCRIBERS,-1.180245,52.653292999999998
2439.52,SOUTHGATE ROAD MEDICAL CENTRE,-0.085497000000000004,51.540861
1124.29,ATHENA MEDICAL CENTRE,-0.053256999999999999,51.554943000000002
1771.8000000000002,THE DALSTON PRACTICE,-0.067207000000000003,51.547772999999999
2447.6100000000001,THE LEA SURGERY,-0.043112999999999999,51.548273000000002
633.58999999999992,THE GREENHOUSE WALK-IN,-0.055343000000000003,51.538826999999998
624.54999999999995,THE SURGERY (BARRETTS GROVE),-0.078284999999999993,51.552199999999999
321.89999999999998,THE SURGERY (BROOKE ROAD),-0.070754999999999998,51.560051999999999
1026.0700000000002,TROWBRIDGE PRACTICE,-0.029599,51.545250000000003
2264.4400000000001,SPRING HILL PRACTICE,-0.073607000000000006,51.566026999999998
2282.8899999999999,HIGHLANDS PRACTICE,-0.11068799999999999,51.646337000000003
1614.6900000000001,RAINBOW PRACTICE,-0.059836,51.623784000000001
1186.46,THE BOUNCES ROAD SURGERY,-0.054245000000000002,51.632474999999999
2292.5,NIGHTINGALE HOUSE SURGERY,-0.046057000000000001,51.638066999999999
571.25999999999999,MEDICUS HEALTH PARTNERS-FREEZYWATER PCC,-0.040104000000000001,51.674557999999998
1088.1900000000001,BINCOTE SURGERY,-0.109238,51.653049000000003
1195.3400000000001,LATYMER ROAD SURGERY,-0.066553000000000001,51.628127999999997
2739.8699999999999,GILLAN HOUSE SURGERY,-0.105319,51.622647999999998
100.3,MEDICUS HEALTH PARTNERS-LINCOLN ROAD MED,-0.061867999999999999,51.645847000000003
438.31999999999999,PRIMARY CARE SEVEN DAY SERVICE,-0.059836,51.623784000000001
2842.7399999999998,LAWRENCE HOUSE SURGERY,-0.078705999999999998,51.589103000000001
1220.0999999999999,BRUCE GROVE PRIMARY HEALTH CARE CTR,-0.070140999999999995,51.592004000000003
252.47999999999999,HORNSEY PARK SURGERY,-0.109362,51.589241000000001
12.300000000000001,GRANTHAM EXTENDED ACCESS K2,-0.63982499999999998,52.910072999999997
3133.8999999999996,BOUNDS GREEN GROUP PRACTICE,-0.12649299999999999,51.606555999999998
921.23000000000002,CHESHIRE ROAD SURGERY,-0.1137,51.607188000000001
1123.6699999999998,RUTLAND HOUSE SURGERY,-0.14424000000000001,51.594563000000001
965.44000000000005,THE VALE PRACTICE,-0.125836,51.581474999999998
5184.4300000000003,THE GREEN WOOD PRACTICE,0.23274600000000001,51.595328000000002
5478.5699999999997,PETERSFIELD SURGERY,0.232822,51.605722999999998
3445.3699999999999,CENTRAL PARK SURGERY,0.22489500000000001,51.606265999999998
3155.7299999999996,THE UPSTAIRS SURGERY,0.14010500000000001,51.573715999999997
5850.79,THE ROSEWOOD MEDICAL CENTRE,0.20092099999999999,51.542634999999997
1726.8899999999999,HORNCHURCH HEALTHCARE,0.21904499999999999,51.566892000000003
1667.5099999999998,MUNGO PARK SURGERY,0.19208500000000001,51.533441000000003
1208.73,DR MARKS PRACTICE,0.19237899999999999,51.572552999999999
3555.6299999999997,RIVER PLACE HEALTH CENTRE,-0.096560000000000007,51.540512999999997
2431.25,ARCHWAY MEDICAL CENTRE,-0.12612400000000001,51.562541000000003
4890.5799999999999,THE GOODINGE GROUP PRACTICE,-0.125442,51.548250000000003
3293.8499999999995,ISLINGTON CENTRAL MEDICAL CENTRE,-0.105506,51.544561000000002
2571.3099999999999,ST JOHNS WAY MEDICAL CENTRE,-0.13092000000000001,51.568021999999999
1118.5900000000001,THE RISE GROUP PRACTICE,-0.12500700000000001,51.571444
2346.3400000000001,HIGHBURY GRANGE MEDICAL PRACTICE,-0.095342999999999997,51.555095000000001
1684.0599999999999,THE VILLAGE PRACTICE,-0.11001,51.559711
866.75999999999999,THE BEAUMONT PRACTICE,-0.12500700000000001,51.571444
1353.8399999999999,THE MEDICAL CENTRE,-0.109794,51.551077999999997
1022.5400000000001,SOBELL MEDICAL CENTRE,-0.113383,51.553865999999999
2677.3800000000001,THE SHREWSBURY CENTRE,0.043312000000000003,51.540928999999998
7991.6800000000003,STAR LANE MEDICAL CENTRE,0.010673999999999999,51.519872999999997
1898.1700000000001,BOLEYN MEDICAL CENTRE,0.044867999999999998,51.531233999999998
53.859999999999999,SKEGNESS OOH,0.33225700000000002,53.145178999999999
2923.8000000000002,DR SAMUEL AND DR KHAN,0.010023000000000001,51.541412000000001
1791.3100000000002,DR PCL KNIGHT,0.010023000000000001,51.541412000000001
2574.1199999999999,LANTERN HEALTH-CARPENTERS PRACTICE,-0.0034740000000000001,51.537165000000002
1602.21,THE PALMS MEDICAL CENTRE,0.088532,51.576982999999998
4606.5499999999993,FULLWELL CROSS MED. CTR.,0.083781999999999995,51.594620999999997
2658.4799999999996,OAK TREE MEDICAL CENTRE,0.096473000000000003,51.560744
1116.8199999999999,GREEN LANE  GOODMAYES MEDICAL PRACTICE,0.11355899999999999,51.563316
753.27999999999997,BALFOUR ROAD SURGERY,0.075917999999999999,51.563043
927.25999999999999,SEVEN KINGS PRACTICE,0.096828999999999998,51.563462999999999
611.41000000000008,CRANBROOK SURGERY,0.064984,51.572975
826.92999999999995,ST CLEMENT'S SURGERY,0.072932999999999998,51.563763000000002
1079.53,FENCE PIECE ROAD MEDICAL CENTRE,0.084295999999999996,51.600169000000001
1722.1200000000003,THE DOCTORS HOUSE,0.094190999999999997,51.565389000000003
3366.4500000000003,THE MISSION PRACTICE,-0.056482999999999998,51.531373000000002
2971.9399999999996,GOUGH WALK PRACTICE,-0.012625000000000001,51.510477000000002
4691.7600000000002,ST.STEPHENS HEALTH CENTRE,-0.031163,51.532454999999999
339.52000000000004,STAFFORDSHIRE DOCTORS URGENT CARE OOH,-2.1883880000000002,52.989395000000002
1420.2799999999997,WHITECHAPEL HEALTH CENTRE,-0.062507999999999994,51.514127999999999
1407.4000000000001,HARLEY GROVE MEDICAL CTR.,-0.027751999999999999,51.527963999999997
669.93000000000006,THE GROVE ROAD SURGERY,-0.038875,51.529784999999997
1979.6500000000001,THE WAPPING GROUP PRACTICE,-0.058555999999999997,51.505338000000002
2727.3499999999995,EAST ONE HEALTH,-0.055203000000000002,51.513745999999998
3551.3099999999999,THE BLITHEHALE MED.CTR.,-0.065196000000000004,51.523775000000001
513.03999999999996,ST. KATHERINE'S DOCK PRACTICE,-0.068284999999999998,51.506982999999998
2907.1000000000004,THE BARKANTINE PRACTICE,-0.025725000000000001,51.500805999999997
2252.8000000000002,THE FOREST SURGERY,-0.0050369999999999998,51.594726000000001
3858.3299999999999,THE ALLUM MEDICAL CENTRE,0.0034589999999999998,51.569923000000003
1718.3900000000001,SMA MEDICAL PRACTICE,-0.0085939999999999992,51.571154
2610.2799999999997,THE RIDGEWAY SURGERY,-0.011030999999999999,51.628701999999997
24.440000000000001,E & N BIRMINGHAM PCT'S OOH SERVICE,-1.877826,52.477589000000002
3,PERRY TREE CENTRE,-1.8693519999999999,52.540095999999998
433.30999999999995,DR SHANTIR PRACTICE,-0.026175,51.589697000000001
685.71000000000004,HIGHAM HILL MEDICAL CENTRE,-0.034616000000000001,51.594828999999997
670.29000000000008,CLAREMONT MEDICAL CENTRE,-0.033813000000000003,51.594357000000002
2418.3299999999999,CHINGFORD MEDICAL PRACTICE,-0.022546,51.616083000000003
2675.02,SINNOTT ROAD SURGERY,-0.039417000000000001,51.598326999999998
4450.5400000000009,THE LAW MEDICAL GROUP PRACTICE,-0.234316,51.53387
2467.0900000000001,THE LONSDALE MEDICAL CENTRE,-0.20448,51.536897000000003
1405.7999999999997,THE STONEBRIDGE PRACTICE,-0.263604,51.542471999999997
1391.52,FREUCHEN MEDICAL CENTRE,-0.24299899999999999,51.534531000000001
468.56999999999999,PRESTON ROAD SURGERY,-0.29244199999999998,51.564909
75.039999999999992,PARK ROAD SURGERY,-0.255521,51.540005000000001
626.5,THE SUNFLOWER MEDICAL CENTRE,-0.30678499999999997,51.549712999999997
804.04999999999995,THE SURGERY,-0.28196300000000002,51.550604
572.22000000000003,HILLTOP MEDICAL PRACTICE,-0.263604,51.542471999999997
1045.3199999999997,PARK ROYAL MEDICAL PRACTICE,-0.26916099999999998,51.530935999999997
1135.4000000000001,THE ALLENDALE ROAD SURGERY,-0.31982699999999997,51.551186000000001
2267.4399999999996,KS MEDICAL CENTRE,-0.36429699999999998,51.513741000000003
1116.96,CHEPSTOW GARDENS MEDICAL CENTRE,-0.37513999999999997,51.517623999999998
2560.7800000000002,GROSVENOR HOUSE SURGERY,-0.32780399999999998,51.509244000000002
2034.6100000000001,GREENFORD AVENUE FHP,-0.34027000000000002,51.521731000000003
2006,WEST END SURGERY,-0.39780399999999999,51.534274000000003
1079.7800000000002,DR SIVANESAN & PARTNER,-0.36873899999999998,51.521096999999997
1741.52,ELMBANK SURGERY,-0.34194799999999997,51.525548999999998
959.84000000000015,MEDICAL CENTRE,-0.38014799999999999,51.507297999999999
628.50999999999999,PERIVALE MEDICAL CLINIC,-0.33393,51.535111000000001
1815.0900000000001,THE CUCKOO LANE PRACTICE,-0.33437499999999998,51.510263000000002
1033.8,THE CORFTON ROAD SURGERY,-0.29759099999999999,51.519742999999998
1880.7199999999998,THE BARNABAS MEDICAL CTRE,-0.353771,51.551056000000003
461.61000000000001,ACTON TOWN MEDICAL CENTRE,-0.28216999999999998,51.502459999999999
558.31000000000006,THE CHURCHFIELD ROAD SURGERY,-0.26661400000000002,51.508768000000003
2710.1500000000001,EALING PARK HEALTH CENTRE,-0.305367,51.497419999999998
1242.48,THE SALUJA CLINIC,-0.38042999999999999,51.512742000000003
1167,DORMERS WELLS MEDICAL CENTRE,-0.36536200000000002,51.514997000000001
1198.77,GOODCARE PRACTICE,-0.37626100000000001,51.531514000000001
721.35000000000002,FEATHERSTONE ROAD HEALTH CENTRE,-0.385214,51.502575
1200.3199999999999,NURSING HOME SERVICES,-0.32259199999999999,51.520336999999998
2422.9000000000001,THORNBURY ROAD CENTRE FOR HEALTH,-0.345443,51.474432
743.94000000000005,BROOKFIELD PARK SURGERY,-0.14265600000000001,51.563724000000001
148.78999999999999,ST PHILIPS MEDICAL CENTRE,-0.115317,51.513756999999998
2622.8100000000004,BLUE WING FAMILY DOCTOR UNIT,-0.371755,51.468263
1284.8299999999997,CHESTNUT PRACTICE,-0.371755,51.468263
1577.3200000000002,KINGFISHER PRACTICE,-0.35961399999999999,51.461125000000003
1204.1199999999999,PENTELOW PRACTICE,-0.416574,51.456620000000001
1099.6399999999999,WILLOW PRACTICE,-0.35961399999999999,51.461125000000003
2313.73,GROVE VILLAGE MEDICAL CENTRE,-0.43095,51.449160999999997
1060.97,GILL MEDICAL PRACTICE,-0.40492099999999998,51.451481000000001
356.15000000000003,MEDICUS HEALTH PARTNERS-CARLTON HOUSE,-0.076772000000000007,51.662529999999997
3049,LITTLE PARK SURGERY,-0.38771899999999998,51.442594999999997
1639.1999999999998,HMC HEALTH HESTON GREAT WEST,-0.382386,51.483967
434.59000000000003,GROVE PARK TERRACE SURGERY,-0.27333299999999999,51.484668999999997
4278.21,NORTH END MEDICAL CENTRE,-0.20407600000000001,51.487800999999997
314.76000000000005,EAST ENFIELD PRACTICE,-0.046595999999999999,51.649065
39.299999999999997,MEDICUS HEALTH PARTNERS-SOUTHBURY,-0.074241000000000001,51.652025000000002
1797.96,DR CANISIUS & DR HASAN  PARKVIEW CFH&W,-0.23522000000000001,51.510845000000003
2586.48,GP AT HAND,-0.203489,51.484771000000002
65.560000000000002,ENFIELD COMMUNITY SERVICES,-0.084383,51.662126999999998
1758,DR UPPAL & PARTN  PARKVIEW CTR FOR H&W,-0.23522000000000001,51.510845000000003
1343.7700000000002,CANBERRA OLD OAK SURGERY,-0.23522000000000001,51.510845000000003
2018.7499999999998,THE CIRCLE PRACTICE,-0.32061299999999998,51.601112999999998
1821.49,KINGS ROAD SURGERY,-0.37647599999999998,51.567602999999998
93.200000000000003,TOTTENHAM HALE MEDICAL PRACTICE,-0.058714000000000002,51.589477000000002
2608.4400000000001,STREATFIELD HEALTH CENTRE,-0.30812,51.593812
512.97000000000003,THE PINNER ROAD SURGERY,-0.35285499999999997,51.582794
1116.05,HATCH END MEDICAL CENTRE,-0.377077,51.606242000000002
4341.1000000000004,GP DIRECT,-0.35851699999999997,51.575285999999998
16.629999999999999,PATHFINDERS,-1.0068330000000001,53.206969999999998
1736.04,THE SHAFTESBURY MEDICAL CENTRE,-0.35400599999999999,51.571705000000001
597.73000000000002,PINNER VIEW MEDICAL CENTRE,-0.35024699999999998,51.585869000000002
1168.54,ASPRI MEDICAL CENTRE,-0.34300199999999997,51.604470999999997
539.26999999999998,SAVITA MEDICAL CENTRE,-0.34280899999999997,51.586548999999998
423.39999999999998,FIRST CHOICE MEDICAL CARE,-0.375726,51.571243000000003
400.08999999999997,HHCIC EAST WIC,-0.32061299999999998,51.601112999999998
2756.3699999999999,YIEWSLEY FAMILY PRACTICE,-0.47244599999999998,51.511899
1263.4200000000001,OXFORD DRIVE MEDICAL CENTRE,-0.393007,51.567740999999998
2069.0300000000002,THE PINE MEDICAL CENTRE,-0.41683799999999999,51.527591000000001
2579.3099999999995,THE WARREN PRACTICE,-0.40858699999999998,51.519683999999998
2542.3699999999999,PARKVIEW SURGERY,-0.44027500000000003,51.525998000000001
2159.0699999999997,HILLINGDON HEALTH CENTRE,-0.44805299999999998,51.551620999999997
1634.4100000000001,GLENDALE MEDICAL CENTRE,-0.43450299999999997,51.490428999999999
1986.9799999999998,THE HIGH STREET PRACTICE,-0.47244599999999998,51.511899
744.40999999999997,DR MLR SIDDIQUI'S PRACTICE,-0.39941700000000002,51.552011
2017.6900000000001,NORTH KENSINGTON MEDICAL CENTRE,-0.22032499999999999,51.519199
2292.5699999999997,THE GOLBORNE MEDICAL CENTRE,-0.206763,51.523947
728.57000000000005,KENWOOD MEDICAL,0.072006000000000001,51.581412999999998
1814.8999999999999,THE FORELAND MEDICAL CENTRE,-0.212702,51.512518999999998
1625.1099999999999,THE EXMOOR SURGERY,-0.21721799999999999,51.522362000000001
2135.54,KNIGHTSBRIDGE MEDICAL CENTRE,-0.159918,51.498069999999998
1167.8200000000002,CITY WELLBEING PRACTICE,-0.061762999999999998,51.513359999999999
312.41999999999996,QUEENS PARK HEALTH CENTRE,-0.20582600000000001,51.530911000000003
3354.9899999999998,BARLBY SURGERY,-0.21721799999999999,51.522362000000001
2016.2199999999998,COVENT GARDEN MEDICAL CENTRE,-0.12368899999999999,51.515563999999998
880.16000000000008,CROMPTON MEDICAL CENTRE,-0.176757,51.523763000000002
589.05999999999995,SOHO SQUARE GENERAL PRACTICE,-0.131914,51.514524000000002
1474.79,THE DOCTOR HICKEY SURGERY,-0.13150100000000001,51.495750000000001
827.6400000000001,WOODFIELD ROAD MEDICAL CENTRE,-0.19758500000000001,51.522717999999998
36.299999999999997,ST ANDREWS EXTENDED ACCESS HUB,-0.013842999999999999,51.523896999999998
8499.7799999999988,THE ALBION SURGERY,0.14741499999999999,51.454048999999998
1481.8299999999999,INGLETON AVENUE SURGERY,0.104087,51.454006999999997
2077.9400000000001,PLAS MEDDYG SURGERY,0.144397,51.442846000000003
1901.8299999999999,DR THAVAPALAN AND PARTNERS,0.139516,51.472278000000003
1397.1500000000001,BULBANKS MEDICAL CENTRE,0.16623399999999999,51.488523000000001
3291,STATION ROAD SURGERY,0.10202899999999999,51.431444999999997
3920.0500000000002,CROOK LOG SURGERY,0.13067799999999999,51.458455000000001
2372.04,SLADE GREEN MEDICAL CTR.,0.18978700000000001,51.470505000000003
7626.6400000000003,LINKS MEDICAL PRACTICE,0.014808,51.419792999999999
1772.6299999999997,MANOR ROAD SURGERY,-0.022544000000000002,51.407147000000002
5337.7399999999998,CHISLEHURST MEDICAL PRACTICE,0.066937999999999998,51.419677999999998
3347.75,STATION ROAD SURGERY,-0.014886999999999999,51.377080999999997
3864.3900000000003,CHELSFIELD SURGERY,0.104017,51.355725999999997
2537.2800000000002,ST JAMES' PRACTICE,-0.043672999999999997,51.399237999999997
523.83000000000004,HAMPTON MEDICAL CENTRE,-4.1e-05,51.566448999999999
1327.95,JAI MEDICAL CENTRE (BRENT),-0.27072099999999999,51.598168000000001
1483.4000000000001,TUDOR WAY SURGERY,0.078423999999999994,51.388790999999998
1111.1600000000001,GILLMANS ROAD SURGERY,0.110203,51.377152000000002
852.39999999999986,HIGHLAND ROAD SURGERY,0.0061310000000000002,51.410167000000001
3512.9899999999998,WOODLANDS PRACTICE,0.064213000000000006,51.421073999999997
2100.4400000000001,CATOR MEDICAL CENTRE,-0.032721,51.404873000000002
1113.3100000000002,SOUTH NORWOOD HILL MEDICAL CENTRE,-0.080771999999999997,51.403168999999998
3899.4200000000001,ST.JAMES'S MEDICAL CENTRE,-0.093078999999999995,51.381805999999997
4842.3800000000001,OLD COULSDON MEDICAL PRACTICE,-0.11783,51.306621999999997
