total_cost,name,longitude,latitude
3358.1599999999999,ANNANDALE MEDICAL CENTRE,-2.354695,53.310299000000001
1233.01,CHELFORD SURGERY,-2.2824209999999998,53.272533000000003
3364.4499999999998,MEADOWSIDE MEDICAL CENTRE,-2.211414,53.165084
84.310000000000002,EASTERN CHESHIRE OOH SERVICE,-2.1410740000000001,53.262321
239,NHS EASTERN CHESHIRE CCG NMP'S,-2.12262,53.257964000000001
10458.309999999999,MILLCROFT MEDICAL CENTRE,-2.45397,53.098813
9541.2399999999998,ASHFIELDS P/CARE CENTRE,-2.3673959999999998,53.144641
9022.2199999999993,EARNSWOOD MEDICAL CENTRE,-2.45397,53.098813
10597.150000000001,GROSVENOR MEDICAL CENTRE,-2.4538570000000002,53.102345999999997
2143.5900000000001,WATERS EDGE MEDICAL CENTRE,-2.443972,53.192335999999997
2453.0799999999999,LAUNCESTON CLOSE SURGERY,-2.5424880000000001,53.183101000000001
4505.54,MIDDLEWICH ROAD SURGERY,-2.4894370000000001,53.257711999999998
3905.4499999999998,WILLOW WOOD SURGERY,-2.5043419999999998,53.195538999999997
16.649999999999999,NHS VALE ROYAL CCG NMP'S,-2.45397,53.098813
5305.6000000000004,GUARDIAN STREET MED/CTR,-2.6062970000000001,53.391900999999997
7186.4499999999989,FOLLY LANE MEDICAL CENTRE,-2.6068959999999999,53.398108999999998
5242.7100000000009,GREENBANK SURGERY,-2.5712480000000002,53.396596000000002
3087.7399999999998,4 SEASONS MEDICAL CENTRE,-2.5883069999999999,53.404594000000003
1128.96,FAIRFIELD SURGERY,-2.5712480000000002,53.396596000000002
3459.6599999999994,HEATH LANE MEDICAL CENTRE,-2.8638400000000002,53.188960999999999
5991.9699999999993,NESTON SURGERY,-3.0532219999999999,53.285240000000002
7747.5500000000002,YORK ROAD GROUP PRACTICE,-2.8993069999999999,53.278860000000002
9491.2199999999993,CITY WALLS MEDICAL CENTRE,-2.896833,53.191394000000003
2639.8800000000001,WHITBY GROUP PRACTICE SURGERY   (BLACK),-2.9106290000000001,53.267510000000001
7087.5099999999993,HOPE FARM MEDICAL CENTRE,-2.9234439999999999,53.265191999999999
2274.3499999999999,UPTON VILLAGE SURGERY,-2.8843009999999998,53.213782999999999
5174.3800000000001,OLD HALL SURGERY,-2.9043960000000002,53.276214000000003
3072.8500000000004,WESTMINSTER SURGERY,-2.896598,53.285541000000002
3023.5699999999997,WESTERN AVE MEDICAL CTRE,-2.9319039999999998,53.201904999999996
7673.1000000000004,MARINE LAKE MEDICAL PRACTICE,-3.1830889999999998,53.373491999999999
2757.2099999999996,ALLPORT MEDICAL CENTRE,-2.971892,53.322282999999999
5764.7800000000007,EASTHAM GROUP PRACTICE,-2.971892,53.322282999999999
4866.1300000000001,CIVIC MEDICAL CENTRE,-3.0048119999999998,53.350225999999999
3417.27,UPTON GROUP PRACTICE,-3.089591,53.385151
3727.3900000000003,VILLA MED CTR,-3.0518190000000001,53.364283
2970.6700000000001,HAMILTON MED CTR,-3.018678,53.393048999999998
3361.6999999999998,HOLMLANDS MED CTR,-3.0604749999999998,53.372729999999997
6458.71,SOMERVILLE MED CTR,-3.0419670000000001,53.410071000000002
7143.0100000000002,CENTRAL PARK MEDICAL CENTRE,-3.0458639999999999,53.415672000000001
2760.54,HOYLAKE RD MET CTR,-3.1166040000000002,53.399293
4278.9699999999993,FEGAN & PARTNERS,-3.0663469999999999,53.429065000000001
1430.8000000000002,VITTORIA MED CTR K,-3.0301559999999998,53.396374999999999
3394.0800000000004,PRENTON MEDICAL CENTRE_MURUGESH V,-3.0609449999999998,53.371062000000002
2399.4400000000001,ST GEORGE'S MEDICAL PRACTICE,-1.447921,54.514806
7438.7800000000007,STATION VIEW MEDICAL CENTRE,-1.6782410000000001,54.656610999999998
9889.0599999999977,BEWICK CRESCENT SURGERY,-1.57186,54.617548999999997
71.150000000000006,GP APH OOH,-3.0968149999999999,53.369639999999997
9520.7100000000009,MARLBOROUGH SURGERY,-1.3354900000000001,54.835804000000003
19037.360000000001,EAST DURHAM MEDICAL GROUP,-1.378951,54.725580999999998
1463.6099999999999,GAINFORD SURGERY,-1.731117,54.546247000000001
1900.7,OXFORD ROAD MEDICAL PRACTICE,-1.6033649999999999,54.699579
3547.3800000000001,SOUTHDENE MEDICAL CENTRE,-1.3862410000000001,54.763216999999997
6.5999999999999996,DURHAM DALES VAWAS,-1.6782410000000001,54.656610999999998
4824.8099999999995,BRIDGE END SURGERY,-1.57348,54.859304000000002
9650.9599999999991,STANLEY MEDICAL GROUP,-1.6980649999999999,54.870038000000001
3346.9299999999998,COXHOE MEDICAL PRACTICE,-1.504356,54.714672
8145.0499999999993,DUNELM MEDICAL PRACTICE,-1.63608,54.783436999999999
4936.46,CHASTLETON MEDICAL GROUP,-1.5871360000000001,54.795754000000002
3381.9700000000003,CEDARS MEDICAL GROUP,-1.740442,54.905569999999997
414.63,DDES CCG FT COMMUNITY PRACTICE,-1.563733,54.530374000000002
8370.2299999999996,QUEENS ROAD SURGERY,-1.8438669999999999,54.866692
1760.79,CHEVELEY PARK MEDICAL CTR,-1.5258179999999999,54.785600000000002
1561.02,LANCHESTER MEDICAL CENTRE,-1.7386729999999999,54.819808999999999
5222.3499999999995,DRS LAMBERT & NG,-1.7375879999999999,54.857647999999998
2761.0900000000001,CRAGHEAD MEDICAL CENTRE,-1.6790229999999999,54.856915000000001
2653.7400000000002,GARDINER CRESCENT,-1.6097900000000001,54.857861999999997
3688.0799999999999,ANNFIELD PLAIN SURGERY,-1.73549,54.856763000000001
3523.0899999999997,QUEENSTREE PRACTICE,-1.2947979999999999,54.608291000000001
2716.6500000000001,THE DOVECOT SURGERY,-1.318986,54.561624999999999
111,ST CUTHBERTS HOSPICE,-1.5937049999999999,54.76417
6585.2699999999995,HART MEDICAL PRACTICE,-1.223519,54.704169
2622.96,DR RASOOL,-1.2922149999999999,54.611725999999997
3902.5099999999993,ELM TREE SURGERY,-1.299647,54.554873000000001
5823.9499999999989,GLADSTONE HOUSE SURGERY,-1.218577,54.685200000000002
6625.3800000000001,BLUEBELL MEDICAL CENTRE,-1.2621420000000001,54.538198000000001
4209.6099999999997,VILLAGE MEDICAL CENTRE,-1.241897,54.562285000000003
8773.8199999999997,BENTLEY MEDICAL PRACTICE,-1.0688070000000001,54.599299000000002
10648.450000000001,NORMANBY MEDICAL CENTRE,-1.168042,54.571137
13634.23,LINTHORPE SURGERY,-1.241601,54.563330999999998
8538.9400000000005,BOROUGH ROAD & NUNTHORPE MEDICAL GROUP,-1.227209,54.571966000000003
7530.5300000000007,THE ERIMUS PRACTICE,-1.2353970000000001,54.575046999999998
5120.5,THE SALTSCAR SURGERY,-1.0736380000000001,54.616281999999998
4095.48,PARKWAY MEDICAL CENTRE,-1.213762,54.524805000000001
13.460000000000001,FOUNDATIONS -HARRIS STREET,-1.242245,54.575268999999999
4200.2200000000003,ST HELENS ROAD PRACTICE,-2.4578470000000001,53.559567999999999
4533.5599999999995,DALEFIELD SURGERY,-2.451813,53.588166999999999
4211.6000000000004,TONGE FOLD HEALTH CENTRE,-2.4057719999999998,53.579118999999999
3930.1399999999999,PAGE-CROMPTON HEALTH CENTRE,-2.4152260000000001,53.597486000000004
1438.74,DEANE MEDICAL CENTRE,-2.441983,53.572699
1149.21,EDGWORTH MEDICAL CENTRE,-2.426383,53.617589000000002
1756.04,SHANTI MEDICAL CENTRE,-2.4514580000000001,53.563369000000002
1198.22,ORIENT HOUSE MEDICAL CENTRE,-2.4608189999999999,53.568942
1148.3400000000001,AL FAL MEDICAL GROUP,-2.446348,53.572727999999998
2224.6399999999999,FARNWORTH FAMILY PRACTICE,-2.3977590000000002,53.546123000000001
663.59000000000003,OLIVE FAMILY PRACTICE,-2.446348,53.572727999999998
5165.9900000000007,THE UPLANDS MEDICAL PRACTICE,-2.2958150000000002,53.548583000000001
5496.4899999999998,RADCLIFFE MEDICAL PRACTICE,-2.323706,53.560142999999997
15727.340000000002,TOWER FAMILY HEALTHCARE,-2.3414320000000002,53.614725
6282.4899999999998,PEEL GPS,-2.2989799999999998,53.590310000000002
2427.2200000000003,ST GABRIEL'S MEDICAL CENTRE,-2.2657910000000001,53.520809
479.57000000000005,GREYLAND MEDICAL CENTRE,-2.2761399999999998,53.537709
2190.52,THE BIRCHES MEDICAL CENTRE,-2.2710910000000002,53.538361000000002
1526.1299999999999,THE CHOWDHURY PRACTICE,-2.1169449999999999,53.543824000000001
3127.1500000000001,CHADDERTON MEDICAL PRACTICE,-2.142182,53.545558999999997
5476.1999999999998,ALEXANDRA GROUP MED PRACT,-2.0950950000000002,53.537785999999997
2851.5699999999997,DANSON FAMILY PRACTICE P85018,-2.1305339999999999,53.537309999999998
30.260000000000002,BURY WALK-IN CENTRE,-2.2885909999999998,53.595529999999997
1.5,INTERMEDIATE CARE,-2.3172799999999998,53.613477000000003
3998.7799999999997,BLOCK LANE SURGERY,-2.1390389999999999,53.535037000000003
3893.3299999999995,CHADDERTON SOUTH HEALTH CENTRE,-2.1514500000000001,53.533368000000003
1215.6299999999999,MOHANTY PRACTICE,-2.1305339999999999,53.537309999999998
3167.0799999999999,ST CHADS MEDICAL PRACTICE,-2.126789,53.515222000000001
21.300000000000001,COMMUNITY PAEDIATRIC SERVICE,-2.1302530000000002,53.548188000000003
913.12999999999988,JOHN STREET MEDICAL PRACTICE,-2.120101,53.540188000000001
3669.1199999999999,HOLLINWOOD MEDICAL PRACTICE,-2.1276519999999999,53.522114000000002
3509.8199999999997,MILNROW VILLAGE PRACTICE,-2.1063429999999999,53.606608000000001
4539.21,YORKSHIRE ST SURGERY,-2.152215,53.620446000000001
5524.6800000000003,ASHWORTH STREET SURGERY,-2.1656520000000001,53.619565000000001
8941.5299999999988,WELLFIELD HEALTH CENTRE,-2.1474790000000001,53.606580999999998
6070.3299999999999,THE JUNCTION SURGERY,-2.1749149999999999,53.541857
12.300000000000001,OLDHAM 7 DAY ACCESS HUB3 OOH,-2.1567470000000002,53.509855000000002
3400.3100000000004,ROCHDALE ROAD MEDICAL CENTRE,-2.1957019999999998,53.556772000000002
3937.5,FAMILY PRACTICE,-2.2163569999999999,53.554713999999997
1250.3000000000002,DR A HAMID,-2.154239,53.611617000000003
920.94000000000005,DR MB GHAFOOR & PARTNERS,-2.154239,53.611617000000003
3143.1500000000001,DOCTORS' SURGERY,-2.1876720000000001,53.556829999999998
5020.21,WALKDEN MEDICAL CENTRE,-2.3975270000000002,53.522942
23.969999999999999,HMR CHILDRENS COMMUNITY SERVICES,-2.1601520000000001,53.624282000000001
2993.3400000000001,IRLAM GROUP PRACTICE,-2.426415,53.439141999999997
3270.0799999999999,PENDLETON MEDICAL CENTRE,-2.2847420000000001,53.488360999999998
4913.5299999999997,THE SIDES MEDICAL PRACTICE,-2.3543310000000002,53.505442000000002
1816.9100000000001,MOCHA PARADE MEDICAL PRACTICE,-2.260831,53.491734000000001
4842.2200000000003,ORDSALL HEALTH SURGERY,-2.2809710000000001,53.473981000000002
1455.9799999999998,DR LOOMBA AND PARTNERS,-2.3985409999999998,53.524898
1371.25,ELLENBROOK MEDICAL CENTRE,-2.4135520000000001,53.511184999999998
1725.2900000000002,CORNERSTONE MEDICAL PRACTICE,-2.296843,53.483784999999997
6963.21,3/LOWER BROUGHTON MEDICAL PRACTICE,-2.2588080000000001,53.493589999999998
2427.0999999999999,(IRLAM) SALFORD CARE CTRS MEDICAL PRACTI,-2.4170739999999999,53.449106999999998
1470.0799999999999,ECCLES GATEWAY MEDICAL CENTRE,-2.3393139999999999,53.482529999999997
168.26999999999998,SALFORD COMMUNITY HEALTH,-2.2798319999999999,53.479520000000001
1648.9399999999998,WOODLEY VILLAGE SURGERY,-2.0996610000000002,53.426288999999997
8810.0400000000009,HEATON NORRIS HEALTH CTR. 1,-2.1679300000000001,53.416531999999997
4175.3100000000004,BEECH HOUSE MEDICAL PRACT,-2.1181459999999999,53.379406000000003
4473.9499999999998,CHADSFIELD MEDICAL PRACTICE,-2.0899299999999998,53.414997999999997
17205.34,HEATON MOOR MEDICAL GROUP,-2.180393,53.424818999999999
2470.77,BRACONDALE MEDICAL CENTRE,-2.1470889999999998,53.393998000000003
6129.0299999999997,CALE GREEN SURGERY,-2.1583640000000002,53.397148000000001
3333.2599999999998,BREDBURY MEDICAL CENTRE,-2.1140539999999999,53.422915000000003
2331.8499999999999,THE GUYWOOD PRACTICE,-2.0899299999999998,53.414997999999997
2575.9300000000003,HIGH LANE MEDICAL CENTRE,-2.0752929999999998,53.364978000000001
695.12000000000012,DR H LLOYD'S PRACTICE,-2.1530429999999998,53.393783999999997
2046.9299999999998,HOWARD STREET MEDICAL PRACTICE,-1.9496899999999999,53.445062
2763.1300000000001,HADFIELD MEDICAL CENTRE,-1.9650589999999999,53.467160999999997
6613.9599999999991,THE BROOKE SURGERY,-2.0812149999999998,53.452136000000003
5858.8999999999996,LOCKSIDE MEDICAL CENTRE,-2.0462859999999998,53.484945000000003
3950.5500000000002,GORDON STREET MEDICAL CENTRE,-2.0780530000000002,53.492910000000002
847.57000000000005,VERNON PARK SURGERY,-2.142795,53.418398000000003
15.559999999999999,WEEKEND SERVICE OOH,-2.4608189999999999,53.568942
6729.4799999999996,DENTON MEDICAL PRACTICE,-2.1155089999999999,53.459910000000001
7082.5899999999992,DUKINFIELD MEDICAL PRACTICE,-2.0834160000000002,53.476537999999998
2925.2399999999998,KING STREET MEDICAL CENTRE,-2.0934550000000001,53.478588999999999
3338.1500000000001,ST.ANDREW'S HOUSE SURGERY,-2.059094,53.484667999999999
4358.2600000000002,MARKET STREET MEDICAL PRACTICE,-2.145635,53.478959000000003
2295.0699999999997,THE SMITHY SURGERY,-1.9945090000000001,53.461818000000001
2515.79,ALTRINCHAM MEDICAL PRACTICE,-2.3516140000000001,53.384509999999999
88.799999999999997,OLDHAM 7 DAY ACCESS HUB 1 OOH,-2.1169449999999999,53.543824000000001
3796.5600000000004,PARTINGTON CENTRAL SURGERY,-2.4250159999999998,53.416781
4578.04,PARTINGTON FAMILY PRACTICE,-2.4250530000000001,53.417437
2110.1900000000001,BARRINGTON MEDICAL CENTRE,-2.3521580000000002,53.386719999999997
1463.9699999999998,OLD TRAFFORD MEDICAL PRACTICE,-2.2757450000000001,53.458074000000003
2613.0299999999997,VILLAGE SURGERY,-2.323566,53.397227999999998
8286.5399999999991,THE DICCONSON GROUP PRACTICE,-2.6448909999999999,53.549467
8392.1799999999985,BEECH HILL MEDICAL PRACTICE,-2.644352,53.555653999999997
4688.3400000000001,SULLIVAN WAY SURGERY,-2.6225339999999999,53.549154000000001
3,CHILDREN'S SERVICES,-2.2847420000000001,53.488360999999998
6938.1999999999998,SHEVINGTON SURGERY,-2.6994199999999999,53.574041000000001
7840.4200000000001,PEMBERTON SURGERY,-2.6696970000000002,53.538479000000002
2009.9400000000001,THE CHANDLER SURGERY,-2.6437719999999998,53.529392999999999
3132.1599999999999,BRYN CROSS SURGERY,-2.64744,53.500897000000002
134.03,TRAFFORD HEALTH CENTRE WIC,-2.3706809999999998,53.454059999999998
1579.5,PREMIER HEALTH TEAM,-2.511927,53.493518999999999
2184.5599999999999,MESNES VIEW SURGERY,-2.6330480000000001,53.550806999999999
1394.1599999999999,DR VASANTH,-2.5008110000000001,53.527489000000003
2118.54,SHAHBAZI SS,-2.5954950000000001,53.479880000000001
3429.6900000000001,SEVEN BROOKS PRACTICE,-2.4890219999999998,53.524185000000003
4796.7399999999998,BRYN STREET SURGERY,-2.6386310000000002,53.490541999999998
1654.8799999999999,MARSH GREEN MEDICAL PRACTICE,-2.6673,53.549233000000001
447.74999999999994,WIGAN GP ALLIANCE,-2.6280480000000002,53.553530000000002
8248.7400000000016,FIVE OAKS FAMILIY PRACTICE,-2.1944699999999999,53.47569
1433.6099999999999,THE VALLANCE CENTRE,-2.224996,53.470565000000001
5167.5699999999997,RK MEDICAL PRACTICE,-2.2556319999999999,53.386597000000002
10212,VALENTINE MEDICAL CENTRE,-2.213082,53.515701999999997
6665.6400000000003,THE MAPLES MEDICAL CENTRE,-2.2867120000000001,53.384846000000003
5615.6100000000006,BOWLAND MEDICAL PRACTICE,-2.2851439999999998,53.393146000000002
10683.970000000001,BENCHILL MEDICAL PRACTICE,-2.2556319999999999,53.386597000000002
3187.6100000000001,ASHVILLE SURGERY,-2.2680440000000002,53.452519000000002
3485.1799999999998,THE RANGE MEDICAL CENTRE,-2.257066,53.452309
5157.2700000000004,CHEETHAM HILL PRIMARY CARE CENTRE,-2.2352599999999998,53.501162000000001
5830.8600000000006,MOUNT ROAD SURGERY,-2.1814,53.459809999999997
3895.21,EASTLANDS MEDICAL CENTRE,-2.1841569999999999,53.484307999999999
8.6099999999999994,WWL COMMUNITY NURSES,-2.6290909999999998,53.557740000000003
1283.3299999999999,WILBRAHAM SURGERY,-2.2715179999999999,53.442318
2180.9499999999998,MANCHESTER MEDICAL,-2.2374499999999999,53.458750000000002
911.72000000000003,WILMSLOW ROAD SURGERY,-2.2228219999999999,53.452153000000003
3910.6599999999999,THE ARCH MEDICAL PRACTICE,-2.2496119999999999,53.467739999999999
987.01999999999998,FALLOWFIELD MEDICAL CENTRE,-2.2135099999999999,53.438822999999999
1600.3399999999999,PARKSIDE SURGERY,-2.1908430000000001,53.453189000000002
3556.4700000000003,PARK VIEW MEDICAL CENTRE,-2.2333059999999998,53.518504
980.11000000000001,WILLOWBANK SURGERY,-2.2083179999999998,53.509929999999997
2015.6999999999998,JOLLY MEDICAL CENTRE,-2.2400259999999999,53.512118000000001
2972.2699999999995,SIMPSON MEDICAL PRACTICE,-2.1980390000000001,53.514029000000001
1.5,NORTHERN HEALTH GPPO - JOLLY HIPC,-2.2400259999999999,53.512118000000001
987.17999999999995,THOMAS LINACRE MEDICAL,-2.6290909999999998,53.557740000000003
105.14000000000001,EMERGENCY GP OOH,-2.5983320000000001,53.390107999999998
9210.3399999999983,DARWEN HEALTHCARE,-2.4714269999999998,53.695743999999998
6956.9000000000005,ST GEORGES SURGERY,-2.475711,53.738511000000003
2574.1900000000001,BROWNHILL SURGERY,-2.4793280000000002,53.775275999999998
1456.78,DR RC RAUTRAY'S PRACTICE,-2.4755210000000001,53.752541999999998
23.100000000000001,NON MEDICAL PRESCRIBING,-2.429894,53.553956999999997
58.509999999999998,LCFT NMPS,-2.6389399999999998,53.719431
5151.6300000000001,THE RYAN MEDICAL CENTRE,-2.6636350000000002,53.730398999999998
2960.1700000000001,CLAYTON BROOK SURGERY,-2.6373250000000001,53.711844999999997
2618.4899999999998,KINGSFOLD MEDICAL CENTRE,-2.7239200000000001,53.735866000000001
2317.77,MOSS SIDE MEDICAL CENTRE,-2.7268349999999999,53.690448000000004
1311.8699999999999,EAVES LANE SURGERY,-2.6190500000000001,53.659820000000003
767.25,BEECHES MEDICAL CENTRE,-2.7904309999999999,53.725648
1623.52,STATION SURGERY,-2.6906150000000002,53.698033000000002
15419.859999999999,BURNLEY GROUP PRACTICE,-2.2389480000000002,53.791325999999998
12372.219999999999,THE RICHMOND HILL PRACTICE,-2.1644920000000001,53.856586999999998
4612.8499999999995,BRIERCLIFFE SURGERY,-2.2128589999999999,53.810388000000003
6431.4500000000007,PENDLESIDE MEDICAL PRACT,-2.3932000000000002,53.873953999999998
4413.8500000000004,WHITWORTH MEDICAL CENTRE,-2.173956,53.661183999999999
4078.3500000000004,THURSBY SURGERY,-2.2316820000000002,53.800663999999998
10199.25,THE CASTLE MEDICAL GROUP,-2.3932000000000002,53.873953999999998
6735.9799999999996,PWE HEALTHCARE PENDLE,-2.2188500000000002,53.838042000000002
6628.4699999999993,PADIHAM GROUP PRACTICE,-2.3138049999999999,53.800548999999997
5932.54,WATERFOOT GROUP OF DOCTORS,-2.251827,53.691310999999999
2038.7899999999997,IGHTENHILL MEDICAL CENTRE,-2.2672699999999999,53.793391
2048.21,DR MALIK & PARTNER,-2.2188500000000002,53.838042000000002
3140.9700000000003,ROSEGROVE SURGERY,-2.2797800000000001,53.789129000000003
164.34,LCFT NON-MEDICAL PRESCRIBERS,-2.6389399999999998,53.719431
2215.1999999999998,HARAMBEE SURGERY,-2.1367919999999998,53.847709000000002
2530.4900000000002,WHITEFIELD HEALTHCARE,-2.2188500000000002,53.838042000000002
1966.4100000000001,RIVERSIDE FAMILY PRACTICE,-2.2389480000000002,53.791325999999998
3932.5099999999998,FAIRMORE MEDICAL PRACTICE,-2.2806630000000001,53.700809999999997
5189.6500000000005,LYTHAM ROAD SURGERY,-2.710575,53.777839999999998
812.33000000000004,THE GEOFFREY STREET SURGERY,-2.6797849999999999,53.762782999999999
5400.8999999999996,RIBBLETON MEDICAL CENTRE,-2.6610130000000001,53.776802000000004
2433.04,DR A HUSSAIN,-2.6572770000000001,53.770747
7747.1500000000005,ULVERSTON HEALTH CENTRE (MURRAY),-3.0978330000000001,54.198881999999998
2025.52,AMBLESIDE HEALTH CENTRE,-2.9663409999999999,54.435043
3823.29,CAPTAIN FRENCH SURGERY,-2.7485620000000002,54.323428999999997
10092.560000000001,THE JAMES COCHRANE PRACT.,-2.737133,54.312705999999999
108.74000000000001,DR A K JHA (SH),-2.1644920000000001,53.856586999999998
1832.7399999999998,WINDERMERE HEALTH CENTRE,-2.913421,54.370871000000001
3378.4199999999996,BURNETT EDGAR MEDICAL CTR,-3.2549239999999999,54.107143000000001
1770.6200000000003,SEDBERGH MEDICAL PRACTICE,-2.5352709999999998,54.322391000000003
1235.0700000000002,HAVERTHWAITE SURGERY,-2.99363,54.251457000000002
4277.1999999999998,BENTHAM MEDICAL PRACTICE,-2.5111340000000002,54.119171999999999
2580.04,PARK VIEW SURGERY,-2.7711100000000002,54.227651999999999
3686.6800000000003,MANOR PRIMARY CARE,-2.764643,53.549695
3258.5799999999999,PARBOLD SURGERY,-2.7731409999999999,53.592733000000003
1626.78,BURSCOUGH FAMILY PRACTICE,-2.840112,53.602356999999998
2314.6899999999996,LATHOM HOUSE SURGERY,-2.8409149999999999,53.603214000000001
4018.5299999999997,TARLETON GROUP PRACTICE,-2.8329970000000002,53.679267000000003
10394.73,GARSTANG MEDICAL PRACTICE,-2.7831030000000001,53.897295
5452.9499999999998,ANSDELL MEDICAL CENTRE,-3.0005030000000001,53.748859000000003
4054.1399999999999,GREAT ECCLESTON HLTH CTR,-2.8679130000000002,53.855172000000003
5412.5399999999991,HOLLAND HOUSE SURGERY,-2.9503699999999999,53.739559999999997
8675.2999999999993,BEVAN GROUP PRACTICE,-2.7245529999999998,53.379727000000003
21.129999999999999,BRIDGEWATER CH COM NURSES HALTON,-2.6283430000000001,53.415481999999997
8661.7800000000007,CORNERWAYS MEDICAL CENTRE,-2.8559199999999998,53.422901000000003
3350.5200000000004,DR M SUARES' PRACTICE,-2.8735849999999998,53.413983999999999
2790.0700000000006,TARBOCK MEDICAL CENTRE,-2.8310490000000001,53.404553
4222.5600000000004,PRESCOT MEDICAL CENTRE,-2.8052950000000001,53.426707
3675.5999999999999,HOLLIES MEDICAL CENTRE,-2.8286069999999999,53.367868000000001
9481.7200000000012,DR MAASSARANI & PARTNERS,-2.8865599999999998,53.495201000000002
612.46000000000004,ROBY MEDICAL CENTRE,-2.8684820000000002,53.411620999999997
2644.3700000000003,HILLSIDE HOUSE SURGERY,-2.8428070000000001,53.419525999999998
3206.6500000000001,NUTGROVE VILLA SURGERY,-2.8409409999999999,53.410378000000001
6472.2200000000003,HIGH PASTURES SURGERY,-2.9465340000000002,53.519395000000003
3998.4200000000001,LIVERPOOL RD MEDICAL PRACTICE,-3.0233020000000002,53.486656000000004
4966.6400000000003,WESTWAY MEDICAL CENTRE,-2.9439320000000002,53.515597
3779.2199999999993,15 SEFTON ROAD,-3.0003160000000002,53.471271000000002
1650.01,LITHERLAND PRACTICE,-3.0027330000000001,53.472726999999999
2386.3699999999994,RAWSON ROAD MEDICAL CENTRE,-3.0158550000000002,53.468930999999998
1580.3099999999999,THORNTON SURGERY,-2.9977589999999998,53.497065999999997
1044.0699999999999,HIGHTOWN VILLAGE SURGERY,-3.0583689999999999,53.530081000000003
5754.3699999999999,THE VILLAGE SURGERY FORMBY,-3.0616699999999999,53.555903999999998
7617.1899999999996,GRANGE SURGERY,-3.0127549999999998,53.637172
2692.6199999999999,ROE LANE SURGERY,-2.9677579999999999,53.653633999999997
1744.45,THE FAMILY SURGERY,-3.0113560000000001,53.629264999999997
7339.0799999999999,MILL STREET MEDICAL CTR.,-2.7399420000000001,53.456567999999997
4679.1400000000003,BILLINGE MEDICAL PRACTICE,-2.7069510000000001,53.497666000000002
4970.9200000000001,HAYDOCK MEDICAL CENTRE,-2.6565539999999999,53.468333999999999
6927.0899999999992,LIME GROVE SURGERY,-2.6565539999999999,53.468333999999999
7375.8199999999997,PARK HOUSE SURGERY,-2.7241490000000002,53.454211000000001
2280.73,RAINFORD HEALTH CENTRE,-2.7817460000000001,53.500694000000003
3423.7299999999996,THE BOWERY MEDICAL CENTRE,-2.7579829999999999,53.436202999999999
3028.3399999999992,GARSWOOD SURGERY,-2.681273,53.496386000000001
247.28,ST HELENS ROTA OOH,-2.7503350000000002,53.453240000000001
32.5,ST HELENS COMMUNITY COPD SERVICE,-2.7849539999999999,53.420468999999997
4347.5100000000002,YEW TREE CENTRE,-2.8751090000000001,53.428812999999998
4431.7200000000003,LANGBANK MEDICAL CENTRE,-2.9277000000000002,53.440812000000001
6425.79,THE VILLAGE SURGERY,-2.89683,53.353909000000002
1588.25,GATEACRE MEDICAL CENTRE,-2.8575300000000001,53.385435000000001
5061.6299999999992,TOWNSEND MEDICAL CENTRE,-2.9453170000000002,53.429436000000003
3494.4000000000001,EARLE ROAD MEDICAL CENTRE,-2.9430160000000001,53.398876000000001
8753.8299999999999,THE ELMS MEDICAL CENTRE,-2.9568880000000002,53.382342000000001
2970.5,THE ASH SURGERY,-2.9330539999999998,53.374566999999999
7677.2399999999998,OLD SWAN HEALTH CENTRE,-2.9161869999999999,53.411597
4920.369999999999,BROWNLOW HEALTH  @ PRINCES PARK,-2.9516499999999999,53.391534999999998
6460.6700000000001,JUBILEE MEDICAL CENTRE,-2.902288,53.448628999999997
1.5,ST HELENS OOH,-2.74261,53.456685999999998
7618.9800000000014,THE GREY ROAD SURGERY,-2.9667590000000001,53.449067999999997
2141.8699999999999,RUTHERFORD MEDICAL CENTRE,-2.9103319999999999,53.390320000000003
7876.9499999999989,LONG LANE,-2.9250050000000001,53.456023999999999
10392.959999999999,VAUXHALL HEALTH CENTRE,-2.9845640000000002,53.419393999999997
2704.1999999999998,HILLFOOT HEALTH,-2.8591510000000002,53.359184999999997
2464.3800000000001,SPEKE HC - DR MANGARAI,-2.8311809999999999,53.341071999999997
46.179999999999993,HALTON OOH (PRIMARY CARE 24),-2.9299550000000001,53.404119999999999
3851.9100000000003,SANDRINGHAM MEDICAL CENTRE,-2.9523380000000001,53.380572000000001
4736.2300000000005,DUNSTAN VILLAGE GROUP PRACTICE,-2.9430160000000001,53.398876000000001
4553.7899999999991,GREAT HOMER STREET MEDICAL CENTRE,-2.968594,53.425851999999999
2649.7699999999995,BIGHAM ROAD MEDICAL CENTRE,-2.9459939999999998,53.413783000000002
1724.8899999999999,WEST SPEKE HEALTH CENTRE,-2.8554520000000001,53.344793000000003
3209.1900000000005,PONTELAND MEDICAL GROUP,-1.7496560000000001,55.051876
21242.690000000002,RAILWAY MEDICAL GROUP,-1.5142340000000001,55.128813999999998
2387.0700000000002,WHITE MEDICAL GROUP,-1.7496560000000001,55.051876
11391.59,MARINE MEDICAL GROUP,-1.5149360000000001,55.127873000000001
33.799999999999997,HALTON RAPID RESPONSE RESPIRATORY TEAM,-2.6946810000000001,53.323265999999997
3584.7199999999993,CORBRIDGE HEALTH CENTRE,-2.012702,54.973861999999997
2059.0500000000002,BELLINGHAM PRACTICE,-2.2579980000000002,55.143839999999997
2056.71,GAS HOUSE LANE SURGERY,-1.683424,55.171694000000002
2076.8800000000001,THE ADDERLANE SURGERY,-1.845745,54.962605000000003
3431.3499999999999,VICTORIA MEDICAL CENTRE,-1.5218700000000001,54.973849999999999
15031.480000000001,MARSDEN RD. HEALTH CENTRE,-1.400136,54.980463999999998
6014.3699999999999,WHITBURN SURGERY,-1.3646670000000001,54.952795000000002
6608.8600000000006,WEARSIDE MEDICAL PRACTICE - PALLION,-1.4141950000000001,54.908603999999997
4776.3100000000004,HERRINGTON MEDICAL CENTRE,-1.4833259999999999,54.865684999999999
3285.1100000000001,JOSHI NA,-1.4072169999999999,54.870953999999998
8743.9799999999996,GALLERIES MEDICAL PRACTICE,-1.531242,54.898814000000002
6538.9800000000005,FORGE MEDICAL PRACTICE,-1.4126939999999999,54.910063000000001
4570.5699999999997,THE BROADWAY MEDICAL PRACTICE,-1.4221809999999999,54.890239000000001
5482.2799999999997,NEW WASHINGTON MEDICAL GROUP,-1.524864,54.913411000000004
4413.1500000000005,GRANGEWOOD SURGERY,-1.4987109999999999,54.866413999999999
4958.9400000000005,HAPPY HOUSE SURGERY,-1.422785,54.885012000000003
1193.2899999999997,RICKLETON MEDICAL CENTRE,-1.547496,54.880192999999998
1811.8300000000002,CHESTER SURGERY,-1.406774,54.901074999999999
7671.9699999999993,SPENCER ST SURGERY,-2.9311530000000001,54.894880999999998
11049.02,EDEN MEDICAL GROUP,-2.9520930000000001,54.894205999999997
2852.6699999999996,DISTINGTON SURGERY,-3.5413510000000001,54.595305000000003
4092.1399999999999,CASTLEHEAD MEDICAL CENTRE,-3.1345719999999999,54.59769
2599.0500000000002,SILLOTH GROUP MEDICAL PRACTICE,-3.3935710000000001,54.869703999999999
17736.389999999999,FELLVIEW HEALTHCARE,-3.5329839999999999,54.482531999999999
5670.1099999999988,ORCHARD HOUSE SURGERY,-3.5499269999999998,54.645006000000002
7198.6399999999994,MANSION HOUSE SURGERY,-3.5884200000000002,54.545946000000001
3687.02,SOLWAY HEALTH SERVICES,-3.551342,54.642687000000002
5196.8400000000001,WARWICK SQUARE GROUP PRACTICE,-2.9268100000000001,54.893135000000001
194.63,CUMBRIA HLTH ON CALL (N) OOH,-2.919019,54.883065999999999
7476.6700000000001,LONGRIGG MEDICAL CENTRE,-1.5458769999999999,54.943756999999998
3802.0800000000004,FELL COTTAGE SURGERY,-1.5941989999999999,54.938409999999998
8351.5399999999991,CHAINBRIDGE MEDICAL PARTNERSHIP,-1.7127289999999999,54.964221999999999
6772.4499999999998,WREKENTON MEDICAL GROUP,-1.570427,54.926383999999999
3246.1700000000001,OLDWELL SURGERY,-1.7236020000000001,54.955173000000002
2671.2800000000002,THE BRIDGES MEDICAL PRACTICE,-1.6036630000000001,54.962972000000001
4329.4200000000001,HOLLYHURST MEDICAL CENTRE,-1.7236020000000001,54.955173000000002
13964.43,WALKER MEDICAL GROUP,-1.545226,54.972439000000001
3902.8400000000001,THE GROVE MEDICAL GROUP,-1.6190850000000001,55.002175999999999
4266.8199999999997,PARKWAY MEDICAL GROUP,-1.7151879999999999,54.996685999999997
10104.479999999998,WESTERHOPE MEDICAL GROUP,-1.6868110000000001,54.997776999999999
8363.9500000000007,BETTS AVENUE MEDICAL GROUP,-1.6758630000000001,54.973287999999997
5242.6799999999994,FENHAM HALL SURGERY,-1.6602250000000001,54.984451
2352.5699999999997,BEAUMONT PARK SURGERY,-1.4733909999999999,55.048082999999998
6675.8400000000001,WIDEOPEN MEDICAL CENTRE,-1.624517,55.048256000000002
3807.1400000000003,NELSON MEDICAL GROUP,-1.451074,55.009056000000001
3511.3299999999999,MONKSEATON MEDICAL CENTRE,-1.4724889999999999,55.036926999999999
5588.3299999999999,PARK ROAD MEDICAL PRACT,-1.531852,54.992750999999998
1699.3599999999999,PARK PARADE PRACTICE,-1.4504410000000001,55.042769999999997
7318.8399999999992,PRACTICE TWO,-0.20106399999999999,54.084715000000003
35217.760000000002,HOLDERNESS HEALTH,0.034937000000000003,53.728715999999999
5269.8299999999999,MANOR ROAD SURGERY,-0.43256499999999998,53.845274000000003
4077.1399999999999,OLD FIRE STATION SURGERY,-0.43517699999999998,53.840868
8610.1399999999994,FIELD HOUSE SURGERY  BRIDLINGTON,-0.193186,54.086599999999997
5650.2600000000002,THE MEDICAL CENTRE  DRIFFIELD,-0.43967600000000001,54.006256999999998
102.7,BEVERLEY URGENT CARE CENTRE OOH,-0.41317399999999999,53.852777000000003
9561.75,WHITBY GROUP PRACTICE,-0.62317,54.485919000000003
5058.2199999999993,LAMBERT MEDICAL CENTRE,-1.3423909999999999,54.231679999999997
2987.4000000000001,CENTRAL DALES PRACTICE,-2.197038,54.304273999999999
11651.16,MOWBRAY HOUSE SURGERY,-1.439147,54.335630999999999
4178.7399999999998,THE FRIARY SURGERY,-1.7383420000000001,54.404898000000003
3244.0900000000001,HAREWOOD MEDICAL PRACTICE,-1.7219279999999999,54.376381000000002
3998.8999999999996,NIDDERDALE GROUP PRACTICE,-1.7609379999999999,54.086615000000002
2943.8499999999995,DR AKESTER & PARTNERS,-1.6500680000000001,54.163995999999997
4013.6500000000005,STOCKWELL ROAD SURGERY,-1.4667619999999999,54.011999000000003
9602.7199999999993,KINGSTON HEALTH (HULL),-0.384658,53.742010999999998
3551.46,WILBERFORCE SURGERY,-0.34209499999999998,53.746220999999998
4308.0500000000002,THE AVENUES MEDICAL CENTRE,-0.37421500000000002,53.755631999999999
8329.6899999999987,DR IA GALEA AND PARTNERS,-0.39509499999999997,53.731938999999997
7353.9300000000003,WOLSELEY MEDICAL CENTRE,-0.35506900000000002,53.746195
45857.649999999994,MODALITY PARTNERSHIP (HULL),-0.35625499999999999,53.764986999999998
2141.5799999999999,PRINCES MEDICAL CENTRE,-0.35992499999999999,53.753343000000001
721.80000000000007,NAYAR JK,-0.36836600000000003,53.768793000000002
5017.2600000000002,DRS RAUT AND THOUFEEQ,-0.326542,53.805593999999999
8387.4500000000007,HAXBY GROUP CALVERT & NEWINGTON,-0.37811,53.741948999999998
6367.5900000000001,HAXBY GROUP HULL,-0.35289999999999999,53.802041000000003
3871.9900000000002,DR AP KUMAR,-0.059040000000000002,53.573512999999998
5134.1100000000006,PELHAM MEDICAL GROUP,-0.091675000000000006,53.563205000000004
1519,HUMBERVIEW SURGERY,-0.059040000000000002,53.573512999999998
8.120000000000001,SUNDERLAND COMMUNITY PAEDIATRICS TEAM,-1.4103270000000001,54.902214000000001
1879.8600000000001,DR P SURESH BABU,-0.069240999999999997,53.564095000000002
10178.490000000002,CAMBRIDGE AVENUE MEDICAL CENTRE,-0.65185000000000004,53.558363
6522.8800000000001,CHURCH LANE MEDICAL CENTRE,-0.66177399999999997,53.585459
5344.7600000000002,CEDAR MEDICAL PRACTICE,-0.65528699999999995,53.570914000000002
2095.2999999999997,MARKET HILL 8 TO 8 CENTRE,-0.65239999999999998,53.592365000000001
11185.85,DERWENT PRACTICE,-0.79772799999999999,54.132582999999997
6728.9499999999998,FILEY SURGERY,-0.29034399999999999,54.210085999999997
6729.7099999999991,SCARBOROUGH MEDICAL GROUP,-0.44154100000000002,54.297615
4083.5600000000004,AYTON AND SNAINTON MEDICAL PRACTICE,-0.49364200000000003,54.246046
1639.7199999999998,HACKNESS ROAD SURGERY,-0.44457099999999999,54.294696999999999
2742.23,HUNMANBY SURGERY,-0.31945099999999998,54.180185999999999
6692.6500000000005,POCKLINGTON GROUP PRACTICE,-0.78133600000000003,53.924503000000001
2360.6999999999998,UNITY HEALTH,-1.029922,53.950316000000001
3550.3399999999997,SOUTH MILFORD SURGERY,-1.2491719999999999,53.779277999999998
1581.51,ELVINGTON MEDICAL PRACTICE,-0.94882999999999995,53.924996999999998
3758.8500000000004,FRONT STREET SURGERY,-1.1269229999999999,53.954402999999999
4044.96,TADCASTER MEDICAL CENTRE,-1.25824,53.885494000000001
9065.0100000000002,WALDERSLADE SURGERY,-1.4377200000000001,53.499820999999997
12279.66,HILL BROW SURGERY PMS PRACTICE,-1.5090110000000001,53.587152000000003
8737.6599999999999,DR MELLOR & PARTNERS,-1.370689,53.533822999999998
9106.6000000000004,BURLEIGH MEDICAL CENTRE,-1.477568,53.549878999999997
4290.2799999999997,THE GROVE MEDICAL PRACTICE,-1.4859770000000001,53.547083999999998
8018.96,KINGFISHER FAMILY PRACTICE,-0.95063399999999998,53.325451000000001
25339.879999999997,NEWGATE MEDICAL GROUP,-1.123405,53.301065000000001
1093.3600000000001,BAWTRY AND BLYTH MEDICAL,-1.01945,53.431871999999998
2369.1900000000001,WESTWOOD PRIMARY CARE CENTRE,-1.110806,53.296467999999997
7591.1500000000005,HATFIELD HEALTH CENTRE,-1.008445,53.574793
8364.9799999999996,THE SCOTT PRACTICE,-1.151432,53.507078
6143.9899999999998,WHITE HOUSE FARM MEDICAL CENTRE,-1.0585599999999999,53.536430000000003
3,RIPON OOH,-1.5271950000000001,54.135435999999999
11320.25,CONISBROUGH GROUP PRACTICE,-1.2376529999999999,53.482281999999998
3147.5100000000002,EDLINGTON HEALTH CENTRE PRACTICE,-1.193379,53.480823999999998
9634.3099999999995,FIELD ROAD SURGERY,-1.0296909999999999,53.600200999999998
5015.3499999999995,PETERSGATE MEDICAL CENTRE,-1.165119,53.543926999999996
3276.29,THE NELSON PRACTICE,-1.165119,53.543926999999996
4327.5599999999995,WEST END CLINIC,-1.0826469999999999,53.479610999999998
29,RDASH FT COMMUNITY NURSING,-1.146558,53.497487999999997
3,EXTENDED ACCESS PCD CONVERSATION CLUB,-1.1244320000000001,53.522173000000002
44.07,WALK-IN CENTRE GP IN-HOURS,-1.580781,54.93938
37.5,GATESHEAD EXTRA CARE,-1.580781,54.93938
7047.1399999999994,KIVETON PARK MEDICAL PRACTICE,-1.270122,53.339283999999999
5008.0299999999997,BRINSWORTH MEDICAL CENTRE,-1.380687,53.407837000000001
8986.5700000000015,CLIFTON MEDICAL CENTRE,-1.3524309999999999,53.429997
1653.6599999999999,QUEEN'S MEDICAL CENTRE,-1.196833,53.422268000000003
3953.0700000000006,WALKLEY HOUSE MEDICAL CENTRE,-1.5022489999999999,53.392271000000001
9111.4399999999987,FORGE HEALTH GROUP,-1.46532,53.399239000000001
2225.1099999999997,AVENUE MEDICAL PRACTICE,-1.4903360000000001,53.3245
2049.8099999999999,BROOMHILL SURGERY,-1.5055829999999999,53.378234999999997
2351.4700000000003,NETHERGREEN SURGERY,-1.5266059999999999,53.368127000000001
5619.29,HANDSWORTH MEDICAL PRACTICE,-1.383405,53.371707999999998
7109.75,ECCLESFIELD GROUP PRACT,-1.465441,53.444803
1084.71,ABBEY LANE SURGERY,-1.483117,53.339101999999997
155.90000000000001,THE LEGER CLINIC,-1.1240289999999999,53.525475999999998
5073.9199999999992,SHIREGREEN MEDICAL CENTRE,-1.440596,53.430083000000003
3305.1999999999998,HEELEY GREEN SURGERY,-1.461517,53.358494
2580.1700000000001,DEEPCAR MEDICAL CENTRE,-1.5783400000000001,53.480193
2331.7999999999997,CROOKES PRACTICE,-1.502259,53.383659999999999
7301.0900000000011,DOVERCOURT GROUP PRACTICE,-1.441964,53.375061000000002
5977.2899999999991,VALLEY MEDICAL CENTRE,-1.594911,53.482334000000002
3760.25,MILL ROAD SURGERY,-1.465441,53.444803
2555.4900000000002,DUNNINC ROAD SURGERY,-1.4489989999999999,53.435569000000001
893.11000000000001,GREYSTONES MEDICAL CENTRE,-1.5100020000000001,53.363852999999999
440.11000000000001,THE MEDICAL CENTRE DR OKORIE,-1.397219,53.411076999999999
65,COMMUNITY COPD CLINIC,-1.4352130000000001,53.333016000000001
6862.0100000000002,FISHER MEDICAL CENTRE,-2.0214080000000001,53.961669999999998
5269.4799999999996,DYNELEY HOUSE SURGERY,-2.0142440000000001,53.960493999999997
5826.5300000000007,SILSDEN & STEETON MEDICAL PRACTICE,-1.9441409999999999,53.911822000000001
7646.2699999999995,LING HOUSE MEDICAL CENTRE,-1.910393,53.868336999999997
7369.8100000000004,HOLYCROFT SURGERY,-1.914477,53.863827999999998
8132.4499999999998,KILMENY GROUP MEDICAL PRACTICE,-1.9210609999999999,53.855716000000001
1223.96,NORTH STREET MEDICAL PRACTICE,-1.9098090000000001,53.871006000000001
5890.9400000000005,I G MEDICAL,-1.8160480000000001,53.923558
4309.6300000000001,MANOR MEDICAL PRACTICE,-1.7881860000000001,53.802973000000001
6631.9000000000005,BINGLEY MEDICAL PRACTICE,-1.8278289999999999,53.846936999999997
3612.2799999999997,BAILDON MEDICAL PRACTICE,-1.7689280000000001,53.853065999999998
5436.6599999999999,THORNTON & DENHOLME MEDICAL PRACTICE,-1.8472919999999999,53.790483000000002
5419.4599999999991,LEYLANDS LANE MEDICAL PRACTICE,-1.792538,53.812582999999997
837.30000000000007,SHEFFIELD MEDICAL CENTRE,-1.4604779999999999,53.390849000000003
16705.720000000001,THE RIDGE MEDICAL PRACT.,-1.7798590000000001,53.780909999999999
2000.9299999999998,ECCLESHILL VILLAGE SURGERY,-1.7256290000000001,53.821148999999998
6313.3599999999997,STAINLAND ROAD MEDICAL CENTRE,-1.8573919999999999,53.685879999999997
7611.5100000000002,CHURCH LANE SURGERY,-1.7825489999999999,53.703063999999998
3027.0699999999997,SPRING HALL GROUP PRACTICE,-1.8928990000000001,53.721063999999998
7187.8900000000012,BANKFIELD SURGERY,-1.8351459999999999,53.686331000000003
4407.4899999999989,THE BOULEVARD MEDICAL PRACTICE,-1.8675900000000001,53.716715000000001
3224.7600000000002,KING CROSS PRACTICE,-1.880201,53.715308
6245.3099999999995,CARITAS GROUP PRACTICE,-1.9063920000000001,53.752892000000003
2711.4899999999998,LONGROYDE SURGERY,-1.7907280000000001,53.694045000000003
1813.29,GRANGE MEDICAL CENTRE,-1.7774380000000001,53.787604999999999
1981.0800000000002,BILTON MEDICAL CENTRE,-1.7695350000000001,53.798363999999999
6950.9499999999989,ELMWOOD FAMILY DOCTORS,-1.78331,53.578378000000001
5031.5299999999997,MELTHAM ROAD SURGERY,-1.798052,53.631796999999999
5194.1299999999992,THE WATERLOO PRACTICE,-1.737438,53.645186000000002
3292.3399999999997,KIRKBURTON HEALTH CENTRE,-1.7007589999999999,53.608212999999999
2098.9400000000001,LEPTON AND KIRKHEATON SURGERIES,-1.7106030000000001,53.633757000000003
2069.8200000000002,MELTHAM GROUP PRACTICE,-1.8494189999999999,53.594301999999999
38.100000000000001,PGPA IMPROVED ACCESS CENTRAL,-1.8928990000000001,53.721063999999998
4798.0399999999991,DR BOULTON AND PARTNERS,-1.8287119999999999,53.637543000000001
2631.5900000000001,SLAITHWAITE HEALTH CENTRE,-1.8783890000000001,53.623545999999997
50.5,EAST HULL FAMILY PRACTICE,-0.268619,53.77908
1470.9300000000001,DR AHMED & PARTNERS,-1.782551,53.655614999999997
9385.0799999999999,UNDERCLIFFE SURGERY,-1.67818,53.707223999999997
8192.8600000000006,CLECKHEATON GROUP PRACTICE,-1.71062,53.724052
622.18000000000006,THORNTON LODGE SURGERY,-1.796027,53.637797999999997
3074.5500000000002,LIVERSEDGE MEDICAL CENTRE,-1.690652,53.712848000000001
2408.9299999999998,KIRKGATE SURGERY,-1.6676249999999999,53.732233999999998
1246.29,DR MAHMOOD & PARTNERS,-1.661589,53.677829000000003
184.51999999999998,LOCALA NORTH KIRKLEES COMMUNITY MATRONS,-1.626822,53.710923000000001
127.49000000000001,THE WHITEHOUSE CENTRE,-1.790389,53.646380999999998
10226.5,LUPSET HEALTH CENTRE,-1.524006,53.672412000000001
7632.5100000000002,OUTWOOD PARK MEDICAL CENTRE,-1.512284,53.710943
7523.3000000000002,STUART ROAD,-1.3152790000000001,53.693449999999999
20985.240000000002,WHITE ROSE SURGERY,-1.293668,53.595432000000002
5520.8599999999997,CHAPELTHORPE,-1.507287,53.644525999999999
4979.4200000000001,STATION LANE,-1.3586400000000001,53.681142000000001
8932.2299999999996,DR G LEES & PARTNERS,-1.5932120000000001,53.796407000000002
9303.8899999999994,DR L FREEMAN & PARTNERS,-1.4494419999999999,53.752493000000001
92.900000000000006,NIMBUS CARE LTD,-1.131184,53.953615999999997
4806.2799999999997,ALWOODLEY MEDICAL CENTRE,-1.551963,53.846932000000002
2807.0300000000002,HILLFOOT SURGERY,-1.6874169999999999,53.799852999999999
8766.9599999999991,LEEDS CITY MEDICAL PRACTICE,-1.555879,53.778323
5308.4499999999998,LOFTHOUSE SURGERY,-1.495382,53.729441999999999
2480.8499999999999,DR JJ MCPEAKES PRACTICE,-1.5991040000000001,53.742058
7337.3400000000001,CHEVIN MEDICAL PRACTICE,-1.693762,53.906875999999997
5361.0099999999993,GIBSON LANE PRACTICE,-1.367856,53.771352
1629.95,SHADWELL MEDICAL CENTRE,-1.5257769999999999,53.850167999999996
8899.8500000000004,WINDSOR HOUSE GROUP PRACTICE,-1.605537,53.744776000000002
2391.4200000000001,DR KW MCGECHAEN & PARTNER,-1.6682650000000001,53.806417000000003
5712.0699999999997,MEANWOOD HEALTH CENTRE,-1.5658110000000001,53.827167000000003
4197.71,ABBEY GRANGE MEDICAL PRACTICE,-1.6015820000000001,53.818303
3450,KIPPAX HALL SURGERY,-1.36896,53.766539999999999
2815.96,DR S M CHEN & PARTNER,-1.651546,53.799214999999997
805.78999999999996,CONWAY MEDICAL CENTRE,-1.513476,53.811120000000003
963.36000000000001,CHAPELTOWN FAMILY SURGERY,-1.5261990000000001,53.811432000000003
603.84000000000003,LEEDS STUDENT MEDICAL PRACTICE,-1.549838,53.807811000000001
4392.1099999999997,MOORFIELD HOUSE SURGERY,-1.390231,53.795763000000001
827.62,NEWTON SURGERY,-1.5329539999999999,53.821326999999997
565.19000000000005,YORK STREET HEALTH PRACTICE,-1.5325610000000001,53.796554
1857.0300000000002,BRAMHAM MEDICAL CENTRE,-1.3543540000000001,53.882984
1456.75,SHAKESPEARE MEDICAL PRACTICE,-1.525196,53.802098000000001
5233.9699999999993,WHITEHALL MEDICAL PRACTICE,-1.2514799999999999,52.370691999999998
4823.0900000000001,CLIFTON ROAD SURGERY,-1.252062,52.371909000000002
2135.8000000000002,DUNCHURCH SURGERY,-1.2901929999999999,52.337873999999999
358.94,GRANGE MEDICARE - NEW CROSS SURGERY,-1.4850110000000001,53.747069000000003
3015.54,ALLESLEY PARK MEDICAL CTR,-1.5648139999999999,52.385809999999999
6148.1400000000003,THE FORUM HEALTH CENTRE,-1.458323,52.416817999999999
4914.3899999999994,GODIVA GROUP PRACTICE,-1.482836,52.412773999999999
3934.8499999999999,MANSFIELD MEDICAL CENTRE,-1.484577,52.405976000000003
3619.1700000000005,MOSELEY AVENUE SURGERY,-1.525425,52.419893000000002
2292.1900000000001,WESTWOOD MEDICAL H/CENTRE,-1.5605169999999999,52.404322999999998
538.79999999999995,ONE MEDICARE LLP-THE LIGHT,-1.5456700000000001,53.800046999999999
3616.1300000000001,BROOMFIELD PARK MED.CTR.,-1.5276320000000001,52.407843999999997
5394.7099999999991,HOLBROOKS HEALTH TEAM,-1.511371,52.448874000000004
5223.2299999999996,HENLEY GREEN MEDICAL CENTRE,-1.4542839999999999,52.428369000000004
1485.1800000000001,QUINTON PARK MEDICAL CENTRE,-1.503924,52.391323999999997
1281.1199999999999,BREDON AVENUE SURGERY,-1.4464649999999999,52.39978
2034.2400000000002,WALSGRAVE HEALTH CENTRE,-1.4437089999999999,52.422556999999998
4538.170000000001,CLAY LANE MEDICAL PRACTICE,-1.482836,52.412773999999999
2803.8699999999999,JUBILEE HEALTH CENTRE,-1.5178739999999999,52.431351999999997
941.41999999999996,EDGWICK MEDICAL CENTRE,-1.4983329999999999,52.432141999999999
1686.5799999999999,BROWNSOVER MEDICAL CENTRE,-1.241479,52.390236999999999
5251.3500000000004,WESTFIELD SURGERY,-2.7445170000000001,52.225951000000002
1911.0699999999999,GOLDEN VALLEY PRACTICE,-2.8918509999999999,51.952660999999999
5245.1199999999999,THE MARCHES SURGERY,-2.7445170000000001,52.225951000000002
3796.0999999999995,WEOBLEY & STAUNTON ON WYE SURGERIES,-2.8718699999999999,52.159258000000001
2069.2200000000003,MUCH BIRCH SURGERY,-2.7232419999999999,51.970450999999997
27085.32,HEREFORD MEDICAL GROUP,-2.7202739999999999,52.058534000000002
5696.8900000000003,ALTON STREET SURGERY,-2.5829710000000001,51.911934000000002
2100.0699999999997,THE SURGERY KINGSTONE,-2.8418079999999999,52.022466000000001
2320.2399999999998,FOWNHOPE MEDICAL CENTRE,-2.5946180000000001,52.007663999999998
3708.5099999999998,PEAR TREE SURGERY,-1.680145,52.563693999999998
15,MODALITY AWC EXTENDED ACCESS,-1.8893709999999999,53.858953999999997
436.03999999999996,WHITESTONE SURGERY,-1.4356629999999999,52.499906000000003
129.15000000000001,MERIDIAN PRACTICE,-1.508005,52.413401
166.59999999999999,NHS COVENTRY HEALTHCARE & WIC,-1.508005,52.413401
2022.3099999999999,RIVERSLEY ROAD SURGERY,-1.4692620000000001,52.519002999999998
406.44,PRIMARY CARE EXTENDED HOURS,-1.511387,52.418092000000001
4667.2600000000002,OLD MILL SURGERY,-1.474926,52.519765
2310.5500000000002,BULKINGTON SURGERY,-1.4231389999999999,52.476453999999997
1725.97,WOODLANDS SURGERY,-1.491376,52.479427000000001
829.58999999999992,LEICESTER ROAD SURGERY,-1.473177,52.483105999999999
12177.690000000001,WINYATES HEALTH CENTRE,-1.894547,52.303347000000002
5055.3500000000004,NEW ROAD SURGERY BROMSGROVE,-2.0562909999999999,52.330596999999997
2639.1000000000004,NEW ROAD SURGERY,-2.0222329999999999,52.392288999999998
5794.2200000000012,CHURCHFIELDS SURGERY,-2.0597279999999998,52.337612
1915.9000000000001,THE RIDGEWAY SURGERY,-1.938925,52.260376999999998
2080.8600000000001,CATSHILL VILLAGE SURGERY,-2.0544419999999999,52.366602999999998
1193.4199999999998,CRABBS CROSS MEDICAL CENTRE,-1.9437040000000001,52.281407000000002
2610.2400000000002,CRABBS CROSS SURGERY,-1.9437040000000001,52.281407000000002
252.40999999999997,CARE UK OOH SERVICE,-2.1996709999999999,52.220224000000002
3656.6799999999998,POOL MEDICAL CENTRE,-1.89771,52.270708999999997
4767.4899999999998,CLARENDON LODGE MEDICAL CENTRE,-1.5317149999999999,52.294043000000002
5394.54,BIDFORD HEALTH CENTRE,-1.8349439999999999,52.171788999999997
3032.5299999999997,SOUTHAM SURGERY,-1.3857520000000001,52.251212000000002
4890.29,WATERSIDE MEDICAL CENTRE,-1.5299970000000001,52.283202000000003
2217.3500000000004,TANWORTH-IN-ARDEN MED CTR,-1.8447480000000001,52.342097000000003
2411.8799999999997,WHITNASH MEDICAL CENTRE,-1.5259199999999999,52.262422000000001
1567.3999999999999,MEON MEDICAL CENTRE,-1.7430019999999999,52.120514
1516.74,BUDBROOKE MEDICAL CENTRE,-1.623051,52.282801999999997
339,ARDEN MEDICAL CENTRE,-1.713954,52.190959999999997
676,LAPWORTH SURGERY,-1.728375,52.337823
1426.8099999999999,ST WULFSTAN SURGERY,-1.398312,52.247706000000001
3646.2700000000004,ST MARTIN'S GATE SURGERY,-2.2039179999999998,52.194952999999998
4768.5999999999995,THORNELOE LODGE SURGERY,-2.2268409999999998,52.202325000000002
5882.3199999999997,DR. J BARRELL & PARTNERS,-2.2289509999999999,52.057682
1833.9200000000001,KNIGHTWICK SURGERY,-2.3948309999999999,52.200398999999997
2009.4999999999995,GREY GABLE SURGERY,-1.9795959999999999,52.215308
1486.3599999999999,FARRIER HOUSE SURGERY,-2.2232799999999999,52.196240000000003
7728.8500000000004,NORTHUMBERLAND HOUSE SURGERY,-2.2610950000000001,52.384189999999997
7533.0100000000002,AYLMER LODGE COOKLEY PARTNERSHIP,-2.2610950000000001,52.384189999999997
5213.0899999999992,STOURPORT HEALTH CENTRE,-2.2776209999999999,52.343859000000002
1547.3999999999996,WOLVERLEY SURGERY,-2.2534480000000001,52.411141000000001
2649.9299999999998,MEADOWBROOK SURGERY,-2.0713080000000001,52.446603000000003
2903.3699999999999,LAPAL MEDICAL PRACTICE,-2.0161739999999999,52.4587
5997.2999999999993,LOWER GORNAL MEDICAL PRACTICE,-2.1320009999999998,52.515818000000003
5958.3399999999983,STEPPINGSTONES MEDICAL PRACTICE,-2.0906829999999998,52.509537000000002
3483.3299999999999,FELDON LANE PRACTICE,-2.0282710000000002,52.467325000000002
15872.270000000002,WYCHBURY MEDICAL GROUP,-2.110976,52.441572999999998
2777.5200000000004,CROSS STREET HEALTH CENTRE,-2.0890490000000002,52.510204000000002
1232.0300000000002,CLEMENT ROAD MEDICAL PRACTICE,-2.033839,52.472087999999999
1900.3500000000001,BEAN MEDICAL PRACTICE,-2.0759859999999999,52.505808000000002
2154.9400000000001,LINKS MEDICAL PRACTICE,-2.079024,52.487972999999997
1148.6599999999999,ALEXANDRA MEDICAL CENTRE,-2.0630259999999998,52.454036000000002
3342.9700000000003,STOURSIDE MEDICAL PRACTICE,-2.0492110000000001,52.449095
1469.75,DUDLEY WOOD SURGERY,-2.0921470000000002,52.477576999999997
342.35000000000002,DUDLEY URGENT CARE CENTRE OOH,-2.1185179999999999,52.502943999999999
9161.6800000000003,TOWER HILL PARTNERSHIP,-1.91124,52.530450000000002
6692.1299999999992,RAYDOCS NEWTOWN,-1.9045049999999999,52.497976000000001
317.32999999999998,FIVE WAYS HEALTH CENTRE,-1.9219269999999999,52.475073000000002
2205.1200000000003,NEWPORT MEDICAL PRACTICE,-1.8796330000000001,52.45223
3127.8800000000001,MODALITY ENKI MEDICAL PRACTICE,-1.9203440000000001,52.501148999999998
1967.0699999999997,CHURCH ROAD SURGERY,-1.8752359999999999,52.503315999999998
651.92999999999995,HOLYHEAD PRIMARY HEALTH CARE CENTRE,-1.948304,52.505698000000002
365.56,SOHO ROAD HEALTH CENTRE,-1.9349449999999999,52.503093999999997
6236.2700000000004,DR SA AHMED & PARTNERS,-1.9964459999999999,52.552833999999997
22626.84,REGIS MEDICAL CENTRE,-2.044492,52.475152999999999
5525.7600000000002,NORVIC FAMILY PRACTICE,-1.9601329999999999,52.489727999999999
6720.4800000000005,SWANPOOL MEDICAL CENTRE,-2.0571350000000002,52.540728999999999
2051.5300000000002,DR GUDI PV & PARTNER,-2.0112589999999999,52.536236000000002
5029.8299999999999,GREAT BARR PRACTICE,-1.915346,52.549016999999999
578.96000000000004,BEARWOOD ROAD SURGERY,-1.969417,52.482125000000003
1350.28,DR AKHTAR R,-1.9322250000000001,52.547438999999997
1786.6700000000001,NEW STREET SURGERY,-2.0127679999999999,52.536921999999997
1295.9000000000001,THE VICTORIA SURGERY,-2.0570689999999998,52.523477999999997
7029.3200000000006,GREAT BRIDGE P/SHIP FOR HEALTH,-2.0325769999999999,52.528908000000001
4606.2599999999993,DR ARORA RK,-1.9979819999999999,52.516002999999998
968.76999999999987,ST PAUL'S PARTNERSHIP - LYNG MEDICAL,-1.9979819999999999,52.516002999999998
2063.4099999999999,DR BHADAURIA BS,-2.0196299999999998,52.551654999999997
721.65000000000009,DR SINGH M,-2.0020579999999999,52.514966000000001
2056.7600000000002,DR AGARWAL NK & PARTNER,-1.9823360000000001,52.543447999999998
747.04999999999995,DOG KENNEL LANE SURGERY,-1.995744,52.489787999999997
1064.24,WARLEY ROAD SURGERY,-1.9937260000000001,52.490192999999998
5204.6300000000001,STREETS CORNER SURGERY,-1.9277550000000001,52.629621
6802.8099999999995,LOCKFIELD SURGERY,-2.0571350000000002,52.585445
2212.5799999999999,BRACE STREET HEALTH CENTRE,-1.9833259999999999,52.577564000000002
2572.6499999999996,NEW INVENTION HEALTH CENTRE,-2.0402719999999999,52.609544
2510.9099999999999,SADDLERS HEALTH CENTRE,-1.9794639999999999,52.587684000000003
2255.25,DARLASTON FAMILY PRACTICE,-2.0363229999999999,52.56617
2504.5699999999997,WILLENHALL MEDICAL CENTRE,-2.0571350000000002,52.585445
2093.02,HARDEN HEALTH CENTRE,-1.9859579999999999,52.608552000000003
4010.9799999999996,STROUD PRACTICE,-2.0245329999999999,52.58916
1239.75,BRACE STREET HC- KUMAR,-1.9833259999999999,52.577564000000002
3605.2200000000003,ROUGH HAY SURGERY,-2.0427019999999998,52.572558999999998
2553.7399999999998,DR ALI SURGERY,-2.030939,52.567914999999999
1733.3800000000001,HIGH STREET SURGERY,-1.9682599999999999,52.629618999999998
2459.73,MODALITY DARLASTON PRACTICE,-2.0363229999999999,52.56617
1607.49,DARLASTON HEALTH CENTRE-KHAN,-2.0363229999999999,52.56617
637.46000000000004,COPD MANAGEMENT TEAM,-2.0146410000000001,52.597932999999998
1899.53,POPLARS MEDICAL CENTRE,-2.1123530000000001,52.609929000000001
1307.1499999999999,DR SURYANI,-2.0701740000000002,52.552984000000002
2462.7000000000003,LEA ROAD MEDICAL PRACTICE,-2.1408640000000001,52.575971000000003
3551.1199999999999,PENN MANOR MEDICAL PRACTICE,-2.14981,52.559823000000002
717.92000000000007,IH MEDICAL,-2.0771769999999998,52.568441999999997
5420.29,TUDOR MEDICAL CENTRE,-2.136002,52.594673
3597.1800000000003,WHITMORE REANS MEDICAL PRACTICE,-2.142522,52.595728999999999
18379.209999999999,HEALTH AND BEYOND,-2.1150709999999999,52.576358999999997
1388.03,FORDHOUSES MEDICAL CENTRE,-2.132193,52.621937000000003
3388.8899999999999,EAST PARK MEDICAL PRACTICE,-2.0971790000000001,52.586388999999997
4177.6000000000004,DR MUDIGONDA,-2.0771769999999998,52.568441999999997
1294.9700000000003,PENNFIELDS MEDICAL CENTRE,-2.1371820000000001,52.578159999999997
3243.1900000000001,SHOWELL PARK HEALTH & WALK IN CENTRE,-2.1187659999999999,52.607987999999999
2483.5799999999999,FRANKLEY HEALTH CENTRE,-2.0166460000000002,52.404890000000002
4021.0699999999997,SHAH ZAMAN SURGERY,-1.7944720000000001,52.516832000000001
78.740000000000009,WALSALL COMMUNITY NURSES,-2.0146410000000001,52.597932999999998
1573.75,THE LIMES MEDICAL CENTRE,-1.862252,52.467108000000003
1316.5999999999999,DR FOWLER,-2.1300849999999998,52.618288999999997
4282.1399999999994,KINGSFIELD MEDICAL CENTRE,-1.8930100000000001,52.427278000000001
17522.210000000003,SUTTON COLDFIELD GROUP PRACTICE,-1.8066880000000001,52.577354
3135.3599999999997,WOODLAND ROAD SURGERY,-1.962175,52.410221
5544.5,WEOLEY PARK SURGERY,-1.956826,52.438088
4309.3699999999999,HARBORNE MEDICAL PRACTICE,-1.946283,52.458581000000002
5518.2399999999998,YARDLEY GREEN MEDICAL CENTRE,-1.8390820000000001,52.475709000000002
2838.3999999999996,SHENLEY GREEN SURGERY,-1.9738960000000001,52.426433000000003
31735.27,MIDLANDS MEDICAL PARTNERSHIP,-1.8131299999999999,52.519801999999999
5642.7599999999984,EDEN COURT MEDICAL PRACTICE,-1.794009,52.518107999999998
2334.71,VICTORIA ROAD SURGERY,-1.8196429999999999,52.444450000000003
3713.8800000000001,SALTLEY AND FERNBANK MEDICAL PRACTICE,-1.8519570000000001,52.490837999999997
4457.6499999999996,BUCKLANDS END LANE SURGERY,-1.799863,52.497808999999997
1814.54,DR WALJI AND COLLEAGUES,-1.8879429999999999,52.457394999999998
779.87000000000012,FINCH ROAD PRIMARY CARE CENTRE,-1.910474,52.503770000000003
3610.1800000000003,KINGSTANDING CIRCLE SURGERY,-1.8814580000000001,52.553958999999999
877.45000000000005,GATE MEDICAL CENTRE,-1.8558779999999999,52.494286000000002
949.99000000000001,ROWLANDS ROAD SURGERY,-1.806157,52.463270999999999
5339.1999999999998,RIDGACRE HOUSE SURGERY,-1.99011,52.460912
3233.4599999999996,MAYPOLE HEALTH SURGERY Y,-1.884717,52.409739000000002
7054.96,KINGS NORTON SURGERY,-1.9307529999999999,52.404587999999997
599.80000000000007,DR KULSHRESTHA FAMILY PRACTICE,-1.9373530000000001,52.487685999999997
7206.2700000000004,DRUID GROUP,-1.9420090000000001,52.486277000000001
402.42000000000002,CITY HEALTH CENTRE,-1.958202,52.476692
520.79999999999995,CRANES PARK ROAD SURGERY,-1.779463,52.456328999999997
2512.2600000000002,ACOCKS GREEN MEDICAL CENTRE,-1.8293189999999999,52.449480000000001
1044.21,SPRINGFIELD SURGERY,-1.8586450000000001,52.444555999999999
803.75,BORDESLEY GREEN SURGERY,-1.855283,52.476796
282.12,UNIVERSITY SOUTHGATE PRACTICE,-1.9273769999999999,52.446578000000002
2490.0599999999999,RICHMOND MEDICAL CENTRE,-1.799164,52.447598999999997
12565.93,CROFT MEDICAL CENTRE,-1.727743,52.477876000000002
5204.4099999999999,HOBS MOAT MEDICAL CENTRE,-1.7889250000000001,52.444192000000001
3149.5499999999997,COVENTRY ROAD PRACTICE,-1.775345,52.451697000000003
2138.23,GRAFTON ROAD SURGERY,-1.868449,52.407753
5690.6399999999994,THE CASTLE PRACTICE,-1.7576499999999999,52.501286999999998
310.71000000000004,COTTERILS LANE SURGERY,-1.8285979999999999,52.485903
1817.99,CHESTER ROAD SURGERY,-1.7524630000000001,52.497675000000001
1220.8,OAKLEAF,-1.8490530000000001,52.487490000000001
145.18000000000001,WASHWOOD HEATH URGENT CARE CENTRE,-1.8499209999999999,52.487617
95.700000000000003,PHOENIX WALK IN CENTRE,-2.0955550000000001,52.599722
63.789999999999999,HOME IN REACH TEAM,-2.0955550000000001,52.599722
71,DISTRICT NURSES SWBH,-1.988866,52.528091000000003
7798.4300000000003,OAKWOOD SURGERY,-1.19309,53.164014999999999
2328.4200000000001,ST PETERS MEDICAL PRACTICE,-1.1964680000000001,53.141699000000003
10681.48,FOREST MEDICAL,-1.205754,53.14969
3085.04,FAMILY MEDICAL CENTRE (KIRKBY),-1.2364790000000001,53.106842
2022.1900000000001,KIRKBY HEALTH CENTRE,-1.2445839999999999,53.100330999999997
4527.7799999999997,MILLVIEW SURGERY,-1.2039580000000001,53.144123
733.75999999999999,ARDEN MEDICAL CENTRE,-1.7447619999999999,52.379798999999998
6562.3000000000002,MIDDLETON LODGE PRACTICE,-1.0068330000000001,53.206969999999998
8555.3199999999997,LOMBARD MEDICAL CENTRE,-0.81174199999999996,53.073931000000002
434.37,SOUTH BIRMINGHAM GP WALK IN CENTRE,-1.939144,52.438251000000001
2066.54,HILL VIEW SURGERY,-1.107313,53.118960999999999
3,AQP ANTICOAG COLLEGE ROAD SURGERY,-1.8742129999999999,52.536766
6247.5,FAMILY MEDICAL CENTRE (SOOD),-1.1285289999999999,52.957864999999998
6575.3600000000006,CLIFTON MEDICAL PRACTICE,-1.176253,52.903863999999999
4244.4700000000003,GREENDALE PRIMARY CARE CENTRE,-1.1185670000000001,52.956552000000002
2333.3600000000001,THE FOREST PRACTICE,-1.171945,52.964494999999999
4708.0299999999997,MELBOURNE PARK MEDICAL CENTRE,-1.192728,52.975766999999998
2575.6500000000001,WOLLATON PARK MEDICAL CENTRE,-1.195033,52.953471
1086.47,ST. LUKE'S SURGERY,-1.167635,52.956339
2773.3199999999997,TUDOR HOUSE MEDICAL PRACTICE,-1.149856,52.990599000000003
1474.3199999999999,SHERWOOD RISE MEDICAL CENTRE,-1.1620189999999999,52.974260000000001
2428.1199999999999,LIME TREE SURGERY,-1.1968049999999999,52.982357
2014.3199999999997,NEMS PLATFORM ONE PRACTICE,-1.146156,52.947802000000003
5574.0799999999999,BILBOROUGH MEDICAL CENTRE,-1.2310620000000001,52.963965999999999
4259.1499999999996,HIGHCROFT SURGERY,-1.1288199999999999,53.004109999999997
5909.5799999999999,WHYBURN MEDICAL PRACTICE,-1.2061409999999999,53.035375999999999
666.92000000000007,THE JUBILEE PRACTICE,-1.0039450000000001,53.013556999999999
1877.5899999999999,THE IVY MEDICAL GROUP,-1.041331,52.989082000000003
3179.02,THE OAKS MEDICAL CENTRE,-1.2151860000000001,52.928030999999997
11277.059999999998,EASTWOOD PRIMARY CARE CENTRE,-1.3077529999999999,53.016064
5882.1900000000005,CHILWELL VALLEY AND MEADOWS PRACTICE,-1.2375020000000001,52.922018000000001
3571.96,NEWTHORPE MEDICAL PRACTICE,-1.2986770000000001,53.012137000000003
5023.6200000000008,EAST LEAKE MEDICAL GROUP,-1.1771290000000001,52.834029999999998
443.96000000000004,THE MEDICAL CENTRE (IRFAN),-1.172058,52.977288000000001
941.96000000000004,BILBOROUGH SURGERY,-1.2276670000000001,52.963979999999999
2852.75,KEYWORTH MEDICAL PRACTICE,-1.0934109999999999,52.871476999999999
707.38,WEST BRIDGFORD MEDICAL CENTRE,-1.1321699999999999,52.929729999999999
131.06999999999999,NEMS OOH,-1.146156,52.947802000000003
4651.5599999999995,SETT VALLEY MEDICAL CENTRE,-1.9983219999999999,53.367418000000001
8534.8300000000017,HORIZON HEALTHCARE,-1.4786619999999999,52.917153999999996
5833.1800000000003,DERWENT VALLEY MEDICAL PRACTICE,-1.457651,52.926696
2879.0200000000004,BAKEWELL MEDICAL CENTRE,-1.676377,53.211674000000002
6407.5200000000004,NEWHALL SURGERY,-1.5738909999999999,52.785181000000001
3339.04,ADAM HOUSE MEDICAL CENTRE,-1.2943229999999999,52.922505000000001
27.5,NW RESPIRATORY SERVICE,-1.238124,52.981459999999998
5443.25,PARK SURGERY,-1.3512409999999999,53.010440000000003
5342.8100000000004,KELVINGROVE MEDICAL CENTRE,-1.3490869999999999,53.013187000000002
3858.7500000000005,NORTH WINGFIELD MEDICAL CENTRE,-1.3877269999999999,53.184311000000001
4669.3299999999999,CLAY CROSS MEDICAL CENTRE,-1.4122060000000001,53.168084
3906.25,THORNBROOK SURGERY,-1.9113549999999999,53.323217
4099.7700000000004,PARK FARM MEDICAL CENTRE,-1.4958089999999999,52.944070000000004
3337.9899999999998,OVERDALE MEDICAL PRACTICE,-1.3784810000000001,52.912320999999999
5403.7199999999993,CHAPEL STREET MEDICAL CENTRE,-1.4042920000000001,52.921075000000002
3148.5,DR HR MCMURRAY'S PRACTICE,-1.324797,53.294997000000002
1771.9199999999996,MICKLEOVER SURGERY,-1.53732,52.907480999999997
919.09000000000015,PEARTREE MEDICAL CENTRE,-1.475341,52.905166000000001
2674.4200000000001,ST LAWRENCE ROAD SURGERY,-1.387829,53.180152
3412.8100000000004,HEARTWOOD MEDICAL PRACTICE,-1.559331,52.774889000000002
2549.3899999999999,YORK STREET MEDICAL PRACTICE,0.14157600000000001,52.205500999999998
17927.669999999998,NORTH BRINK PRACTICE,0.15638299999999999,52.665180999999997
10475.67,CLARKSON SURGERY,0.16206200000000001,52.669088000000002
2223.1199999999999,TRUMPINGTON STREET MEDICAL PRACTICE,0.118102,52.202444
10195.709999999999,STAPLOE MEDICAL CENTRE,0.34194999999999998,52.335189999999997
22.949999999999999,ST GEMMA'S HOSPICE,-1.534179,53.842309999999998
2059.2399999999998,MILL ROAD SURGERY,0.150585,52.197163000000003
5901.8500000000004,PASTON HEALTH CENTRE,-0.24148800000000001,52.606597000000001
4497.6100000000006,CROMWELL PLACE SURGERY,-0.070141999999999996,52.324255000000001
8464.1100000000006,ST MARY'S SURGERY,0.25810899999999998,52.398364000000001
966.81000000000006,CHURCH STREET HEALTH CENTRE,-0.0026519999999999998,52.380974999999999
6066.5599999999986,NUFFIELD ROAD MEDICAL CENTRE,0.152832,52.225194999999999
4542.4099999999999,BUCKDEN SURGERY,-0.25417400000000001,52.291764000000001
3861.8200000000002,SPINNEY SURGERY,-0.077761999999999998,52.335329999999999
110.42,BASSETLAW PRIMARY CARE CENTRE OOH,-1.110284,53.316574000000003
1781.7199999999998,HARSTON SURGERY,0.073805999999999997,52.138364000000003
3678.4299999999998,MOAT HOUSE SURGERY,-0.084379999999999997,52.400913000000003
3101.54,HADDENHAM SURGERY,0.14708399999999999,52.358117999999997
2656.3099999999995,ALMOND ROAD SURGERY,-0.26207200000000003,52.232523999999998
1276.75,COTTENHAM SURGERY,0.124588,52.289270000000002
9794.8299999999999,TRINITY SURGERY,0.163907,52.665700000000001
1831.96,BUSHFIELD,-0.30307299999999998,52.544640000000001
2436.7099999999996,ROYSIA SURGERY,-0.021503999999999999,52.058518999999997
72.459999999999994,LINCSCS - MINOR INJURIES & ILLNESS UNIT,-0.25872600000000001,52.574106999999998
82.700000000000003,CAMBS GP HUBS,0.12828100000000001,52.195287999999998
4433.1499999999996,FELIXSTOWE ROAD MEDICAL PRACTICE,1.1842760000000001,52.047252999999998
7087.3600000000006,BURLINGTON ROAD SURGERY,1.1442589999999999,52.059021999999999
3750.5699999999997,EYE HEALTH CENTRE,1.1402080000000001,52.323250000000002
14509.549999999999,TWO RIVERS MEDICAL CENTRE,1.1955180000000001,52.060265999999999
921.75999999999999,MAPLE SURGERY BAR HILL HEALTH CENTRE,0.018359,52.252937000000003
3494.3999999999996,DEBEN ROAD SURGERY,1.1310389999999999,52.071917999999997
7168.2799999999997,THE DERBY ROAD PRACTICE,1.1814750000000001,52.049101
1674.6300000000001,THE PENINSULA PRACTICE,1.416876,52.0242
3792.6300000000001,THE NORWICH ROAD SURGERY,1.139621,52.065277000000002
3239.1799999999998,ORCHARD MEDICAL PRACTICE,1.16235,52.057341999999998
1906.6399999999999,THE BIRCHES MEDICAL CENTRE,1.2360329999999999,52.062207999999998
1589.8200000000002,FLEGGBURGH SURGERY,1.6136600000000001,52.672794000000003
8568.4300000000003,BECCLES MEDICAL CENTRE,1.562886,52.453288000000001
5917.1700000000001,LONGSHORE SURGERIES,1.717841,52.420771999999999
7916.6499999999996,BRIDGE ROAD SURGERY,1.715177,52.478071999999997
6227.8699999999999,VICTORIA ROAD SURGERY,1.7164980000000001,52.471024
4441.2300000000005,KIRKLEY MILL HEALTH CENTRE,1.7435689999999999,52.467722999999999
4250.6700000000001,MARKET SURGERY,1.253177,52.791347999999999
5252.3500000000004,HOVETON & WROXHAM MEDICAL CENTRE,1.4206840000000001,52.716760000000001
6697.8099999999995,DRAYTON MEDICAL PRACTICE,1.226086,52.679248999999999
1576.1800000000001,WELLS HEALTH CENTRE,0.85321800000000003,52.954948999999999
5205.4699999999993,BIRCHWOOD MEDICAL PRACTICE,1.38334,52.820065
4693.2700000000004,COLTISHALL MEDICAL PRACTICE,1.3632550000000001,52.730761999999999
1156.54,ALDBOROUGH SURGERY,1.2475259999999999,52.862378999999997
1580.49,OLD CATTON MEDICAL PRACTICE,1.3001780000000001,52.66789
4529.3800000000001,OAK STREET MEDICAL PRACT.,1.289706,52.634247999999999
4190.3400000000001,THORPEWOOD MEDICAL GROUP,1.3410709999999999,52.641956
5500.6800000000003,WOODCOCK RD SURGERY,1.280993,52.652531000000003
1419.8,WEST POTTERGATE MED PRAC,1.28064,52.631028000000001
2907.6199999999999,NORWICH PRACTICES HEALTH CENTRE,1.298746,52.626316000000003
144.93000000000001,NCH&C COMMUNITY NURSES (NORWICH),1.262486,52.634099999999997
6322.29,GROVE SURGERY,0.75147699999999995,52.415441000000001
6606.4099999999999,SCHOOL LANE SURGERY,0.74924599999999997,52.412444000000001
2126.8399999999997,WINDMILL SURGERY,1.1138790000000001,52.567920999999998
3388.29,GRIMSTON MEDICAL CENTRE,0.54841899999999999,52.773527999999999
4152.7700000000004,WATLINGTON MEDICAL CENTRE,0.39116299999999998,52.666798999999997
1992.8800000000001,LITCHAM HEALTH CENTRE,0.79011900000000002,52.722306000000003
15283.550000000001,ST JAMES MEDICAL PRACTICE,0.40151900000000001,52.752015
5039.3299999999999,HOWDALE SURGERY,0.38217299999999998,52.601025
4034.7500000000005,GREAT MASSINGHAM SURGERY,0.66230900000000004,52.778675
3042.1100000000006,BURNHAM SURGERY,0.71975100000000003,52.943871999999999
9635.7600000000002,SOUTHGATES SURGICAL & MEDICAL CENTRE,0.40600000000000003,52.747540000000001
4780.1499999999996,ST JOHN'S SURGERY,0.27504299999999998,52.705441
10823.41,CHRISTMAS MALTINGS AND CLEMENTS PRACTICE,0.42701699999999998,52.076371999999999
6025.8999999999996,THE GUILDHALL AND BARROW SURGERY,0.71502299999999996,52.245395000000002
4557.9099999999999,ORCHARD HOUSE SURGERY,0.40585500000000002,52.246025000000003
5462.54,VICTORIA SURGERY,0.70400700000000005,52.246141999999999
5122.29,SIAM SURGERY,0.74884600000000001,52.048645
25.289999999999999,EAST ALLIANCE NMPS (BLUEBIRD LODGE),1.1983969999999999,52.027253999999999
4664.4000000000005,CHURCH LANE SURGERY,0.55781199999999997,51.889825999999999
2337.5900000000001,THE FRESHFORD PRACTICE,0.45441500000000001,51.968648000000002
1566.51,DICKENS PLACE SURGERY,0.445546,51.754677000000001
6564.5,FERN HOUSE SURGERY,0.63754599999999995,51.797477000000001
1471.96,STOCK SURGERY,0.448768,51.665331000000002
6536.8999999999996,THE ELIZABETH COURTAULD SURGERY,0.63812800000000003,51.941426
1487.1300000000001,THE TOLLESBURY PRACTICE,0.83163600000000004,51.758668
7678.5500000000011,BLACKWATER MEDICAL CENTRE,0.68095000000000006,51.728378999999997
3349.75,WILLIAM FISHER MED.CTR.,0.82691300000000001,51.662818999999999
3899.3899999999999,DOUGLAS GROVE SURGERY,0.62272700000000003,51.802287
4253.4099999999999,BLYTH'S MEADOW SURGERY,0.56006999999999996,51.877133000000001
4621.2399999999998,HEDINGHAM MEDICAL CENTRE,0.59896199999999999,51.990059000000002
4765.8999999999996,EAST HILL SURGERY,0.90932500000000005,51.890028999999998
12080.029999999999,CREFFIELD MEDICAL GROUP,0.89251800000000003,51.881819
4007.6199999999999,MILL ROAD SURGERY,0.89605699999999999,51.912436
23036.790000000001,ACE COMMUNITY PRACTICE,1.117893,51.780622000000001
2376.1600000000003,TOLLGATE HEALTH CENTRE,0.82968299999999995,51.886031000000003
1018.54,BLUEBELL SURGERY,0.92189900000000002,51.916473000000003
2649.5599999999995,THE RIVERSIDE HEALTH CTR,1.060732,51.945725000000003
4.5,ACE,0.92158899999999999,51.923793000000003
7436.5500000000002,TILBURY HEALTH CENTRE,0.36621999999999999,51.460987000000003
1631.4200000000001,DR DESHPANDE AM PRACTICE,0.426902,51.513843000000001
845.26999999999998,HORNDON-ON-THE-HILL SURGERY,0.405746,51.523749000000002
1129.25,KADIM PRIMECARE MEDICAL CENTRE,0.33060200000000001,51.479903
2666,DR YASIN SA PRACTICE,0.282862,51.508243999999998
1390.6100000000001,MEDIC HOUSE,0.36213099999999998,51.462932000000002
1998.6800000000001,PURFLEET CARE CENTRE,0.23543700000000001,51.489742999999997
3382.1700000000001,BARBARA CASTLE HEALTH CENTRE,0.073794999999999999,51.748894
2651.1200000000003,NEWPORT SURGERY,0.20899499999999999,51.982816
7487.2600000000002,THE HAMILTON PRACTICE,0.114548,51.757004999999999
3228.9299999999998,LOUGHTON HEALTH CENTRE,0.054941999999999998,51.648862999999999
3330.8999999999996,CHURCH LANGLEY MEDICAL PRACTICE,0.13273399999999999,51.767477
3268.9099999999994,THE LOUGHTON SURGERY,0.060378000000000001,51.648837
1273.1800000000001,PALMERSTON ROAD SURGERY,0.044818999999999998,51.626871000000001
1631.4500000000003,SYDENHAM HOUSE SURGERY,0.112194,51.769226000000003
7723.8799999999992,MARKET SQUARE SURGERY,0.0020230000000000001,51.685335000000002
2650.2699999999995,WESTERN ROAD SURGERY,0.41687400000000002,51.627392999999998
3607.8699999999999,DR GC CHAJED'S PRACTICE,0.46539599999999998,51.564483000000003
2831.9500000000003,DR DEGUN & DR MACAULAY,0.44254399999999999,51.564041000000003
5457.79,LONDON ROAD SURGERY,0.519034,51.613356000000003
4390.0699999999997,MOUNT AVENUE SURGERY,0.33148300000000003,51.630890999999998
5084.5500000000002,DR A NAEEM & PARTNERS THE NEW SURGERY,0.30726399999999998,51.621757000000002
1219.8400000000001,KNIGHTS SURGERY,0.43632500000000002,51.575636000000003
1615.6600000000001,MATCHING GREEN SURGERY,0.48124400000000001,51.582852000000003
992.24000000000001,DR JO ARAYOMI'S PRACTICE,0.50555799999999995,51.567734000000002
5812.8999999999996,DR KHAN & PARTNERS,0.54816699999999996,51.570732999999997
2983.4499999999998,CONNER & PARTNERS,0.61295699999999997,51.623888999999998
3665.5999999999995,GHAURI PRACTICE,0.57113899999999995,51.517980000000001
1768.51,THE PRACTICE LEECON WAY,0.69756899999999999,51.588068999999997
799.95000000000005,DOWNHALL PARK SURGERY,0.60383399999999998,51.602848999999999
2055.5300000000002,DR F KHAN CARNAVON ROAD SURGERY,0.70186999999999999,51.544989000000001
119.40000000000001,MID ESSEX CCG GP EXTENDED ACCESS HUB,0.50927699999999998,51.750031999999997
2235.6399999999999,DR SOORIAKUMARAN,0.69888799999999995,51.557721000000001
9777.2100000000009,THE PALL MALL SURGERY,0.66337900000000005,51.547308000000001
1133.98,THE SHAFTESBURY AVENUE SURGERY,0.74125200000000002,51.531618999999999
4163,DR KUMAR & PTNR - SHOEBURY HC,0.78749100000000005,51.529881000000003
1966.5099999999998,DRS. PALACIN & GUYLER,0.78749100000000005,51.529881000000003
1098.3499999999999,DR DHILLON'S SURGERY,0.78853399999999996,51.540100000000002
1194.99,SCOTT PARK SURGERY,0.66973300000000002,51.571078
2165.77,THE PRACTICE NORTHUMBERLAND AVENUE,0.73061200000000004,51.533099
10071.539999999999,DR KHALID & PARTNERS,-0.71141399999999999,52.48386
4312.96,STONY MEDICAL CENTRE,-0.85319400000000001,52.056265000000003
7935.7199999999993,THE RED HOUSE SURGERY,-0.72288600000000003,51.996295000000003
4715.8199999999997,PARKSIDE MEDICAL CENTRE,-0.74763800000000002,51.997413999999999
4585.4299999999994,SOVEREIGN MEDICAL CENTRE,-0.74523899999999998,52.060785000000003
4511.9799999999996,COBBS GARDEN SURGERY,-0.70250999999999997,52.156554
4036.6900000000001,QUEENSVIEW MEDICAL CENTRE,-0.90326099999999998,52.253309000000002
2674.5900000000001,THE PINES SURGERY,-0.90249000000000001,52.272686
105.5,EAST TILBURY & CORRINGHAM MEDICAL CENTRE,0.421184,51.484614000000001
7197.5500000000002,LEICESTER TCE H/CARE CTR.,-0.89784399999999998,52.246093000000002
3743.9499999999998,SPRINGFIELD SURGERY,-1.154121,52.037914000000001
10974.720000000001,ROTHWELL MEDICAL CENTRE,-0.80798099999999995,52.425797000000003
5515.2899999999991,THE MOUNTS MEDICAL CENTRE,-0.89726600000000001,52.242230999999997
8594.4399999999987,ALBANY HOUSE MEDICAL CENTRE,-0.69556700000000005,52.303398000000001
6198.9699999999993,SPINNEY BROOK MEDICAL CENTRE,-0.61404099999999995,52.324379999999998
4874.5200000000004,THE COTTONS MEDICAL CENTRE,-0.54778300000000002,52.345647999999997
1872.3,KINGSTHORPE MEDICAL CTR.,-0.89196299999999995,52.258155000000002
8525.1400000000012,LINDEN AVENUE MEDICAL CENTRE,-0.71613300000000002,52.397046000000003
8045.5900000000011,DR SPENCER & PARTNERS,-0.67732499999999995,52.359890999999998
6432.3399999999992,DRYLAND MEDICAL CENTRE,-0.72936500000000004,52.402535
6670.8199999999997,ST LUKES PRIMARY CARE CENTRE,-0.94056200000000001,52.245213999999997
2628.6399999999999,BROOK MEDICAL CENTRE,-0.80379599999999995,52.255822999999999
4046.0500000000002,BRACKLEY MEDICAL CENTRE,-1.1469389999999999,52.035994000000002
7301.8500000000004,THE PARKS MEDICAL PRACTICE,-0.938469,52.172058
2501.6900000000001,WOOTTON MEDICAL CENTRE,-0.88641700000000001,52.202286999999998
1314.6399999999999,COUNTY SURGERY,-0.87373999999999996,52.248787
4416.3099999999995,THE SAXON SPIRES PRACTICE,-1.0315190000000001,52.356797
5693.6499999999996,GREENS NORTON & WEEDON MEDICAL PRACTICE,-1.0814980000000001,52.225825999999998
2842.3199999999997,GREENVIEW SURGERY,-0.88214400000000004,52.258245000000002
1956.8899999999999,HIGHAM FERRERS SURGERY,-0.59382199999999996,52.308107
1996.4499999999998,THE MEADOWS SURGERY,-0.53774,52.399512000000001
31.02,NORTHAMPTONSHIRE OOH SERVICE,-1.160866,52.252040000000001
545.61999999999989,KINGS HEALTH & LINGS BROOK PRACTICE,-0.92227899999999996,52.256829000000003
105.55,(OUT PATIENT DEPARTMENT) NORTH OOH,-0.74129299999999998,52.402782999999999
1403.47,CASTLEFIELDS MEDICAL CENTRE,-0.67768700000000004,52.298056000000003
5756.0100000000002,FLITWICK SURGERY,-0.49277399999999999,52.005164000000001
4480.4200000000001,LARKSFIELD SURGERY MEDICAL PARTNERSHIP,-0.23511299999999999,52.017131999999997
1488.8800000000001,CATER STREET SURGERY,-0.49049500000000001,52.119585999999998
4172.79,CRANFIELD SURGERY,-0.60750199999999999,52.070431999999997
5838.3800000000001,DR HUGHES & PARTNERS,-0.42451499999999998,51.964168999999998
4148.8100000000004,ASPLANDS MEDICAL CENTRE,-0.64981999999999995,52.012616000000001
1631.3000000000002,DR COLLINS AND CARRAGHER,-0.31177100000000002,52.006602000000001
2784.96,OLIVER STREET SURGERY,-0.49327700000000002,52.026192999999999
471.84000000000003,ASHBURNHAM ROAD SURGERY,-0.47821999999999998,52.136035
1423.6299999999999,ARLESEY MEDICAL CENTRE,-0.26240000000000002,52.010568999999997
5230.3500000000004,LISTER HOUSE SURGERY,-0.22712599999999999,51.764574000000003
4916.1800000000003,BURVILL HOUSE SURGERY,-0.22721,51.761302000000001
4646.6900000000005,WALLACE HOUSE,-0.081700999999999996,51.796317000000002
8576.6299999999992,PEARTREE LANE SURGERY,-0.19797899999999999,51.797041999999998
3553.1999999999998,ABBEY ROAD SURGERY,-0.030102,51.684417000000003
6534.9700000000003,BANCROFT MEDICAL CENTRE,-0.27703800000000001,51.951529000000001
5538.5399999999991,HALL GROVE GROUP PRACTICE,-0.18180099999999999,51.789319999999996
7352.8600000000006,BIRCHWOOD SURGERY,-0.22508900000000001,51.982498
3884.3499999999999,HAILEY VIEW SURGERY,-0.015859000000000002,51.776843999999997
6986.6100000000006,BEDWELL MEDICAL CENTRE,-0.183111,51.904195000000001
4793.5599999999995,THE BALDOCK SURGERY,-0.183588,51.985281999999998
2984.8700000000003,CHURCH STREET SURGERY,-0.033658,51.812553999999999
2229.0799999999999,HIGH STREET SURGERY,-0.037483000000000002,51.708474000000002
1045.4299999999998,WHITWELL SURGERY,-0.279032,51.875838000000002
4637.2799999999997,THE GARDEN CITY SURGERY,-0.22534399999999999,51.980407
1590.8700000000003,SPRING HOUSE HEALTH,-0.19172700000000001,51.782567
6116.1099999999997,LODGE HIGHFIELD & REDBOURN,-0.34154400000000001,51.759811999999997
4816.9099999999999,BERKHAMSTED GROUP PRACTICE,-0.56896000000000002,51.759278999999999
7127.9300000000012,BENNETTS END SURGERY,-0.45006299999999999,51.740920000000003
2689.5199999999995,TUDOR SURGERY,-0.38621100000000003,51.674005999999999
3636.7600000000002,SCHOPWICK SURGERY,-0.29929299999999998,51.645361999999999
3911.4200000000005,MIDWAY SURGERY,-0.35542099999999999,51.733851999999999
810.50999999999999,HAVERFIELD SURGERY,-0.44980300000000001,51.711933000000002
7444.5900000000001,MANOR VIEW PRACTICE,-0.37458799999999998,51.645988000000003
3387.8599999999997,HARVEY GROUP PRACTICE,-0.34015200000000001,51.754148000000001
7900.0100000000002,PARKWOOD SURGERY,-0.49596899999999999,51.755983999999998
2168.2200000000003,THE MANOR STREET SURGERY,-0.55894699999999997,51.759768000000001
4143.1499999999996,SHEEPCOT MEDICAL CENTRE,-0.41289799999999999,51.695191999999999
2552.9200000000001,NEW ROAD SURGERY,-0.44714799999999999,51.648031000000003
4060.4499999999998,THE GROVE MEDICAL CENTRE,-0.27754000000000001,51.656559999999999
3740.5399999999995,KINGS LANGLEY SURGERY,-0.44846000000000003,51.713293999999998
1576.1199999999999,THE NEW SURGERY,-0.66049199999999997,51.794471000000001
1712.71,CASSIO SURGERY,-0.40105800000000003,51.656689
707.03999999999996,COLERIDGE HOUSE MEDICAL CENTRE,-0.43854900000000002,51.779127000000003
1960.48,SOUTH OXHEY SURGERY,-0.389517,51.625821999999999
737.1099999999999,DR I SALEH'S PRACTICE,-0.41224100000000002,51.885255000000001
5956.5400000000009,CASTLE MEDICAL GROUP PRACTICE,-0.41550100000000001,51.875588
8243.1900000000005,LEA VALE MEDICAL PRACTICE,-0.42302899999999999,51.881624000000002
6211.1999999999998,GARDENIA PRACTICE,-0.44622200000000001,51.900869
1456.22,THE TOWN CENTRE PRACTICE,-0.41605399999999998,51.877636000000003
5004.4499999999998,SWINESHEAD SURGERY,-0.15892100000000001,52.940615999999999
3933.6599999999999,KIRTON MEDICAL CENTRE,-0.058611000000000003,52.930739000000003
4285.9099999999989,THE NEW CONINGSBY SURGERY,-0.173849,53.105091999999999
4903.2600000000002,CAISTOR HEALTH CENTRE,-0.31502000000000002,53.494292999999999
3342.5699999999997,WOODHALL SPA NEW SURGERY,-0.207041,53.153263000000003
8958.7999999999993,SOUTH LEICESTERSHIRE MEDICAL PARTNERSHIP,-0.99734800000000001,52.535941000000001
6688.3999999999996,OAKHAM MEDICAL PRACTICE,-0.73753899999999994,52.670802000000002
3408.6300000000001,KINGSWAY SURGERY,-1.1764159999999999,52.606079000000001
45.299999999999997,COMMUNITY CARE (SW),-2.1534930000000001,52.266877000000001
4941.8299999999999,THE LIMES MEDICAL CENTRE,-1.1999919999999999,52.573965999999999
1991.6199999999997,THE CROFT MEDICAL CENTRE,-1.0686610000000001,52.593899999999998
4728.880000000001,THE JUBILEE MEDICAL PRACTICE,-1.0698840000000001,52.70073
2901.3699999999999,ENDERBY MEDICAL CENTRE,-1.2114879999999999,52.587060999999999
2197.27,MARKET OVERTON & SOMERBY SURGERIES,-0.68476899999999996,52.739345
6828.4800000000005,OAKMEADOW SURGERY (RA LEACH),-1.1967049999999999,52.639983999999998
7343.5399999999991,WILLOWBROOK MEDICAL CENTRE (JG ASTLES),-1.0485329999999999,52.637512000000001
2849.3499999999999,EAST PARK MEDICAL CENTRE (RP PANDYA),-1.1044499999999999,52.633561
10533.51,SAFFRON GROUP PRACTICE,-1.141224,52.601289000000001
1236.9499999999998,EVINGTON MEDICAL CENTRE (C KUMAR),-1.1067750000000001,52.624263999999997
4435.21,THE HEDGES MEDICAL CENTRE (SA BAILEY),-1.146741,52.591287000000001
837.15999999999997,BROADHURST ST MED PRACT (KS MORJARIA),-1.118671,52.653472000000001
1876.6900000000001,THE SURGERY @ AYLESTONE,-1.154819,52.602618
25.800000000000001,THE KNOLLS REHAB,-0.66465200000000002,51.919122999999999
437.70999999999998,DR GANDECHA & PARTNER,-1.122261,52.648041999999997
2750.5599999999999,ST ELIZABETH'S MEDICAL CENTRE (JA WOOD),-1.0611889999999999,52.648257000000001
2659.5899999999997,CLIFF HOUSE MEDICAL PRACTICE,-0.54501599999999994,53.238877000000002
2945.3299999999999,THE BASSINGHAM SURGERY,-0.63698699999999997,53.126640999999999
2943.8499999999995,BRAYFORD MEDICAL PRACTICE,-0.54425999999999997,53.230238
3468.9299999999998,TRENT VALLEY SURGERY,-0.67091199999999995,53.270910999999998
2919.7500000000005,THE WELBY PRACTICE,-0.804504,52.942346000000001
198.18000000000001,HERTS URGENT CARE E/N OOH,-0.19172700000000001,51.782567
6367.1899999999996,ST. JOHNS MEDICAL CENTRE,-0.63861299999999999,52.906498999999997
2547.4699999999998,THE HARROWBY LANE SURGERY,-0.61578599999999994,52.920116
2453.27,MARKET CROSS SURGERY,-0.51400599999999996,52.80997
8682.6599999999999,CASTLE MEDICAL GROUP,-1.4837370000000001,52.750554999999999
2999.2200000000003,DR NW OSBORNE'S PRACTICE,-1.1871799999999999,52.672778000000001
3330.8900000000003,PARK VIEW SURGERY,-1.201892,52.769041000000001
4684.7799999999997,CHARNWOOD MEDICAL GROUP,-1.2211700000000001,52.774303000000003
3530.0899999999997,THE SURGERY,-1.367146,52.726985999999997
4643.79,WOODBROOK MEDICAL CENTRE,-1.2076819999999999,52.775039999999997
232.37,LOUGHBOROUGH URGENT CARE CENTRE,-1.225946,52.773291
10753.83,THE DEEPINGS PRACTICE,-0.31619399999999998,52.683726
6085.46,BOURNE GALLETLY PRACTICE TEAM,-0.37678099999999998,52.775699000000003
10176.16,LONG SUTTON MEDICAL CTR.,0.118301,52.785243999999999
3716.6000000000004,LITTLEBURY MEDICAL CENTRE,0.019089999999999999,52.801862999999997
3155.25,SUTTERTON SURGERY,-0.097630999999999996,52.901710000000001
233.42000000000002,LCHS NMP,-0.52415,53.226467
3101.2800000000002,HIGH STREET SURGERY,-2.031774,52.660679999999999
4151.2900000000009,ALDERWOOD MEDICAL PRACTICE,-2.0404439999999999,52.683672999999999
3904.3800000000001,DR I RASIB & PARTNERS,-2.0306139999999999,52.693241
10358.77,THE COLLIERY PRACTICE,-2.0247820000000001,52.688612999999997
2240.9400000000005,RAWNSLEY SURGERY,-1.970089,52.708632000000001
2149.7600000000002,NORTON CANES PRACTICE,-1.9702459999999999,52.673977000000001
4003.0600000000004,DOVE RIVER,-1.7612840000000001,52.886432999999997
4318.0599999999995,TRENT MEADOWS,-1.6735180000000001,52.786495000000002
5204.7399999999998,STAPENHILL MEDICAL CENTRE,-1.624908,52.785524000000002
4154.1199999999999,HEATHCOTE STREET SURGERY,-2.2509549999999998,53.043456999999997
2020.52,ASHLEY SURGERY,-2.3555139999999999,52.925781999999998
5798.75,KIDSGROVE MEDICAL CENTRE,-2.2341150000000001,53.087367
2959.5,MILLER STREET SURGERY,-2.2184240000000002,53.013803000000003
5476.9300000000003,AUDLEY HEALTH CENTRE,-2.3005789999999999,53.054192
7306.6800000000003,WOLSTANTON MEDICAL CENTRE,-2.2181690000000001,53.031179999999999
6925.8599999999997,BIDDULPH DOCTORS,-2.1784979999999998,53.116110999999997
4111.1099999999997,DR P CRAVEN'S PRACTICE,-1.98244,52.983843999999998
947.11000000000001,WATERHOUSES MEDICAL PRACT,-1.8824460000000001,53.057948000000003
1525.1200000000001,ALTON SURGERY,-1.8910659999999999,52.976632000000002
1737.1599999999999,MILEHOUSE MEDICAL PRACTICE,-2.2411530000000002,53.021714000000003
2488.6199999999999,TALKE PITS CLINIC,-2.2571919999999999,53.068936000000001
460.75,MALZEARD ROAD PRACTICE,-0.42469600000000002,51.887967000000003
272.08999999999997,OOH URGENT GP CLINIC (ZONE F),-0.47440500000000002,51.894151999999998
66.099999999999994,MIDWAY AT LANGLEY HOUSE HCT,-0.391206,51.683650999999998
2979.0099999999998,MUCH WENLOCK & CRESSAGE MEDICAL PRACTICE,-2.5599419999999999,52.595604999999999
2788.4000000000001,SHIFNAL & PRIORSLEE MEDICAL PRACTICE,-2.3760089999999998,52.667675000000003
1362.7400000000002,THE MEADOWS MEDICAL PRACTICE,-3.0239310000000001,52.421748999999998
94.099999999999994,SHROPDOC OUT OF HOURS,-2.7327119999999998,52.740395999999997
5963.1200000000008,THE LANGTON MEDICAL GROUP,-1.8376440000000001,52.696404999999999
3139.2200000000003,MOSS GROVE SURGERY KINVER,-2.2281,52.447539999999996
8320.3000000000011,HOLLIES PRACTICE,-1.6951210000000001,52.636837999999997
6822.3999999999996,HEATHVIEW MEDICAL PRACTICE,-1.6638120000000001,52.621966
2211.2199999999998,DR KHARE'S SURGERY,-1.6508769999999999,52.617569000000003
1018.8200000000001,TAMAR MEDICAL CENTRE,-2.2047059999999998,52.593192000000002
1727.2,TRINITY SURGERY,-1.6508769999999999,52.617569000000003
2131.2200000000003,BURNTWOOD HEALTH & WELLBEING CENTRE,-1.9336500000000001,52.678511
4318.54,PENKRIDGE MEDICAL PRACTICE,-2.1183519999999998,52.725727999999997
5559.6199999999999,WEEPING CROSS HEALTH CENTRE,-2.0777809999999999,52.791511
3020.5900000000001,GNOSALL,-2.2565210000000002,52.789991999999998
5699.04,ORCHARD SURGERY,-2.1624210000000001,53.064286000000003
6794.4899999999998,MILLRISE MEDICAL PRACTICE,-2.1418689999999998,53.049570000000003
6372,HARLEY STREET MEDICAL CTR,-2.1707299999999998,53.022438999999999
4795.6800000000003,DUNROBIN STREET MEDICAL CENTRE,-2.1312340000000001,52.981183999999999
10389.279999999999,BROOK MEDICAL CENTRE,-2.1758670000000002,53.057067000000004
2006.8099999999999,SNOWHILL MEDICAL CENTRE,-2.1827939999999999,53.016019999999997
4837.0799999999999,LUCIE WEDGWOOD HEALTH CTR,-2.1944650000000001,53.045549999999999
10500.150000000001,DONNINGTON MEDICAL PRACTICE,-2.437109,52.715178999999999
80.960000000000008,PARTNERSHIP NORTH,-2.1090849999999999,52.810605000000002
1996.9399999999998,DR BK JAISWAL'S PRACTICE,0.12559500000000001,51.538933999999998
732.13000000000011,VICTORIA MEDICAL CENTRE,0.076163999999999996,51.540927000000003
1133.1600000000001,ABBEY MEDICAL CENTRE,0.078215999999999994,51.542256000000002
1511.6000000000001,HEATHWAY MEDICAL CENTRE,0.152111,51.535187000000001
4839.8900000000003,GABLES SURGERY,0.117863,51.545701999999999
3548.23,DR KM ALKAISY PRACTICE,0.13334099999999999,51.537112
1353.0699999999999,DR DP SHAH'S PRACTICE,0.16003700000000001,51.545121999999999
2896.5999999999995,PORTERS AVENUE SURGERY,0.12260600000000001,51.545355000000001
1462.8800000000001,SQUIRES LANE MEDICAL PRACTICE,-0.17497699999999999,51.602491000000001
4379.3699999999999,LONGROVE SURGERY,-0.20466400000000001,51.654243999999998
4646.0799999999999,TORRINGTON PARK GROUP PRACTICE,-0.17501,51.617148999999998
2787.4700000000003,ST ANDREWS MEDICAL PRACTICE.,-0.17238000000000001,51.630138000000002
1649.2,COLNEY HATCH LANE SURGERY,-0.14755499999999999,51.600731000000003
542.10000000000002,RAVENSCROFT MEDICAL CENTRE,-0.202793,51.575313999999999
3068.5699999999997,LANE END MEDICAL GROUP,-0.274866,51.615287000000002
1047.99,DR B MODI,-1.113181,52.651578999999998
155.78,DR S SHAFI,-1.1484190000000001,52.628086000000003
1753.05,BRUNSWICK PARK MEDICAL CENTRE,-0.14921100000000001,51.629244999999997
1824.5799999999999,THE PHOENIX PRACTICE,-0.22356899999999999,51.587311
770.60000000000002,CRICKLEWOOD HEALTH CENTRE,-0.21528700000000001,51.557459999999999
461.03999999999996,GOWER STREET PRACTICE,-0.129826,51.520119999999999
4875.1400000000003,PRINCE OF WALES GROUP SURGERY,-0.147117,51.546913000000004
2374.6799999999998,ABBEY MEDICAL CENTRE,-0.18513199999999999,51.537920999999997
5234.8300000000008,CAVERSHAM GROUP PRACTICE,-0.13811599999999999,51.550466999999998
8274.2700000000004,JAMES WIGG PRACTICE,-0.139955,51.546404000000003
413.09000000000003,RIDGMOUNT PRACTICE,-0.13119600000000001,51.520465000000002
855.64999999999998,FORTUNE GREEN ROAD SURGERY,-0.196626,51.554653999999999
1658.3799999999999,PARLIAMENT HILL SURGERY,-0.14546799999999999,51.555168999999999
656.55999999999995,MUSEUM PRACTICE,-0.12582599999999999,51.518186
375.89999999999998,DALEHAM GARDENS HEALTH CENTRE,-0.174377,51.547952000000002
737.39999999999998,BELSIZE PRIORY MEDICAL PRACTICE (GROUP),-0.18801399999999999,51.539772999999997
3026.6699999999996,SWISS COTTAGE SURGERY,-0.172539,51.542707999999998
2299.3699999999999,BARTON HOUSE GROUP PRACTICE,-0.083923999999999999,51.560457
1474.8099999999999,STAMFORD HILL GROUP PRACTICE,-0.071467000000000003,51.573977999999997
2212.9200000000001,KINGSMEAD HEALTHCARE,-0.034783000000000001,51.551803
2544.7299999999996,LONDON FIELDS MEDICAL CENTRE,-0.061609999999999998,51.536583999999998
2425.6500000000001,SOMERFORD GROVE PRACTICE,-0.072621000000000005,51.553797000000003
5388.1600000000008,WELL STREET SURGERY,-0.052842,51.539363000000002
2056.98,THE STATHAM GROVE SURGERY,-0.089459999999999998,51.557462999999998
210.41999999999999,UNIVERSITY HEALTH CENTRE,-0.54874800000000001,53.229537000000001
969.54999999999995,THE RIVERSIDE PRACTICE,-0.051330000000000001,51.565261999999997
1976.1000000000001,THE WICK HEALTH CENTRE,-0.037658999999999998,51.548031000000002
550.53999999999996,THE CLAPTON SURGERY,-0.051330000000000001,51.565261999999997
1915.1300000000001,HEALY MEDICAL CENTRE,-0.060056999999999999,51.567016000000002
571.88,MEDICUS HEALTH PARTNERS-RILEY HOUSE,-0.043984000000000002,51.664416000000003
5423.8299999999999,EAGLE HOUSE SURGERY,-0.046184000000000003,51.647897999999998
1568.9900000000002,COCKFOSTERS MEDICAL CTRE,-0.14877599999999999,51.648445000000002
3706.0599999999995,ABERNETHY HOUSE SURGERY,-0.081194000000000002,51.654392000000001
4479.71,WINCHMORE HILL PRACTICE,-0.093895999999999993,51.633152000000003
1595.6900000000001,MORECAMBE SURGERY,-0.085542999999999994,51.617719999999998
738.38999999999999,CHALFONT ROAD SURGERY,-0.059836,51.623784000000001
334.28999999999996,TRINITY AVENUE SURGERY,-0.065570000000000003,51.640369
4366.0299999999997,SOMERSET GARDENS FAMILY HEALTH CENTRE,-0.073470999999999995,51.605338000000003
1505.9399999999998,THE MUSWELL HILL PRACTICE,-0.14121500000000001,51.59225
774.25999999999999,STUART CRESCENT HEALTH CENTRE,-0.11017200000000001,51.600434
1096.0900000000001,THE 157 MEDICAL PRACTICE,-0.114328,51.570059000000001
942.06000000000006,GROVE ROAD SURGERY,-0.081668000000000004,51.581240000000001
439.96999999999997,DOWSETT ROAD SURGERY,-0.064385999999999999,51.594856
1033.6300000000001,THE ALEXANDRA SURGERY,-0.13708200000000001,51.599147000000002
7156.6300000000001,MAYLANDS HEALTHCARE,0.19059599999999999,51.552911999999999
9268.869999999999,NORTH STREET MEDICAL CARE,0.173372,51.586182000000001
5060.4300000000003,ST EDWARDS MEDICAL CENTRE,0.18174100000000001,51.580340999999997
5857.2700000000004,WESTERN ROAD MEDICAL CENTRE,0.18751899999999999,51.578986
3493.2699999999995,KUCCHAI,0.22489500000000001,51.606265999999998
3890.9899999999998,THE NEW MEDICAL CENTRE,0.204043,51.574468000000003
6238.3099999999995,LYNWOOD MEDICAL CENTRE,0.164163,51.601685000000003
2651.9200000000001,DR SANOMI,0.17596800000000001,51.560718000000001
1232.4400000000001,UPMINSTER MEDICAL CENTRE,0.25473299999999999,51.556731999999997
1735.9100000000001,SPRING FARM SURGERY,0.21418100000000001,51.521991
885.75,HARLOW ROAD SURGERY,0.186418,51.531934999999997
1898.23,UPMINSTER BRIDGE SURGERY,0.23527899999999999,51.558956999999999
3121.9700000000003,DR ABDULLAH,0.197074,51.519364000000003
2994.8800000000001,BERWICK SURGERY,0.21397099999999999,51.527175
931.69000000000005,BILLET LANE MEDICAL PRACTICE,0.21904499999999999,51.566892000000003
371.57999999999998,DR A PATEL,0.14010500000000001,51.573715999999997
3323.9800000000005,ELIZABETH AVENUE GROUP PRACTICE,-0.091905000000000001,51.539023
4670.4099999999999,RITCHIE STREET GROUP PRACTICE,-0.107858,51.534739999999999
1793.6499999999999,DRS BOWRY & BOWRY'S PRACTICE,-0.10692599999999999,51.548178
1560.53,THE NORTHERN MEDICAL CENTRE,-0.123596,51.560938999999998
2746.3900000000003,KILLICK STREET HEALTH CENTRE,-0.11906799999999999,51.534236999999997
2395.7199999999998,CLERKENWELL MEDICAL PRACTICE,-0.108844,51.524864000000001
2193.73,ANDOVER MEDICAL CENTRE,-0.116461,51.561765999999999
1492.3800000000001,PARTNERSHIP PRIMARY CARE CENTRE,-0.120993,51.554716999999997
1378.8899999999999,STRATFORD VILLAGE SURGERY,0.0064609999999999997,51.542096000000001
4807.6799999999994,CUSTOM HOUSE SURGERY,0.025243999999999999,51.512689999999999
1088.1199999999999,LATHOM ROAD MEDICAL CENTRE,0.052675,51.538066000000001
1912.6799999999998,THE FOREST PRACTICE,0.024864000000000001,51.550553999999998
810.75000000000011,THE PROJECT SURGERY,0.020636000000000002,51.532273000000004
826.63,BIRCHDALE ROAD MEDICAL CENTRE,0.038426000000000002,51.546759000000002
994.62,THE RUIZ MEDICAL PRACTICE,0.013596,51.511927
714.38999999999999,NEWHAM GP CO-OP OOH,0.034716999999999998,51.522776
774.56000000000006,DR T KRISHNAMURTHY,0.045359999999999998,51.539588000000002
1361.4200000000001,GANTS HILL MEDICAL CENTRE,0.064451999999999995,51.577157
1926.79,CHADWELL HEATH SURGERY,0.124916,51.573560000000001
2022.6299999999999,WANSTEAD PLACE SURGERY,0.023188,51.578100999999997
1447.3399999999999,THE ELMHURST PRACTICE,0.021736999999999999,51.597442000000001
92.799999999999997,BIRMINGHAM WIC,-1.8951210000000001,52.479889
1090.52,ILFORD LANE SURGERY,0.076835000000000001,51.546444999999999
885.48000000000002,HAINAULT SURGERY,0.086107000000000003,51.602179
1993.6600000000001,THE SHRUBBERIES MEDICAL CENTRE,0.024819999999999998,51.594431999999998
1275.6199999999999,MATHUKIA'S SURGERY,0.075356000000000006,51.549753000000003
1036.05,GROVE SURGERY,0.12254,51.576472000000003
1839.99,GRANVILLE MEDICAL CENTRE,0.070959999999999995,51.563158000000001
1621.8899999999999,AT MEDICS - THE LOXFORD PRACTICE,0.076835000000000001,51.546444999999999
2264.4400000000001,ALBION HEALTH CENTRE,-0.057658000000000001,51.520017000000003
1636.3900000000001,STROUTS PLACE MEDICAL CENTRE,-0.074151999999999996,51.52948
3011.9300000000003,THE SPITALFIELDS PRACTICE,-0.069605,51.517355000000002
3245.8100000000004,HARFORD HEALTH CENTRE,-0.038112,51.518389999999997
1130.74,MERCHANT STREET PRACTICE,-0.027397000000000001,51.526148999999997
5319.1900000000005,XX PLACE HEALTH CENTRE,-0.042206,51.525047999999998
3212.8499999999999,THE GLOBE TOWN SURGERY,-0.048190999999999998,51.528033999999998
4603.9200000000001,HANDSWORTH MEDICAL PRACTICE,0.001023,51.608083999999998
1100.0899999999999,DR S PHILLIPS AND DR M PATEL PRACTICE,-0.027903000000000001,51.569141999999999
2803.3300000000004,THE MANOR PRACTICE,-0.021964999999999998,51.571328000000001
982.59999999999991,HIGH ROAD SURGERY,0.0049579999999999997,51.553485999999999
3013.1400000000003,ST JAMES MEDICAL PRACTICE LIMITED,-0.032049000000000001,51.580379999999998
1221.5999999999999,THE LYNDHURST SURGERY,-0.003869,51.571964000000001
3112.9500000000003,ADDISON ROAD MEDICAL PRACTICE,-0.0090500000000000008,51.583176000000002
2352,THE MICROFACULTY,-0.018366,51.612558999999997
2577.3699999999999,LIME TREE SURGERY,0.0054169999999999999,51.555717999999999
2308.7200000000003,LARKSHALL MEDICAL CENTRE,0.0029650000000000002,51.626944999999999
1196.22,THE BAILEY PRACTICE,-0.0072740000000000001,51.583846999999999
261.89999999999998,ENHANCED GP SERVICE,-0.001361,51.609383999999999
1379.5500000000002,AKSYR MEDICAL PRACTICE,-0.263604,51.542471999999997
597.89999999999998,KINGSBURY HEALTH AND WELLBEING,-0.26550800000000002,51.591732999999998
1206.1600000000001,WALM LANE SURGERY,-0.219557,51.550345999999998
1049.73,BLESSING MEDICAL CENTRE,-0.20574200000000001,51.533040999999997
1352.27,SUDBURY SURGERY,-0.316409,51.558214
391.08999999999997,KINGS EDGE MEDICAL CENTRE,-0.26879199999999998,51.594982999999999
1299.1800000000001,BURNLEY PRACTICE,-0.23552600000000001,51.542836000000001
413.22000000000003,SMS MEDICAL PRACTICE,-0.30678499999999997,51.549712999999997
798.13999999999999,THE WEMBLEY PRACTICE,-0.30678499999999997,51.549712999999997
2900.0299999999997,GORDON HOUSE SURGERY,-0.31522,51.509943999999997
1328.3900000000001,BELMONT MEDICAL CENTRE,-0.38520300000000002,51.500847999999998
675.24000000000001,DR R CHIBBER'S PRACTICE,0.083740999999999996,51.538803999999999
1541.1799999999998,THE MEDICAL CENTRE,-0.37506099999999998,51.552655999999999
384.75000000000006,THE BEDFORD PARK SURGERY,-0.26230199999999998,51.495980000000003
539.56999999999994,HAMMOND ROAD SURGERY,-0.379612,51.499656000000002
734.41000000000008,LADY MARGARET ROAD MEDICAL CENTRE,-0.37578699999999998,51.513227000000001
2248.46,THE MILL HILL SURGERY,-0.27444600000000002,51.50517
375.18000000000006,THE ACTON HEALTH CENTRE,-0.27019900000000002,51.506214
1236.74,PARKVIEW SURGERY,-0.25747599999999998,51.606973000000004
77.849999999999994,SOLIHULL COMMUNITY,-1.7738499999999999,52.415895999999996
1333.9299999999998,ELTHORNE PARK SURGERY,-0.32629900000000001,51.503745000000002
907.49000000000001,BROADMEAD SURGERY,-0.37626100000000001,51.531514000000001
2868.8699999999999,ST.MARGARETS PRACTICE,-0.32305600000000001,51.459403000000002
2409.6100000000001,CARLTON SURGERY,-0.40459699999999998,51.453338000000002
1024.02,CHISWICK HEALTH PRACTICE,-0.25987900000000003,51.493563000000002
809.15999999999997,KINGS CROSS SURGERY,-0.131658,51.536650000000002
626.6400000000001,CAMDEN HEALTH IMPROVEMENT PRACTICE,-0.138243,51.528275000000001
1671.72,MOUNT MEDICAL CENTRE,-0.38778899999999999,51.440600000000003
1016.6899999999999,CRANFORD MEDICAL CENTRE,-0.41240900000000003,51.481887
958.73000000000002,HOLLY ROAD MEDICAL CENTRE,-0.260378,51.492787
1115.6700000000001,GLEBE STREET SURGERY,-0.256859,51.491385000000001
1632.8100000000002,GROVE PARK SURGERY,-0.26498100000000002,51.481586999999998
387.28999999999996,THE ELM PRACTICE,-0.065144999999999995,51.564419999999998
1701.9199999999998,ASHCHURCH SURGERY,-0.24234,51.501852
1041.1199999999999,THE SURGERY  DR MANGWANA & PARTNERS,-0.215833,51.476281999999998
3581.9699999999993,THE BUSH DOCTORS,-0.219802,51.503177000000001
1555.6400000000001,THE FULHAM MEDICAL CENTRE,-0.19312000000000001,51.480736
3271.3199999999997,SANDS END HEALTH CLINIC,-0.19139100000000001,51.473128000000003
1918.77,PARK MEDICAL CENTRE,-0.24293100000000001,51.496969
787.07999999999993,ARCADIAN GARDENS SURGERY,-0.110773,51.606726999999999
1986.9499999999998,ROXBOURNE MEDICAL CENTRE,-0.36313800000000002,51.567373000000003
3692.6399999999994,THE PINN MEDICAL CENTRE,-0.38223200000000002,51.595075999999999
2527.96,THE NORTHWICK SURGERY,-0.32755299999999998,51.581781999999997
3328.6599999999999,THE RIDGEWAY SURGERY,-0.36510100000000001,51.581004999999998
709.2600000000001,KENTON CLINIC,-0.29241800000000001,51.585968000000001
737.3599999999999,KENTON BRIDGE MEDICAL CENTRE - DR RAJA,-0.31650699999999998,51.582135000000001
5774.1499999999996,HAREFIELD PRACTICE,-0.47909200000000002,51.608519000000001
4643.2100000000009,WOOD LANE MEDICAL CENTRE,-0.42516399999999999,51.571216
1001.03,CEDARS MEDICAL CENTRE,-0.405028,51.570574999999998
122.40000000000001,ISLINGTON GP FEDERATION,-0.091116000000000003,51.527895000000001
1935.0400000000002,HAYES MEDICAL CENTRE,-0.42284300000000002,51.501055000000001
955.10000000000014,YEADING COURT SURGERY,-0.40009,51.528298999999997
3141.98,OTTERFIELD MEDICAL CENTRE,-0.470221,51.514657999999997
1972.52,EASTBURY SURGERY,-0.42388900000000002,51.611631000000003
343.49000000000001,ACREFIELD SURGERY,-0.38230799999999998,51.562224999999998
666.68000000000006,WALLASEY MEDICAL CENTRE,-0.45200499999999999,51.566915000000002
1085.7399999999998,SOUTHCOTE CLINIC,-0.43367600000000001,51.577120999999998
2791.2700000000004,HESA MEDICAL CENTRE - Y00352,-0.41930299999999998,51.505916999999997
2452.5600000000004,STANHOPE MEWS SURGERY,-0.18193100000000001,51.494473999999997
4327.29,GRAND UNION HEALTH CENTRE,-0.19100200000000001,51.520063
735.93000000000006,SCARSDALE MEDICAL CENTRE,-0.19179399999999999,51.499338999999999
482.62,LANCASTER GATE MEDICAL CENTRE,-0.183362,51.511752999999999
679.25,THE GOLBORNE MEDICAL CENTRE,-0.20630299999999999,51.524023
515.99000000000001,EARLS COURT SURGERY,-0.19197,51.488694000000002
924.96000000000004,THE GOOD PRACTICE,-0.178066,51.482652000000002
596.91000000000008,HEALTH AND WELLBEING CENTRE  EARLS COURT,-0.19254199999999999,51.492821999999997
33.600000000000001,HWB CENTRE EARLS COURT WIC,-0.19254199999999999,51.492821999999997
2853.25,LISSON GROVE HEALTH CENTRE,-0.169323,51.524735999999997
3715.29,PIMLICO HEALTH AT THE MARVEN SURGERY,-0.13777700000000001,51.488449000000003
280.31999999999999,SOHO CENTRE FOR HEALTH AND CARE,-0.131914,51.514524000000002
1771.1599999999999,NEWTON MEDICAL CENTRE,-0.191829,51.516280999999999
1135.54,MARYLEBONE HEALTH CENTRE,-0.15153900000000001,51.522838
1713.6800000000003,MILLBANK MEDICAL CENTRE,-0.13023100000000001,51.494030000000002
443.10000000000002,WELLINGTON HEALTH CENTRE,-0.17128399999999999,51.532274999999998
47.670000000000002,THE PASSAGE,-0.14128099999999999,51.495438
1090.25,THE WESTBOURNE GREEN SURGERY,-0.19160199999999999,51.520935999999999
751.42000000000007,DR MAHER SHAKARCHI'S PRACTICE,-0.15135799999999999,51.490651
84.900000000000006,ST MARY'S HOSPITAL UCC,-0.173569,51.516969000000003
3303.21,THE WESTWOOD SURGERY,0.097295999999999994,51.463175999999997
7559.1899999999987,BARNARD MEDICAL GROUP,0.10555,51.42792
10238.07,NORTHUMBERLAND HEATH MED.CTR.,0.16600100000000001,51.476927000000003
6602.6800000000003,SIDCUP MEDICAL CENTRE,0.10593900000000001,51.423560000000002
274.77999999999997,URGENT CARE CENTRE (QMS),0.101687,51.419041
362.19,URGENT CARE CENTRE (ERITH),0.16664300000000001,51.477113000000003
5590.6499999999996,SUMMERCROFT SURGERY,0.063057000000000002,51.365355999999998
1941.75,FAMILY SURGERY,0.089996000000000007,51.354365999999999
4870.2800000000007,LONDON LANE CLINIC,0.0086529999999999992,51.415222999999997
2630.8200000000002,ADDINGTON ROAD SURGERY,-0.0039699999999999996,51.369081000000001
4365.54,SOUTHBOROUGH LANE SURGERY,0.037941999999999997,51.387262
2768.9499999999998,BROMLEY COMMON PRACTICE,0.037941999999999997,51.387262
1102.1999999999998,CRAWLEY ROAD MEDICAL CENTRE,-0.011318999999999999,51.564276
2346.4200000000001,ROBIN HOOD SURGERY,-0.057716000000000003,51.409830999999997
3140.1199999999999,BALLATER SURGERY,0.095000000000000001,51.382199999999997
2295.1300000000001,WICKHAM PARK SURGERY,-0.023318999999999999,51.376153000000002
1213.0300000000002,WHITEHOUSE SURGERY,0.077424999999999994,51.384130999999996
721.68000000000006,ANERLEY SURGERY,-0.062142000000000003,51.409202999999998
1175.7200000000003,SUNDRIDGE MEDICAL CENTRE,0.014741000000000001,51.414678000000002
