total_cost,name,longitude,latitude
91140.65999999992,COLVILLE HEALTH CENTRE,-0.206231,51.515837
84255.53000000007,BRICKFIELDS SURGERY,0.605168,51.653143
74954.93000000007,TYNEMOUTH MEDICAL PRACTICE,-0.068331,51.586253
225587.42999999985,TRINITY MEDICAL CENTRE,-0.172008,50.831228
183992.1999999998,THE CEDARS SURGERY,1.403174,51.217619
86514.11000000007,THE KINGS FAMILY PRACTICE,0.534548,51.377821
96427.53000000001,FOUNTAIN PRACTICE,-0.252307,51.350378
63383.16000000002,ST ALBANS MEDICAL CENTRE,-0.302479,51.42195
164626.34999999995,ORCHID HOUSE SURGERY,-1.894499,50.801788
299343.1199999997,THE HADLEIGH PRACTICE,-1.993525,50.761018
309065.4099999992,THREE CHEQUERS MEDICAL PRACTICE,-1.794625,51.071924
221633.27999999977,WEAVERS MEDICAL,-0.733538,52.401531
148609.87999999974,NUFFIELD HEALTH CENTRE,-1.486793,51.786441
208425.1200000001,BARTON SURGERY,-3.473818,50.579848
209840.89,BIDEFORD MEDICAL CENTRE,-4.211785,51.017201
163482.12999999992,CORBETT MEDICAL PRACTICE,-2.148792,52.263269
348218.8599999991,THE WESTGATE PRACTICE,-1.821176,52.683537
80185.27999999993,COBRIDGE SURGERY,-2.187008,53.035377
36646.71000000007,BURBURY MEDICAL CENTRE,-1.9103740000000002,52.502215
122437.58000000016,PLECK HEALTH CENTRE,-1.9980380000000002,52.574248
47591.32999999993,CORNERSTONE SURGERY,-2.724149,53.454211
28769.560000000016,HIGHER HEYS SURGERY,-2.394094,53.740865
161585.5299999999,ALBION MEDICAL PRACTICE,-2.088476,53.48960400000001
181480.2199999999,DELAMERE MEDICAL PRACTICE,-2.307365,53.450887
38574.24000000001,240 WEXHAM ROAD,-0.57838,51.516902
60889.370000000046,LONGFIELD MEDICAL PRACTICE,-2.28357,53.533828
142881.81000000006,THISTLEMOOR MEDICAL CENTRE,-0.254566,52.595274
27366.890000000014,PALACCI (CASTELNAU),-0.238274,51.476873
46216.27999999999,CANTERBURY HEALTH CENTRE,1.082981,51.274249
80.54999999999998,GP EXTENDED HOURS,-2.597522,53.389256
31801.080000000034,BANBURY HEALTH CENTRE,-1.334014,52.062032
60098.46000000002,BRERETON SURGERY,-1.924317,52.747482
54991.80999999991,THE LAWNS SURGERY,-0.502907,50.807746
80129.89999999994,OAK TREE HEALTH CENTRE,-1.2409629999999998,51.614986
68831.80000000002,THE TRINITY MEDICAL PRACTICE,0.760305,51.684982
2924.92,DERMATOLOGY CLINIC,-2.486748,53.750552
61353.73999999997,SOHO HEALTH CENTRE,-1.934945,52.503094
8529.049999999997,DAWN CLINIC,-1.7272,51.538528
69.05,ST CLAIRE'S HOSPICE,-1.485721,54.967655
171.04,ST RAPHAEL'S HOSP (SUTTON),-0.220816,51.37886
1283.29,ADULT LEARNING DISABILITY SERVICE,-1.484449,52.444687
970.52,BARNET COPD SERVICE,-0.271242,51.606493
102.53,WHHFT COMM'Y DIABETES SERVICE  ST HELENS,-2.610717,53.393973
1302.0200000000002,BECKENHAM BEACON URGENT CARE CENTRE,-0.033209,51.405232
9317.4,HILLINGDON COMMUNITY DERMATOLOGY,-0.08430999999999998,51.500087
105.59,HEALTH VISITORS STOKE,-2.109085,52.810605
52167.96000000007,BRIERLEY MEDICAL CENTRE,-1.382484,53.594188
11253.02,CGL RESOLUTIONS SERVICE,-0.416036,51.876369
1476.61,NORWICH IMPROVED ACCESS HUB,1.319958,52.632405
69998.71,METRO INTERCHANGE SURGERY,-1.602943,54.961848
166075.4000000002,BRIDGE VIEW MEDICAL GROUP,-1.401824,54.919455
101890.8899999999,QUAKERS LANE SURGERY,-1.741713,54.406363
226744.50999999949,HOLLYNS HEALTH & WELLBEING - CLAYTON,-1.81454,53.779166
121111.4699999998,BRIDGE STREET MEDICAL PRACTICE,-1.20716,52.774841
130241.19000000008,CAYTHORPE & ANCASTER MEDICAL PRACTICE,-0.536327,52.981851
104496.29000000004,PARSON DROVE SURGERY,0.050459,52.660947
71918.1900000001,PRIORS FIELD SURGERY,0.124169,52.388951
106366.21000000002,DAVENPORT HOUSE SURGERY,-0.354549,51.816177
179074.95000000007,MILLWAY MEDICAL PRACTICE,-0.24359099999999997,51.614985
79130.25999999997,TEMPLE FORTUNE MEDICAL GROUP,-0.197845,51.581101
7144.639999999997,MOULSHAM LODGE SURGERY,0.475137,51.716565
37991.45,WARRIOR SQUARE SURGERY,0.716503,51.539534
20901.770000000008,BRAYFORD SQUARE SURGERY,-0.050404,51.514375
55062.010000000046,YORK ROAD SURGERY,0.065859,51.559165
199670.06000000023,WEST MALLING GROUP PRACTICE,0.407707,51.293351
121319.35999999994,ELMDENE SURGERY,0.263153,51.446098
125681.19999999992,MOAT HOUSE SURGERY,-0.146361,51.259819
48296.02000000004,ALEXANDRA SURGERY,-0.205887,51.422912
110200.9999999999,DENHAM MEDICAL CENTRE,-0.502236,51.584564
123532.78000000007,CHEW MEDICAL PRACTICE,-2.629195,51.35619
116433.09999999998,ST.GEORGE'S SURGERY,-2.0815,51.906706
190071.16999999978,CHARING SURGERY,0.791374,51.20971
77150.44,THAMES AVE SURGERY,0.603057,51.36344
278868.5800000006,CANTERBURY MEDICAL PRACTICE,1.128982,51.245539
21405.460000000006,TRAFALGAR SURGERY,-0.074414,51.485672
75404.91000000006,THE ORCHARD PRACTICE,-0.303542,51.369116
127666.05999999994,BALHAM PARK SURGERY,-0.155715,51.440487
49434.53000000001,UNIVERSITY HEALTH SERVICE,-1.395714,50.934099
84662.86999999992,LINDEN MEDICAL CENTRE,-0.737415,51.530813
81395.16000000006,OBSERVATORY MEDICAL PRACTICE,-1.265958,51.760293
59676.53999999993,CROPREDY SURGERY,-1.320027,52.116731
324286.10999999987,HEART OF BATH,-2.373947,51.376364
69047.99999999993,BIRCHWOOD MEDICAL PRACTICE,-2.547938,51.446246
64514.070000000036,LOSTWITHIEL SURGERY,-4.668763,50.407892
61568.56000000008,ST SAVIOURS SURGERY,-2.308488,52.130324
123256.40999999995,WERRINGTON VILLAGE SURGERY,-2.098023,53.021659
76436.00000000003,WEST HEATH SURGERY,-1.96202,52.401797
45063.489999999925,WEST PARK SURGERY,-2.141256,52.587783
37624.13999999999,THE MARSHSIDE SURGERY,-2.963125,53.67143299999999
49954.95,MERSEYBANK SURGERY,-2.263012,53.42276
94457.26000000002,THE GROVE ROAD PRACTICE,-0.202341,51.358201
36106.87000000002,MOOR PARK MEDICAL PRACTICE,-1.7218490000000002,53.797834
41652.78000000001,UPTON ROCKS PRIMARY CARE,-2.754371,53.373367
5021.03,FARLEIGH HOSPICE,0.467731,51.776479
77428.77999999984,HANLEY PRIMARY CARE CENTRE,-0.12083699999999999,51.567951
75572.52999999996,LEYLAND SURGERY,-2.709316,53.689645
88044.32999999999,COMMUNITY NURSING,-0.670796,53.57972
935.5200000000003,HP NMP'S RUSH CCG,-1.143101,53.130244
1759.23,THE PRACTICE OPTHALMOLOGY CLINIC,-0.574826,51.671154
4349.21,SWANSWELL WEST BERKS,-1.323646,51.396761
3424.2699999999995,COMMUNITY NURSING,-2.372621,51.358169
434.48,YORKSHIRE SMOKEFREE,-1.018306,53.503028
28.99000000000001,CULTURE FUSION - EIP,-1.7596490000000002,53.792973
97212.67,WELLSBOURNE HEALTHCARE CIC,-0.107386,50.825445
641.15,LINCOLNSHIRE ADHD SERVICE,-0.639665,52.910889
36930.21,CHEVIOT MEDICAL GROUP,-2.01842,55.546525
237922.5399999997,THE CENTRAL SURGERY BARTON,-0.439445,53.684236
44859.77999999993,DEARNE VALLEY HEALTH CENTRE,-1.626482,53.588349
136297.62999999998,MICKLEOVER MEDICAL CENTRE,-1.54633,52.907111
75688.21999999993,THE UNIV OF NOTTINGHAM HEALTH SERV,-1.195942,52.942177
84357.88999999981,LISTER HOUSE SURGERY,-0.4515,51.89192
42490.789999999935,THE ELMS SURGERY,-0.404224,51.661642
73218.00000000007,HOUNSLOW MEDICAL CENTRE,-0.37684,51.469395
40135.06000000003,P A PATEL SURGERY,0.582273,51.56978
19711.149999999994,SANCTA MARIA MEDICAL CENTRE,0.284011,51.507882
303589.5600000001,SEAFORD MEDICAL PRACTICE,0.099275,50.772678
213261.65999999968,BUXTED MEDICAL CENTRE,0.132095,50.989406
20878.369999999988,NEW INN SURGERY,-0.545657,51.257698
65979.36000000006,THE WHITEHORSE PRACTICE,-0.097391,51.385869
108074.66000000003,THE HEALTH CENTRE,-0.19711,51.363031
163435.78999999966,WEST END ROAD SURGERY,-1.359281,50.916702
80721.32999999993,TOWER HOUSE SURGERY,-0.770004,51.636372
142368.03999999995,CHURCH STREET PRACTICE,-1.425847,51.598763
67363.89000000001,CLINTON ROAD SURGERY,-5.224966,50.23093
140264.75999999998,PINHOE SURGERY,-3.469622,50.737528
278588.85999999964,ROSEBANK HEALTH,-2.242194,51.852611
76260.39000000013,MAPLE VIEW MEDICAL PRACTICE,-1.905693,52.31659
96045.59000000004,PRESCOTT SURGERY,-2.852689,52.784345
28115.68999999998,BLOOMSBURY HEALTH CENTRE,-1.876618,52.493743
104838.66,HEATON ROAD SURGERY,-1.579814,54.978269
76830.11000000002,49 MARINE AVENUE SURGERY,-1.451082,55.046268
116323.3999999998,HOUGHTON MEDICAL GROUP ,-1.469175,54.842322
107929.86999999998,HOWDEN MEDICAL PRACTICE,-0.8694039999999998,53.744175
52215.4,HANCOCKS ME,-0.41296400000000005,53.782123
144101.5599999998,THE WILSDEN MEDICAL PRACTICE,-1.86138,53.818377
28184.850000000035,COLSTERWORTH SURGERY,-0.619356,52.806388
48372.02000000008,LUNDWOOD MEDICAL CENTRE PMS PRACTICE,-1.438538,53.557711
45990.54000000006,GREASBROUGH MEDICAL CENTRE,-1.372776,53.452893
96276.80000000008,WELLSIDE SURGERY,-0.28478,52.440324
73644.44000000008,CLARE GUILDHALL SURGERY,0.580469,52.078259
102063.00999999997,LATTIMORE & VILLAGE SURGERY,-0.298547,51.726244
13880.249999999993,SOMERSET MEDICAL CENTRE,-0.371127,51.522244
175717.33,CENTRAL UXBRIDGE SURGERY,-0.475739,51.546229
158132.48999999993,WEST MERSEA SURGERY,0.9193420000000002,51.778349
151529.10000000018,HIGHLANDS SURGERY,0.637339,51.548005
89351.79999999992,BALLARDS WALK SURGERY,0.441841,51.573232
177430.45000000024,DOWNLANDS MEDICAL CENTRE,0.244085,50.822919
116116.45000000016,OTFORD MEDICAL PRACTICE,0.191446,51.31358
57923.39,THE HALFWAY SURGERY,0.524157,51.380429
110072.26000000004,BURNEY STREET PMS,-0.009168,51.479034
84278.16000000003,ELIZABETH HOUSE MEDICAL PRACTICE,-0.050005,51.308093
28724.040000000005,ADDINGTON MEDICAL PRACTICE,-0.018557,51.344382
18275.290000000015,SARAJLIC (STAINES ROAD),-0.357923,51.439672
322230.28000000014,ROYAL CRESCENT SURGERY,-2.452679,50.616587
112338.07,TWYFORD SURGERY,-1.314229,51.019421
15395.330000000005,ABBEY MEDICAL CENTRE,-0.982406,51.453949
78631.77999999996,ST.BARTHOLOMEWS MEDICAL CENTRE,-1.232108,51.747668
318021.6900000001,THE DOWNEND HEALTH GROUP,-2.505301,51.485109
108397.94999999997,IDE LANE SURGERY,-3.534972,50.699471
59499.62,THE ARROW SURGERY,-1.861382,52.218546
180988.52999999974,DR SN CLAY AND PARTNERS,-1.832005,52.528641
56712.53000000005,WILLENHAL OAK MEDICAL CENTRE,-1.463131,52.388988
135644.41999999993,WORDSLEY GREEN HEALTH CENTRE,-2.164692,52.480602
230394.16000000032,THE OVER-WYRE MED.CTR.,-2.976492,53.928203
82617.07000000004,FISHERGATE HILL SURGERY,-2.714363,53.75445500000001
48239.43999999997,THE SINGH MEDICAL PRACTICE,-2.213622,53.512042
115946.32000000002,PARK VIEW GROUP PRACTICE,-2.160577,53.445476
31499.09999999999,FAMILY SURGERY,-2.346055,53.396194
5694.089999999998,STROKE PATHWAY AND REHABILITATION CENTRE,-1.461102,53.37116700000001
215.51,COMMUNITY PAEDIATRICS (SILCS),-1.612399,53.799904
5.37,NWR COMMUNITY SERVICES,-1.014748,51.449145
330.6400000000001,ABOUT HEALTH LN DERMATOLOGY,-2.455551,53.733223
11367.470000000007,URGENT CARE,0.475497,50.850706
162.22,NMP CCS - CYP SERVICE UNIT,-0.067127,52.322863
613.67,COMPTON HOSPICE,-2.172068,52.585801
21319.729999999967,CRANBROOK MEDICAL PRACTICE,-3.416198,50.746596
608.0299999999999,PCOC DVT SERVICE,-0.7662759999999998,52.000308
1181.6100000000004,GOSPORT PRIMARY CARE ACCESS CENTRE,-1.148081,50.793062
225.66,OLDHAM COMMUNITY HEALTH SERVICES,-2.146984,53.542056
379.86000000000007,COMMUNITY PALLIATIVE CARE MEDICAL TEAM,-2.777861,53.433387
184048.78999999992,WHITLEY BAY HEALTH CENTRE,-1.43996,55.04141
152522.99000000002,BLACKBURN RD.MEDICAL CTR.,-1.664718,53.731348
353928.8400000006,MARKET HARBOROUGH MED.CTR,-0.924843,52.477084
117785.57999999994,COMMUNITY HEALTH CENTRE (ZS OSAMA),-1.113421,52.632387
123615.20000000016,TRAMWAYS MEDICAL CENTRE (O'CONNELL),-1.503023,53.402044
168831.74999999994,SAFFRON HEALTH PARTNERSHIP,-0.264459,52.084232
85707.60999999996,GLADSTONE MEDICAL CENTRE,-0.24612,51.558731
65371.67000000001,ST MARTINS MEDICAL CENTRE,-0.424566,51.577646
43950.859999999964,ABRIDGE SURGERY,0.12458,51.653631
44081.27999999999,ELSDALE STREET SURGERY,-0.049094,51.543033
110990.60000000015,STOPSLEY VILLAGE PRACTICE,-0.394147,51.901132
231864.03000000012,SHEFFORD HEALTH CENTRE,-0.321643,52.034788
62231.84000000002,VALE DRIVE MEDICAL PRACTICE,-0.194727,51.648828
85546.31999999998,THE FRYENT WAY SURGERY,-0.280565,51.582963
73827.71000000012,BELMONT MEDICAL CENTRE,-0.478036,51.548264
68160.31000000008,PORTLAND ROAD PRACTICE,-0.208019,51.507366
248218.94000000012,AUDLEY MILLS SURGERY,0.607129,51.584978
70676.5,STRATFORD HEALTH CENTRE,0.004714,51.544651
33489.92999999999,THE STROUDLEY WLK HTH CTR,-0.017533,51.527214
84541.21000000015,ST JOHN'S MEDICAL PRACTICE,0.195249,51.285009
110710.16,BEXLEY GROUP PRACTICE,0.10965599999999999,51.465832
81037.57,DERRY DOWNS SURGERY,0.116651,51.385174
82037.21000000004,UPPER NORWOOD GROUP PRACTICE,-0.08482,51.413308
62411.84000000005,THE MOORINGS MEDICAL PRACTICE,-0.095892,51.322229
84723.09999999977,THE TOLLERFORD PRACTICE,-2.571586,50.778924
194864.96000000005,BLACKTHORN HEALTH CENTRE,-1.327194,50.876037
51675.729999999894,JUBILEE FIELD SURGERY,-2.191875,51.484091
91527.34,DANES CAMP MEDICAL CENTRE,-0.904374,52.205152
122152.33999999988,THORNBURY HEALTH CENTRE - BURNEY,-2.517723,51.612861
107987.10000000027,ELM HAYES SURGERY,-2.492756,51.300546
79568.31999999998,CULVERHAY SURGERY,-2.348649,51.638921
168464.83000000034,SHAWBIRCH MEDICAL CENTRE,-2.531858,52.718121
148220.9600000002,THE DOVE MEDICAL PRACTICE,-1.864605,52.535155
224121.30999999976,MOSS GROVE SURGERY,-2.1699,52.498674
182673.39999999985,WARLEY MEDICAL CENTRE,-2.006757,52.468122
95723.68,SPRINGFIELDS MEDICAL CENTRE,-2.597522,53.389256
138301.39,WEAVER VALE PRACTICE,-2.696866,53.325561
126300.86000000007,GLOVERS LANE SURGERY,-2.971961,53.488314
71206.77999999998,OLIVE MEDICAL CENTRE,-2.484193,53.752309
68048.31000000011,HALLIWELL SURGERY 1,-2.431738,53.588322
93578.89999999986,HEATON MERSEY MED.PRACT.,-2.205118,53.412519
39222.2,VILLAGE SURGERY,-0.255874,51.399503
37227.73,SOMERS TOWN MEDICAL CENTRE,-0.130607,51.529916
25411.069999999985,FITZMAURICE (KEW),-0.283117,51.475875
59473.430000000095,WOOTTON VALE HEALTHY LIVING CENTRE,-0.527951,52.093688
69719.97999999997,ST LUKE'S HEALTH CENTRE,0.7293039999999998,51.551
361671.7299999999,THE MEDICAL GROUP,-1.628911,54.748296
129795.1,GLENPARK MEDICAL CENTRE,-1.640096,54.953229
42907.77999999995,DR KHALIQ,-1.799612,53.663276
179257.08999999988,ROBIN LANE HEALTH AND WELLBEING CENTRE,-1.661311,53.79500899999999
58997.97000000004,LAUREL BANK SURGERY,-1.587333,53.816942
100348.03999999988,HUGGLESCOTE SURGERY,-1.365684,52.71103
56813.45999999997,HEALTH CARE COMPLEX  KIRKBY,-1.244634,53.100062
100543.66000000002,RED HOUSE SURGERY,0.129161,52.214906
61310.42999999997,KINGS HEAD MEDICAL PRACTICE,-0.011448,51.635688
13197.63,WARRINGTON SUBSTANCE MISUSE SERVICE,-2.595849,53.38675799999999
23160.51,BRIMPTON HOUSE,0.699534,51.835776
70796.38000000006,THE AZAD PRACTICE,0.044868,51.531234
51648.46000000002,NEWHOLME SURGERY,-2.74261,53.456686
1820.46,NEW HOPE,-0.752472,51.414889
24.04,WALSALL CHILD DEVELOPMENT CENTRE,-1.956181,52.61429
1663.1,BRIGHTON STATION WALK-IN,-0.141323,50.827937
3257.1099999999988,SW INTEGRATED TEAM MALVERN,-2.178135,52.192339
44.14,CCCT 2,-2.019013,53.955694
335.03,COMMUNITY NURSES,-2.500977,51.462504
783.99,ADULT LD COMM SERVICES NW,-1.477708,52.526988
7.98,SUE RYDER MANORLANDS HOSPICE,-1.951227,53.813255
201.75000000000003,CHILDRENS SERVICES,-0.08679399999999998,51.503466
29.790000000000006,FELIXSTOWE HOSPITAL,1.35594,51.963766
29.05,ADULT MH COMMUNITY - ACCESS TEAM,-2.210832,53.000486
45.93000000000001,ST HELENS 0-19 CHILDRENS SERVICE,-2.606862,53.42951600000001
82837.81999999995,LUNESDALE SURGERY,-2.602213,54.200573
182029.4600000003,COQUET MEDICAL GROUP,-1.580504,55.332599
30096.70999999998,THE GLENDALE SURGERY,-2.01842,55.546525
68917.96000000011,ALLERTON MEDICAL CENTRE,-1.533879,53.826921
137476.1099999999,SPILSBY SURGERY,0.098963,53.173049
46536.17000000004,BRIDGEWAY PRACTICE,-1.147343,52.943574
149876.46000000008,THORNE MOOR MEDICAL PRACTICE,-0.966348,53.613648
143524.64999999962,MANOR AND PARK GROUP PRACTICE,-1.42716,53.373705
72488.3300000001,SOLE BAY H/C,1.6664740000000002,52.336325
56930.12999999996,DR PS BATH'S PRACTICE,-0.394147,51.901132
42328.53999999998,WATERSIDE MEDICAL CENTRE,-0.363984,51.502165
107851.21999999996,MELBOURNE HOUSE SURGERY,0.451756,51.749214
231629.6599999999,LITTLE WALTHAM & GT NOTLEY SURGERY,0.477622,51.787396
80349.82000000012,AMPTHILL PRACTICE,-0.137293,51.5346
81114.89000000001,THE NORTH LONDON HEALTH CENTRE,-0.11243199999999999,51.617571
78250.9300000001,THE WILLOWS PRACTICE,0.104416,51.60776
184692.01,ST.PETER'S MEDICAL CENTRE,-0.135237,50.831002
198491.37999999995,HIGHPARKS MEDICAL PRACTICE,0.496762,51.434213
91921.99000000003,YALDING,0.429804,51.221188
102871.81999999992,CRAWLEY DOWN HEALTH CENTRE,-0.07762099999999998,51.122557
56288.20999999996,BIRDHURST MEDICAL PRACTICE,-0.092613,51.365279
169445.12000000017,FORESTSIDE MEDICAL PRACTICE,-1.416173,50.851823
56042.79000000003,BENTLEY VILLAGE SURGERY,-0.87992,51.189933
69654.11999999995,DR KUMAR & PARTNER STUDFALL MEDICAL CTR,-0.704816,52.495882
183279.0299999998,CASTLE PLACE PRACTICE,-3.492865,50.908884
131558.9800000001,COTSWOLD MEDICAL PRACTICE,-1.75678,51.886317
157668.16000000006,GLASTONBURY SURGERY,-2.721853,51.148462
138059.88000000012,NUNWELL SURGERY,-2.507177,52.187931
104972.98999999989,CLEOBURY MORTIMER SURGERY,-2.485608,52.377502
139924.38999999998,MEDINA HEALTHCARE,-1.298686,50.697239
128677.97999999988,BEDFORD STREET SURGERY,-0.729782,51.995784
203842.61999999988,ALCHESTER MEDICAL GROUP,-1.138371,51.891398
108635.24999999994,GREENWAY COMMUNITY PRACTICE,-2.611274,51.499595
213997.67999999976,THREE SPIRES MEDICAL PRACTICE,-5.055864,50.259982
173050.0499999998,DEAN CROSS SURGERY,-4.095355,50.358939
103557.64000000016,SOUTHOVER MEDICAL PRACTICE,-3.528075,50.474733
116881.02999999982,NEW VALLEY PRACTICE,-3.654492,50.792383
147384.44000000006,THE STOKE ROAD SURGERY ,-2.068173,51.94667
173230.1900000001,HIGHBRIDGE MEDICAL CENTRE,-2.979117,51.227372
156266.38000000006,CANTILUPE SURGERY,-2.712261,52.055418
135882.03999999995,MYTTON OAK MEDICAL PRACT.,-2.797762,52.707667
77343.23999999993,DRS SHAH & TALPUR,-2.194635,52.974032
94911.61999999991,DR VSR CHADALAVADA,-2.139143,53.0416
98074.67999999996,HAWKESLEY MEDICAL PRACTICE,-1.937498,52.39544
18318.339999999997,KEYNELL COVERT,-1.911857,52.408441
115925.06999999988,PARK MEDICAL CENTRE,-2.873099,53.202665
125538.26999999984,NORWOOD SURGERY,-2.97819,53.65000799999999
150347.1599999999,WHALLEY MEDICAL CENTRE,-2.406348,53.819793
15764.030000000002,SLAIDBURN HEALTH CENTRE,-2.444001,53.967313
107626.08999999992,PIKES LANE 1,-2.446348,53.572728
32216.43,DR PATHAK ND,-1.9843959999999998,52.51273
43776.68,STRELLEY HEALTH CENTRE (COCKRILL),-1.227726,52.973231
60807.31000000001,PHOENIX MEDICAL PRACTICE,0.48126899999999995,51.328805
36822.19,NETHERTON SURGERY,-2.97236,53.488626
54632.26999999996,DILSTON MEDICAL CENTRE,-1.640355,54.976621
11924.05,INTERGRATED COMMUNITY PAEDIATRIC SERVICE,-2.384279,53.582354
50871.78999999995,NORTH CHELMSFORD NHS HCC,0.510815,51.750584
26860.64000000001,KIRKHOLT MEDICAL PRACTICE,-2.162243,53.59832
430.2000000000001,WOKING ALEXANDRA WARD,-0.556304,51.315132
60.3,GPHP - GP IN A&E,-0.273231,51.325518
58416.64000000006,DR AZIM & PARTNERS,-0.225729,51.579655
32.97,BARTON MOSS SECURE CHILDREN'S HOME,-2.39687,53.468834
52230.86000000001,BHF HIGHGATE SURGERY,-1.378978,53.573614
83915.23000000008,SEASCALE HEALTH CENTRE,-3.479998,54.396756
35190.50000000003,WIDDRINGTON SURGERY,-1.62051,55.240248
68423.43000000002,RIPLEY MEDICAL CENTRE,-1.405723,53.04704
80290.36999999982,DE MONTFORT SURGERY,-1.141192,52.6286
55212.37000000007,DENABY MEDICAL PRACTICE,-1.245792,53.490666
90512.67999999992,MENDLESHAM MEDICAL GROUP,1.0816,52.251866
96120.50000000016,UPTON ROAD SURGERY,-0.401058,51.656689
181368.36999999997,DOLPHIN HOUSE SURGERY,-0.029818,51.810791
78844.38999999985,THE EVERGLADE MEDICAL PRACTICE,-0.24421,51.601578
86724.93,FRIERN BARNET MEDICAL CENTRE,-0.155988,51.613267
36620.939999999966,THE CIVIC MEDICAL CENTRE,-0.337497,51.587155
113182.9199999999,THE GOLD STREET SURGERY,0.240471,52.021716
169809.48000000016,THE HOLLIES,0.610574,51.555461
28578.52999999999,THE LEIGH SURGERY,0.656153,51.555504
80813.84999999989,WEST HAMPSTEAD MEDICAL CENTRE,-0.196578,51.55004
132916.25000000006,STAUNTON GROUP PRACTICE,-0.112926,51.599388
133259.94999999998,SOUTHBROOM SURGERY,-1.989037,51.352288
111639.47,THE DOWNLAND PRACTICE,-1.312402,51.463442
49309.30000000004,BLAKENEY SURGERY,-2.476364,51.759117
129148.84,WELLS HEALTH CENTRE,-2.655326,51.203403
137139.72000000038,RIVERSIDE MED.PRACTICE,-2.755278,52.709209
70325.63000000003,CHANCERY LANE SURGERY,-1.521755,52.536173
66809.68000000008,NECHELLS PRACTICE,-1.876618,52.493743
113412.80999999981,THE LIMES MEDICAL CENTRE,-1.974677,52.58065500000001
91501.83000000006,TOWNFIELD HEALTH CENTRE,-3.064248,53.378798
21771.21000000001,PRINGLE STREET SURGERY,-2.467594,53.742039
61749.2,HOPWOOD MEDICAL CENTRE,-2.212052,53.587143
182939.61999999973,THE KILTEARN MEDICAL CTR.,-2.518506,53.068155
174966.01999999981,BROADWAY MEDICAL CENTRE,-3.033843,53.912667
71279.37999999998,EGERTON/DUNSCAR HEALTH CENTRE,-2.426383,53.617589
195228.35000000006,SADDLEWORTH MEDICAL PRACTICE,-2.004957,53.548331
36842.86999999999,VILLAGE MEDICAL PRACTICE,-2.095994,53.574817
36644.17000000004,EASTGATE SURGERY,-0.519836,51.886145
83.40999999999998,ST PETER'S HOSPICE,-2.609013,51.506125
40881.719999999965,SUMMERFIELD GROUP PRACTICE,-1.937353,52.487686
2751.31,CATS - VERULAM GYNAECOLOGY,-0.302218,51.724886
93396.28000000007,PHOENIX PRIMARY CARE (SOUTH) LTD,-0.441597,51.88973
72119.67999999998,THURROCK HEALTH CENTRE,0.323317,51.477404
1172.98,PATIENT FIRST SOCIAL ENTERPRISE,0.006461,51.542096
392.18,SOLENT WEST NMPS,-1.446031,50.92524
4485.93,CWP (WEST) PHYSICAL HEALTH,-2.897884,53.2088
997.47,CNWL-MK MEDICAL PRESCRIBER,-0.7357599999999997,52.026384
422.44,REDDITCH CMHT,-1.940229,52.303594
614.1599999999996,CAMHS - WORCESTER,-2.183119,52.192425
20.75,HMP LIVERPOOL,-2.969166,53.457543
505.6600000000001,SOTON COMMUNITY ENT SERVICE RSH,-1.397076,50.912389
1962.68,THOMAS LINACRE SPECIALIST,-2.629091,53.55774
5011.290000000001,CARE UK COVENTRY OOH,-1.5080049999999998,52.413401
1342.5600000000004,NSC BOSWORTH HUB,-1.7536330000000002,52.480569
1217.87,SKEGNESS & COAST GP EXTENDED ACCESS HUB,0.342219,53.188059
47.59,COASTAL HEALTH SOUTH,1.715177,52.478072
26431.770000000015,THE OM SURGERY,-1.2057,53.034978
2731.9300000000007,LINCOLN OOH,-0.519635,53.233575
110010.80999999998,THE NEW SPRINGWELLS PRACTICE,-0.340804,52.893623
23.37,HMP/YOI ASKHAM GRANGE,-1.184091,53.925917
210.0,WANDSWORTH COMMUNITY WARDS,-0.145908,51.472301
3051.66,SAME DAY HEALTH CNTRE COASTAL HEALTHCARE,-2.859565,54.072841
7877.609999999998,WHITTINGTON HEALTH (HARINGEY),-0.139066,51.566482
1785.7200000000007,PARSONS GREEN WIC,-0.199155,51.47377
41338.449999999946,CAMP HILL GP LED HEALTH CENTRE,-1.507061,52.533074
10103.600000000002,DONCASTER URGENT CARE & OUT OF HOURS,-1.109062,53.530806
664.27,THE CONFEDERATION HILLINGDON CIC,-0.47790600000000005,51.547653
717.1700000000002,SHIRLEY MEDICAL EXTENDED ACCESS LLP,-0.044859,51.375139
1098.36,EAST CLUSTER IAGPS,-1.82052,50.747482
44.34,HMR CCG HART,-2.152215,53.620446
28329.15,ADHD SPECIALIST NURSING TEAM,-1.9374790000000002,52.436098
41140.48,THE PATEL PRACTICE,-1.1885709999999998,54.661404
171671.21999999986,HOLMSIDE MEDICAL GROUP,-1.66023,54.969004
108522.65999999986,FARROW MEDICAL CENTRE,-1.74312,53.802511
103613.91000000003,PADDOCK AND LONGWOOD FAMILY PRACTICE,-1.80546,53.642119
100670.15000000004,BRAMLEY VILLAGE HEALTH & WELLBEING CTR,-1.623032,53.80781999999999
48487.37999999998,SEVERN SURGERY,-1.065583,52.598801
350049.0300000006,BEACHES MEDICAL CENTRE,1.727734,52.577124
81030.8599999999,LINDEN ROAD SURGERY,-0.479248,52.14361
139328.50000000032,CUFFLEY AND GOFFS OAK MEDICAL PRACTICE,-0.113106,51.708171
59.68,FAIRFIELD HOSPITAL OUT PATIENTS,-2.750074,53.484549
145.24,SOUTH WIGSTON ASYLUM SERVICE,-1.12559,52.63753
213.28999999999996,ARC,-3.002931,53.801771
125.06,PRIMARY CARE ACCESS HUB (SOUTH STOKE),-2.102853,52.97847
5.85,WORKING AGE ADULTS - PULLMAN PLACE,-2.238316,51.866796
644.8699999999999,NEAS SOUTH TYNESIDE CCG,-1.712365,54.969713
1551.24,GP SERVICES-CRAWLEY HUB,-0.175734,51.240416
1336.7600000000007,PROCARE HEALTH SERVICES,-0.708282,51.091746
12.88,HMP WYMOTT,-2.749412,53.678372
10361.729999999998,GLOUCESTER (CARE UK) OOH,-2.30608,51.879263
223.64,EXTENDED ACCESS PCD CONISBROUGH GROUP,-1.237653,53.482282
63.0,WIGAN AND LEIGH SEXUAL HEALTH SERVICE,-2.632808,53.547929
167726.42999999988,THE GARTH,-1.055444,54.532597
91900.46000000002,THE GABLES MEDICAL GROUP,-1.564429,55.140811
71112.13000000002,HAYDON BRIDGE & ALLENDALE MEDICAL PRACT,-2.250059,54.975681
99294.89999999986,SPRING TERRACE HEALTH CENTRE,-1.450673,55.010941
108437.84999999989,PRACTICE ONE,-0.201064,54.084715
168510.38999999987,CHURCH STREET SURGERY,-1.583343,53.681523
117485.23000000005,SOUTH WIGSTON HEALTH CTR.,-1.129183,52.580452
35579.44999999998,BRAMCOTE SURGERY,-1.244985,52.935604
120476.24000000006,CAMPINGLAND SURGERY,0.690978,52.645997
220026.64999999988,LEIGHTON ROAD SURGERY,-0.66795,51.915779
134620.49999999994,WILLOW TREE FAMILY DOCTORS,-0.265224,51.589337
82225.19999999995,QUEENS WALK PRACTICE,-0.312985,51.524803
69166.15000000005,HIGH STREET SURGERY  EPPING,0.113402,51.700812
192466.49000000022,OLD ROAD SURGERY,1.148421,51.795466
47494.83999999998,HIGH STREET SURGERY,0.223589,51.561554
111745.26,THE LIMEHOUSE PRACTICE,-0.028747,51.511253
22011.48,MEDICUS HEALTH PARTNERS-WILLOW HOUSE,-0.07659,51.654209
63511.800000000076,MAIDSTONE RD RAINHAM SURGERY,0.600379,51.36233
36203.669999999984,BANK HOUSE SURGERY,0.069949,51.359218
78746.59000000004,FORDBRIDGE MEDICAL CENTRE,-0.46301,51.431269
107593.03999999998,EVERSLEY MEDICAL CENTRE,-0.11191300000000001,51.388514
81241.2999999999,YORK MEDICAL PRACTICE,-0.325697,51.449369
45877.22999999992,BERRYLANDS SURGERY,-0.299929,51.390825
158320.28999999978,CRICKET GREEN MEDICAL PRACTICE,-0.174025,51.404579
81321.6,CARRINGTON HOUSE SURGERY,-0.749217,51.632299
33102.33999999996,PROSPECT HOUSE SURGERY,-0.705258,51.701136
37020.180000000015,WEMBURY SURGERY,-4.072566,50.32186
76096.84999999992,HOLLYOAKS MEDICAL CENTRE,-1.869052,52.377979
106109.67,WOODSETTON MEDICAL CENTRE,-2.10089,52.537994
151499.72000000026,SHERWOOD HOUSE MEDICAL PRACTICE,-1.959426,52.473851
42132.319999999934,GARSTON FAMILY HEALTH CENTRE,-2.89683,53.353909
87307.6199999999,COMMONFIELD RD SURGERY,-3.086369,53.370187
105112.47999999992,THE BORCHARDT MEDICAL CENTRE,-2.237795,53.434307
40878.47999999994,WERNETH MEDICAL PRACTICE,-2.126938,53.53497
20666.939999999973,CHAPEL MEDICAL CENTRE,-2.418293,53.449094
65314.68000000001,DR VICTORIA MUIR'S PRACTICE,-0.151358,51.490651
122671.45,WELLFIELD MEDICAL CENTRE,-2.242019,53.512545
148681.38000000006,NEWLANDS MEDICAL CENTRE,-1.226035,54.571931
125693.85000000006,WIGTON GROUP MEDICAL PRACTICE,-3.159002,54.820303
47615.79000000002,THE FAMILY PRACTICE,-3.229282,54.116755
217597.4799999997,SKERNE MEDICAL GROUP,-1.4488,54.654032
144784.0799999998,ST ANDREWS SURGERY,-0.361958,53.735566
60290.15999999999,COWGILL SURGERY,-1.814543,53.781952
134235.77999999994,VILLAGE SURGERY,-1.485797,52.896347
48913.42000000001,THE GLENSIDE COUNTRY PRACTICE,-0.537958,52.75451
43496.59000000008,PLEASLEY SURGERY,-1.250873,53.175809
93155.05,BACON LANE SURGERY,-0.275903,51.605078
121928.57999999984,THE MEDICAL CENTRE  DR JEFFERIES & PARTN,-0.212607,51.481206
51659.309999999925,MEANWHILE GARDEN MEDICAL CENTRE,-0.203126,51.522228
234040.3899999997,THE LIMES MEDICAL CENTRE,0.123958,51.706179
125533.78999999994,CHIGWELL MEDICAL CENTRE,0.083876,51.60551
29530.07999999999,NORTH AVENUE SURGERY,0.735187,51.546618
42358.34000000001,ROSERTON STREET SURGERY,-0.010049,51.498482
20334.589999999982,MEDICUS HEALTH PARTNERS- BUSH HILL PARK,-0.066545,51.63953
138283.89999999994,ALBION PLACE MEDICAL PRACTICE,0.529542,51.274206
45739.83999999996,OLD PARSONAGE SURGERY,0.460418,51.112785
71885.86000000007,TRIVENI PMS,0.058438,51.490321
107707.77999999993,HAWTHORNS SURGERY,-0.175174,51.241163
115157.02999999988,TRINITY MEDICAL CENTRE,-0.158437,51.437554
30486.32000000001,MITCHAM FAMILY PRACTICE,-0.167118,51.410109
78013.49000000003,THE WELLBRIDGE PRACTICE,-2.225354,50.679039
170134.9999999994,THE HARVEY PRACTICE,-1.993525,50.761018
228827.3499999997,HOMEWELL.CURLEW PRACTICE,-0.978019,50.851067
159995.5900000001,SPA MEDICAL CENTRE,-2.126012,51.366868
78418.61000000007,COOKHAM MEDICAL CENTRE,-0.725805,51.558356
144079.16999999978,THE MISBOURNE SURGERY,-0.558045,51.607786
156612.6899999996,ORCHARD MEDICAL CENTRE,-2.510659,51.462087
69348.60999999997,LYNGFORD PARK,-3.090916,51.036442
177241.12,STAFFORD HEALTH AND WELLBEING,-2.123291,52.817722
56282.29000000002,BOURNBROOK VARSITY MEDICAL CENTRE,-1.929903,52.445713
31206.79,CAUSEWAY GREEN ROAD SURGERY,-2.014697,52.484564
159074.19,PATTERDALE LODGE MED CTRE,-2.64461,53.452446
117357.76000000008,SUNLIGHT GROUP PRACTICE,-3.00005,53.363076
88702.94999999997,SHAY LANE MEDICAL CENTRE (KELMAN),-2.31556,53.372189
86580.00000000003,BLYTH ROAD MEDICAL CENTRE,-1.20365,53.422231
25711.49,INSPIRING RECOVERY SERVICE,-1.497086,53.68441
80194.71000000012,CENTRAL MEDICAL CENTRE,-0.245977,52.587
82597.33999999998,HARBOUR MEDICAL PRACTICE,0.324489,50.797353
537.1199999999999,URGENT CARE CTR (FCMS) OOH,-3.015863,53.820616
158142.08999999982,MORRAB SURGERY,-5.538987,50.116924
162953.4299999997,WILLOW BANK SURGERY,-2.102853,52.97847
145465.90999999986,EVERGREEN PRIMARY CARE CENTRE,-0.059836,51.623784
256.14,MEANWOOD GROUP PRACTICE ENT SERVICE,-1.565811,53.827167
5387.579999999999,BHC NON MEDICAL PRESCRIBERS,0.010423,51.377216
24.82,SCS DIABETES SERVICE,-0.150861,51.357264
225.66,M & A LTC PALLIATIVE CARE NURSE,-1.238124,52.98146
10585.10999999999,BARDOC GP OOH,-2.427769,53.590447
3134.7499999999986,BANES ENHANCED MEDICAL SERVICE (BEMS+),-2.372621,51.358169
610.41,ADULT ADHD SERVICE NMP 1,-0.955523,51.450745
43.07000000000001,SHAKESPEARE WIC,-1.525196,53.802098
126.51,BROOMFIELD DOCTOR IN ED,0.465993,51.774654
282.11,CCG ACUTE VISITING SERVICE,-2.178123,53.021853
403.87,NEWMEDICA COMMUNITY OPHTHALMOLOGY,-0.108523,53.567689
1486.35,LGI GPS IN A+E,-1.551744,53.801445
266.42,M&A AHVS (PICS),-1.238124,52.98146
141852.12999999983,BARBOURNE HEALTH CENTRE,-2.224952,52.208752
59611.61999999999,CRAVEN ARMS SURGERY,-2.835416,52.442323
250084.4299999997,THE HAYMARKET HEALTH CTR,-2.211781,53.060343
78176.17000000007,GOLDENHILL MEDICAL CENTRE,-2.221385,53.076901
99490.23999999996,JIGGINS LANE MEDICAL CENTRE,-1.995411,52.436801
36601.55999999997,DARTMOUTH MEDICAL CENTRE,-2.005409,52.520435
73567.58,ARRAN MEDICAL CENTRE,-1.748679,52.50386700000001
118819.95999999992,CHAPEL LANE SURGERY,-3.061428,53.557075
69804.54999999994,HEATHERLANDS MED CTR,-3.089543,53.381475
68636.38000000003,GUTTERIDGE MEDICAL CENTRE,-2.691248,53.769881
42718.23000000004,TOWN HALL SURGERY,-2.092973,53.478374
65779.27999999993,LILFORD PARK SURGERY,-2.511455,53.503236
15670.620000000004,PEEL PRECINCT SURGERY,-0.198814,51.534421
88947.68000000004,CATHEDRAL MEDICAL CENTRE,0.275488,52.413145
4095.969999999999,NDUC NEWCASTLE GATESHEAD OOH,-1.58819,55.01931999999999
232.4,ANTICOAG SERV YARDLEY WOOD,-1.859168,52.418648
15.79,IPU10-17 EIT NW & RUGBY,-1.477708,52.526988
733.4099999999997,MARSDEN INTERMEDIATE CARE,-1.696689,53.676075
4554.8899999999985,EXTENDED ACCESS PRIMARY CARE HUB,-0.079465,51.533775
54.7,PCH WARD,-2.077775,52.114052
52.17,GREENWICH COMMUNITY HOSPICE,0.118096,51.482685
1084.7900000000006,LCW WLCCG OOH,-0.217218,51.522362
25573.560000000023,MALLING HEALTH AT STOKE ALDERMOOR,-1.479565,52.402142
1538.9499999999996,WARWICK MYTON HOSPICE,-1.55866,52.28263
3171.880000000001,THGPCG SERVICE OOH,-0.004927,51.514483
2977.8,EPILEPSY NURSE CANNOCK,-2.030614,52.693241
55830.480000000076,DENMARK ROAD SURGERY,-0.06725100000000002,51.393136
4277.279999999997,VC WEST LANCS HC-UCC,-2.871252,53.564616
1483.7799999999993,HOME VISITING SERVICE,-2.165957,53.412542
88648.94999999997,MEIR PARK & WESTON COYNEY MEDICAL PRACT,-2.094889,52.966305
74135.08000000002,HAMSTEAD ROAD SURGERY,-1.919012,52.504474
103001.48000000014,OAKWOOD SURGERY,-1.858645,52.444556
24797.84,SURGERY AUBERY ROAD,-1.846411,52.46633
42706.90999999999,MOXLEY MEDICAL CENTRE,-2.051113,52.560033
115725.65999999995,NORTH PARK HEALTH CENTRE,-2.995994,53.458392
29707.949999999993,MEDICARE UNIT SURGERY,-2.69241,53.725239
74586.1299999999,LOSTOCK MEDICAL CENTRE,-2.328128,53.45458000000001
52247.69,THE GROVE MEDICAL PRACTICE,-0.362401,51.55534
51035.84000000007,THE GAMSTON MEDICAL CTR.,-1.100495,52.924252
73997.25000000007,LANGLEY MEDICAL PRACTICE,-0.299929,51.390825
122.58,TELFORD OOH,-2.732712,52.740396
55026.84,THE DURU PRACTICE,-2.116945,53.543824
43539.81,ADDICTIONS SERVICE,-1.607294,54.973724
18224.97,NHS BWD SUBSTANCE MISUSE SERVICE,-2.481065,53.75065
7874.7599999999975,ERDINGTON GP HEALTH & WELLBEING WIC,-1.840871,52.522486
91.85000000000002,PRACTICE OPHTHALMOLOGY SERVICE HARINGEY,-0.574826,51.671154
454.91,CRISIS RESPONSE TEAM,-2.186902,53.52264
236.79,EVESHAM CMHT,-1.950714,52.086053
118.9,EARLY INTERVENTION NORTH SERVICE,-2.055662,52.344136
2230.2800000000007,RAMSAY HEALTHCARE - NORTH DOWNS HOSPITAL,-0.079153,51.273556
205.52,WILLEN HOSPICE,-0.719831,52.062768
3421.700000000001,CENTRAL DURHAM GP EXT'D ACCESS SERVICE,-1.56716,54.7787
2437.74,QMUL TOBACCO CESSATION SERVICE,-0.047357,51.522265
40806.52999999999,SHAP MEDICAL PRACTICE,-2.677931,54.52889
228235.0099999999,AUCKLAND MEDICAL GROUP,-1.678996,54.648085
132608.09,THE GLEN MEDICAL GROUP,-1.52187,54.97385
231650.61,ASHBY TURN PRIMARY CARE PARTNERS,-0.6542,53.566147
514546.8400000005,HAXBY GROUP PRACTICE,-1.081866,54.019329
34898.060000000005,BRADFORD MOOR PRACTICE,-1.7218490000000002,53.797834
196786.49999999985,ASH GROVE,-1.245572,53.704968
143703.84000000014,MILLVIEW MEDICAL CENTRE,-0.30904,52.981326
117967.63000000012,HOLLIES MEDICAL CENTRE,-1.494834,53.363179
20675.329999999994,VERITAS HEALTH CENTRE,-1.481026,53.354257
134663.6099999999,BRETTON MEDICAL PRACTICE,-0.281891,52.590431
138037.87000000017,LONG STRATTON MEDICAL PARTNERSHIP,1.229088,52.491027
171696.66000000006,THE NEVELLS ROAD SURGERY,-0.22942,51.980882
135955.53999999998,THE HEALTH CENTRE PRACTICE,-0.020738999999999997,52.048757
61233.530000000115,HIGHFIELD SURGERY,-0.459233,51.766434
66852.48000000005,BELGRAVIA SURGERY,-0.14856,51.495004
24026.51999999999,COLLINGWOOD ROAD SURGERY,0.638271,51.802938
99541.88000000003,CHAPEL STREET SURGERY,0.051144,50.79327
123333.49000000015,STOCK HILL SURGERY,0.031768,51.312089
59071.32999999996,CLAREMONT MEDICAL CENTRE,-0.306132,51.390808
114723.90000000005,WATERFRONT AND SOLENT SURGERY,-1.403379,50.870013
61942.27000000007,GREEN PRACTICE,-0.371755,51.468263
62027.74999999999,THE ABBOTSBURY PRACTICE,-0.397406,51.579266
154235.43000000008,NUFFIELD HOUSE HEALTH CENTRE,0.112828,51.774439
119775.69999999988,MARTINS OAK SURGERY,0.483675,50.91716
65689.93999999999,THE GLEBE FAMILY PRACTICE,0.544473,51.383164
89086.01000000014,MALLING HEALTH BLUE SUITE,0.609995,51.363412
122670.1199999998,KNOLL MEDICAL PRACTICE,0.101068,51.375411
43543.450000000026,CLIFTON RISE FAMILY PRACTICE,-0.03143300000000001,51.476334
38860.92,BLACKFRIARS MEDICAL PRACTICE,-0.105775,51.505364
220439.60000000047,HASLEMERE HEALTH CENTRE,-0.707586,51.092107
146730.13999999975,FARNHAM DENE MEDICAL PRACTICE,-0.777405,51.200549
84093.57000000004,THE DORCHESTER RD SURGERY,-2.457512,50.625193
49680.49000000003,CRONDALL NEW SURGERY,-0.858386,51.237211
78822.11000000003,ST.JAMES SURGERY,-1.989956,51.352926
41289.54999999999,CORDWALLIS ROAD SURGERY,-0.7240259999999998,51.528097
147124.8200000003,BOTLEY MEDICAL CENTRE,-1.299442,51.753753
68094.7100000001,ST. MARY'S SURGERY,-2.479869,51.326082
120861.36,QUEEN'S MEDICAL CENTRE,-4.057196,51.080161
239181.10000000012,BRUNEL MEDICAL PRACTICE,-3.516948,50.479349
58659.81000000003,EXMOOR MEDICAL CENTRE,-3.544825,51.038507
42386.94000000003,CHADDESLEY SURGERY,-2.158038,52.361961
213145.4700000001,THE MANOR PRACTICE,-1.8236169999999998,52.55816
50388.099999999984,CHARLES ROAD SURGERY,-1.850621,52.4722
112066.60999999988,DUNCAN STREET PRIMARY CARE PARTNERSHIP,-2.126602,52.57346999999999
112518.13000000003,DR JUDE'S PRACTICE - RIVERSIDE,-2.943016,53.398876
80343.3600000001,WESTOVER SURGERY,-5.07501,50.148927
24866.710000000006,LANGTHORNE SHARMA FAMILY PRACTICE,0.0021,51.555415
35325.47999999997,THE MANOR PARK PRACTICE,0.057339,51.55393
149869.70999999988,WEST MEADS SURGERY,-0.701481,50.788299
68.25,GP DERMATOLOGY SERVICE (CONCORDIA),-0.08430999999999998,51.500087
52137.39000000002,TRENTHAM MEWS MEDICAL CENTRE,-2.189898,52.970452
42384.87999999998,WILLESDEN GREEN SURGERY,-0.216091,51.553773
22222.30999999999,NATIONAL SOCIETY FOR EPILEPSY,-0.551146,51.62127
24884.09999999998,THE SUMMITT PRACTICE,0.04536,51.539588
8156.979999999998,SELDOC HEALTHCARE,-0.283378,51.412517
97.17,WESTMINSTER DIABETES CENTRE,-0.169323,51.524736
1.49,MOSAIC,-2.160927,53.406906
669.6399999999999,PARKFIELD (H) MINOR EMERGENCY,-3.00005,53.363076
2.0,HV SCARBOROUGH,-1.517573,53.993807
987.4299999999998,PRUH URGENT CARE CENTRE,0.059146,51.366243
151.66,CANNOCK MINOR INJURIES UNIT,-2.030614,52.693241
2019.1999999999994,PBORO WEEKEND HOURS GP PILOT,-0.279386,52.583921
3302.510000000001,WIDNES GP EXTRA SERVICE,-2.735705,53.362158
4942.56,ADDACTION HARTLEPOOL,-1.206132,54.684625
5839.700000000002,ADDACTION REDCAR & CLEVELAND - REDCAR,-1.059041,54.617383
94.84,MALLING CLUSTER,0.277462,51.194717
79250.3699999999,DR THORNILEY-WALKER & PARTNERS,-1.460703,54.949762
30727.199999999986,DR U AKBAR,-1.777945,53.803569
146577.87000000002,BROOKROYD HOUSE,-1.67818,53.707224
74063.33000000006,AIREBOROUGH FAMILY PRACTICE,-1.684881,53.866663
157548.6299999998,BUSHLOE SURGERY,-1.116921,52.583283
162842.63000000032,THE BURBAGE SURGERY,-1.361645,52.53009599999999
28542.870000000028,PASLEY ROAD HEALTH CENTRE (TK KHONG),-1.146741,52.591287
218260.93000000008,NETTLEHAM MEDICAL PRACTICE,-0.476253,53.262865
36025.04999999997,HAROLD STREET MEDICAL CENTRE,-1.492871,53.393121
44874.58,UNIVERSITY HEALTH SERVICE HEALTH CENTRE,-1.482709,53.380323
92907.67999999985,LEISTON SURGERY,1.575953,52.207708
82648.23000000008,HEATHFIELDE MEDICAL CENTRE,-0.179797,51.585238
91987.15000000002,BRENTFIELD MEDICAL CENTRE,-0.260251,51.550588
72920.17,DR NAVIN KUMAR,0.70187,51.544989
27074.24999999999,RUSTON STREET CLINIC,-0.027306,51.536264
97402.61999999998,SCHOOL HILL MEDICAL PRACTICE,0.012064,50.873469
153854.7700000002,MOTE,0.545625,51.246876
159554.10000000015,SHEPPERTON MEDICAL PRACTICE,-0.453153,51.396402
200728.71999999977,GRAYSHOTT SURGERY,-0.745626,51.110093
147968.63999999996,THE MANOR PRACTICE,-0.234983,50.835138
74387.28,HAMPTON HILL MEDICAL CENTRE,-0.354892,51.427508
30361.440000000028,CLAPHAM JUNCTION MEDICAL PRACTICE,-0.173908,51.465969
45023.41000000005,OLD SCHOOL HOUSE SURGERY,-1.604408,51.376032
129511.97999999994,WINSCOMBE SURGERY,-2.830537,51.315196
251987.42999999985,PEMBROKE MEDICAL GROUP,-3.560246,50.445527
1207.2399999999993,ST PETER'S URGENT TREATMENT CENTRE,-0.52706,51.377832
38376.11000000001,PRIORY ROAD SURGERY,0.589253,50.860828
228024.0999999998,SWANSCOMBE HEALTH CENTRE,0.28731,51.424657
59076.42999999997,ELTHAM PARK SURGERY,0.061023,51.4547
87680.58000000013,JAMES O'RIORDAN MEDICAL CENTRE,-0.212686,51.385157
294287.3999999998,WISTARIA & MILFORD SURGERIES,-1.547285,50.760041
53609.26999999999,27 BEAUMONT STREET,-1.26216,51.755081
64872.96000000007,WIDCOMBE SURGERY,-2.354321,51.376371
152230.41000000018,ST LUKES MEDICAL CENTRE,-3.517636,50.394313
80477.76000000008,FRITHWOOD SURGERY,-2.162379,51.729707
128014.68999999994,HILLVIEW MEDICAL CENTRE,-1.951153,52.305568
118426.55,GORDON STREET SURGERY,-1.644613,52.810998
69344.19999999994,LONGTON MEDICAL CENTRE,-2.770123,53.417492
91975.24999999996,PRIMROSE SURGERY,-2.357311,53.456159
115329.25000000006,DR AHMAD & PTNRS,-2.595925,53.522279
48056.639999999934,THE OLD DAIRY HEALTH CENTRE,-0.091201,51.436586
103787.88999999994,THE ISLAND SURGERY,0.591014,51.520226
90927.77999999996,JS MEDICAL PRACTICE,-0.078706,51.589103
98745.49000000006,GATEWAY PRIMARY CARE,-1.352431,53.429997
3122.2000000000007,BRADFORD DERMATOLOGY SERVICE,-1.781103,53.830481
40417.950000000026,ESSINGTON MEDICAL CENTRE,-2.056915,52.63194
48838.34000000002,SUMMERFIELD GP SURG & URGENT CARE CENTRE,-1.937353,52.487686
68834.93,HAVERING CCG,0.179796,51.579247
3527.49,THE EDWIN LOBO UNIT,-0.450138,51.918004
3520.5199999999986,MUSCULOSKELETAL INTERFACE SERVICE,-2.845905,51.437919
1.7,NEUROLOGY CNS 1,-1.962695,53.898015
238.89000000000004,WF OA CMHT,-2.261161,52.386056
60136.570000000036,THE WILLASTON SURGERY,-3.011643,53.292908
939.09,SOUTH KENT GROUP,1.118942,51.075872
6059.62,SUTTON COMMUNITY SERVICES,-0.183642,51.380313
6721.699999999998,WHITTINGTON HEALTH (ISLINGTON),-0.139066,51.566482
48849.27000000002,WYRE FOREST COUNTYWIDE NURSES,-2.244954,52.387785
233.67,ST MICHAELS HOSPICE,-1.518091,53.977242
9482.3,URGENT CARE CENTRE NORTHWICK PARK HOSP,-0.322037,51.575407
259.61999999999995,QVM HOSPITAL,-0.222867,51.827957
199.41,SLEAFORD EXTENDED ACCESS K2,-0.406507,52.997784
99258.85999999988,STONELEIGH SURGERY,-2.770704,54.227277
44731.99999999998,BROWNEY HOUSE SURGERY,-1.670679,54.800313
169167.3400000002,TOWNHEAD SURGERY,-2.276903,54.070534
55044.26999999996,HORNE STREET SURGERY,-1.871717,53.725678
106730.71999999996,HONLEY SURGERY,-1.791936,53.602386
139220.17999999973,GOSBERTON MEDICAL CENTRE,-0.159263,52.869915
141489.19999999992,THE MANOR SURGERY,-1.216371,52.925036
77113.14000000007,PROSPECT MEDICAL PRACTICE,1.285656,52.643921
125335.09000000011,THE GARDEN CITY PRACTICE,-0.209287,51.797151
82204.56,MAPESBURY MEDICAL GROUP,-0.209473,51.551496
136145.12000000002,RIVERMEAD GATE MED.CTR.,0.472887,51.740849
48507.65,ROMAN WAY MEDICAL CENTRE,-0.10550599999999999,51.544561
45530.87000000003,CHOLMLEY GARDENS SURGERY,-0.195423,51.552261
119261.96999999993,ESSEX LODGE,0.026685000000000004,51.527915
105044.86999999994,GROVELANDS MEDICAL CENTRE,-0.112028,51.620685
234977.1400000003,HIGH GLADES MEDICAL CENTRE,0.551301,50.878354
104945.87999999996,ST JAMES' SURGERY,1.315702,51.128516
56468.58999999994,OXSHOTT MEDICAL PRACTICE,-0.360843,51.333099
134682.01999999993,BRIDGE MEDICAL CENTRE,-0.166439,51.117364
87707.40999999997,LAVENDER HILL GROUP PRACTICE,-0.15683,51.466044
141780.31000000006,THE CRANBORNE PRACTICE,-1.9192779999999998,50.919773
175725.45999999956,ST.MARY'S SURGERY,-1.397475,50.905746
117162.06999999985,NEW FOREST MEDICAL GROUP,-1.576665,50.81471
140415.26000000007,SWALLOWFIELD MEDICAL PRACTICE,-0.958531,51.378289
102929.26,CHERRYMEAD SURGERY,-0.700228,51.608271
169518.0800000001,HORFIELD HC,-2.576275,51.489998
83342.67999999996,CARNON DOWNS SURGERY,-5.091905,50.22345
67888.42999999992,WHITE HOUSE SURGERY,-1.705957,51.983554
81981.91999999985,SPRINGMEAD SURGERY  CHARD,-2.967972,50.869562
115507.73000000008,CHURCH STRETTON MEDICAL CENTRE,-2.806169,52.537286
110880.50000000012,DR KS UPTON'S PRACTICE,-1.986582,52.988358
130340.98999999992,KINGSWAY MEDICAL CENTRE,-1.289009,54.606459
89822.9399999999,WARWICK ROAD SURGERY,-2.928541,54.893858
77931.25000000003,PRUDHOE MEDICAL GROUP,-1.853822,54.96186
130531.06000000016,TALBOT MEDICAL CENTRE,-1.440661,54.973054
83098.66,NOVA SCOTIA MEDICAL CNTR,-1.373051,53.747561
94826.97999999992,ARTHUR MEDICAL CENTRE,-1.422636,53.001503
113661.29999999992,WOODVILLE SURGERY,-1.5365030000000002,52.770685
151980.86000000002,NEWBOLD VERDON MED.PRACT.,-1.34334,52.634612
123686.35000000002,PORTLAND MEDICAL PRACTICE,-0.539074,53.22371999999999
175298.98999999985,TORKARD HILL MEDICAL CTRE,-1.207389,53.029901
51190.47000000002,BAKERSFIELD MEDICAL CENTRE,-1.104957,52.960219
89283.64000000007,HIGH STREET PRACTICE,-1.458313,53.597926
109922.95000000004,VILLAGE SURGERY,-1.251934,53.39421
16597.09000000002,ALLENBY CLINIC,-0.376261,51.531514
285212.1199999998,DR PUZEY DR KOTHARI AND DR NANDA,0.705992,51.582107
82637.53000000003,DR BAKER & PARTNERS,0.548167,51.570733
38576.17000000001,INGREBOURNE MEDICAL CENTRE,0.210579,51.600308
67181.47,THE ORDNANCE UNITY CENTRE FOR HEALTH,-0.039073,51.672653
62178.69000000002,CROUCH HALL ROAD SURGERY,-0.127301,51.579178
188398.8699999994,CENTRAL SURGERY,-0.299929,51.390825
168700.8000000001,ST PAUL'S SURGERY,-1.32139,51.065963
92201.09999999989,SHEET STREET SURGERY,-0.605507,51.479648
158924.87999999983,HEDENA HEALTH,-1.204547,51.76203
83546.67999999996,BLOXHAM SURGERY,-1.372977,52.018108
116902.47999999985,KINGTON MEDICAL PRACTICE,-3.022556,52.199361
208966.93999999948,SEVERN FIELDS MEDICAL PRACTICE,-2.721619,52.728047
46469.00999999998,SELLY OAK HEALTH CENTRE,-1.939144,52.438251
244066.66000000012,PEELHOUSE MEDICAL PLAZA,-2.72256,53.372135
163881.58999999988,CUMBERLAND HOUSE SURGERY,-2.990437,53.638743
84091.07000000004,LANE ENDS SURGERY,-2.727014,53.770173
24172.259999999984,HOLLINS GROVE SURGERY,-2.477472,53.705346
84536.43000000002,WHITTAKER LANE MED CENTRE,-2.268645,53.528488
104391.77999999993,WEST GORTON MEDICAL PRACTICE,-2.203859,53.46720500000001
38697.120000000075,OLDHAM FAMILY PRACTICE,-2.116945,53.543824
43569.5,SHAY LANE MEDICAL CENTRE (PATEL),-2.31556,53.372189
1214.64,AT HOME SERVICE,-0.10603,51.438104
90349.03000000001,NMP CASTLE POINT AND ROCHFORD CCG,0.702782,51.583955
709.42,MFT CHILDRENS COMMUNITY SERVICES,-2.25528,53.390625
5224.74,NON MEDICAL PRESCRIBERS,-0.8019889999999998,51.797983
6798.940000000002,WYRE FOREST ADMISSION PREVENTION TEAM,-2.261161,52.386056
5814.329999999997,GP HUBS - GP HEALTH PARTNERS LTD,-0.266331,51.334184
785.88,HEALTH HARMONIE GYNAECOLOGY,-1.922375,52.471325
203.49,SALFORD ACUTE HOME VISITING SERVICE,-2.33763,53.484827
341.85,NORTH COTSWOLDS IMPROVED ACCESS,-2.239997,51.862659
1231.84,COMMUNITY TISSUE VIABILITY SERVICE,-2.681273,53.496386
265.74000000000007,EXTENDED ACCESS PCD TICKHILL SURGERY,-1.110773,53.43304499999999
261981.1299999996,BIRTLEY MEDICAL GROUP,-1.576441,54.891881
178952.80999999988,THE LEEDS ROAD PRACTICE,-1.535156,53.980466
71578.96999999997,APOLLO COURT MEDICAL CENTRE,-1.524816,53.542364
143073.76000000007,THE LAKESIDE PRACTICE,-1.148909,53.61549599999999
102824.78000000004,FOXHILL MEDICAL CENTRE,-1.501327,53.429911
64670.35000000003,WESTWOOD CLINIC,-0.269054,52.591395
89621.12999999986,THEOBALD MEDICAL CENTRE,-0.285584,51.661381
89430.31999999996,SUDBURY & ALPERTON MEDICAL CENTRE,-0.298046,51.536916
10890.740000000009,THE SURGERY,-0.184519,51.497627
190754.6599999999,CHURCHILL MEDICAL CENTRE,-0.018466,51.618226
155426.36000000004,THE CHESTERFIELD DRIVE PRACTICE,1.132012,52.07623
127552.98000000016,COMBS FORD SURGERY,0.995999,52.180181
72931.54999999997,CAULDWELL MEDICAL CENTRE,-0.472495,52.128265
96428.12999999986,PRIORY MEDICAL CENTRE,-0.50567,52.167181
100046.79,HILLVIEW SURGERY,-0.318331,51.540536
40010.289999999964,DR HAFFIZ,-0.119262,51.539321
32755.02999999997,SANDRINGHAM PRACTICE,-0.067207,51.547773
15829.910000000005,ESK ROAD MEDICAL CENTRE,0.024266,51.522454
50689.620000000046,MONTPELIER SURGERY,-0.149079,50.827148
95325.48000000003,THE AVENUE SURGERY,-0.113425,50.844357
272080.34000000014,REACH HEALTHCARE,0.52408,51.337756
78066.02999999997,SELLINDGE SURGERY,1.002785,51.103536
123822.9099999999,LAKESIDE MEDICAL,0.122454,51.496518
98754.76000000002,CAMBERLEY HEALTH CENTRE,-0.754069,51.324435
214161.83999999965,HARBOUR VIEW HEALTHCARE,-0.27437,50.833817
122979.75999999985,NEW POND ROW SURGERY,-0.322292,50.824911
54730.56000000003,FLOOD (ESSEX HOUSE),-0.247469,51.472541
195838.9,WILSON PRACTICE,-0.966958,51.153736
56978.51999999999,WOLLASTON AND BOZEAT SURGERIES,-0.674311,52.252471
121287.93999999994,LEAP VALLEY MEDICAL CENTRE,-2.487852,51.496541
147232.3399999999,KINGSTEIGNTON MEDICAL PRACTICE,-3.597395,50.54898
116738.93999999984,ST.LEVAN SURGERY,-4.177328,50.383921
176555.75000000012,STIRCHLEY MEDICAL PRACTICE,-2.433777,52.655188
122787.50000000006,LUDLOW - PORTCULLIS,-2.715958,52.368905
98227.57,BARTON,-1.725223,52.761751
56262.57000000008,RED LION SURGERY,-2.030614,52.693241
12123.94,DADHANIA SURGERY,-1.491047,52.405815
33474.91,ST JAMES MEDICAL PRACTICE1,-2.097323,52.514234
35087.169999999984,HAWTHORNS MEDICAL CENTRE,-1.967268,52.501507
35149.619999999966,BROWNLOW AT MARYBONE,-2.987806,53.411269
86057.4700000001,MORETON MEDICAL CENTRE,-3.110005,53.39886
68940.34999999999,LITTLE LEVER HEALTH CENTRE 1,-2.370624,53.55981800000001
54284.60000000007,WOODBANK SURGERY,-2.308802,53.60507
89561.15000000004,DRS HANIF &  BANNURU,-2.184157,53.484308
19702.169999999984,4/LOWER BROUGHTON MEDICAL PRACTICE,-2.258808,53.49359
167967.00999999978,BRINNINGTON SURGERY,-2.132367,53.427651
96856.51,CONWAY ROAD MEDICAL PRACTICE,-2.303561,53.417873
54549.41,DESFORD MEDICAL CENTRE,-1.296116,52.627473
19935.710000000006,DR VIJE'S SURGERY,-1.650877,52.617569
28404.95000000004,HIGHFIELD HEALTH,-1.395746,50.932777
1221.6799999999996,ALICE HOUSE HOSPICE,-1.224421,54.704049
12601.96,DR R SHARMA'S PRACTICE,-0.096482,51.499125
30359.280000000013,HALF PENNY STEPS HEALTH CENTRE,-0.206044,51.526213
258688.59000000058,NORTON MEDICAL CENTRE,-1.308737,54.588737
539841.049999999,CARLISLE HEALTHCARE,-2.930647,54.893714
39959.119999999966,PEEL PARK SURGERY,-1.731903,53.806791
115941.66999999998,MAYBUSH MEDICAL CENTRE,-1.489249,53.670273
121419.07000000007,THE GOLDEN BROOK PRACTICE,-1.272531,52.901553
129377.53999999985,IBSTOCK HOUSE SURGERY,-1.401818,52.684869
128853.9,RUSKINGTON SURGERY,-0.400977,53.048226
173290.02000000005,BARNBY GATE SURGERY,-0.8049699999999999,53.074931
101270.76000000002,DUKE MEDICAL CENTRE,-1.455657,53.378576
41023.31000000005,FALKLAND HOUSE SURGERY,-1.514423,53.359728
176880.63,PRIORY FIELDS SURGERY,-0.179856,52.332272
67623.11000000004,BOURN SURGERY,-0.063404,52.193155
109937.53000000004,COACHMANS MEDICAL PRACTICE,-0.203875,51.096335
112543.57999999986,MILTON KEYNES VILLAGE SURG,-0.697865,52.043891
75716.01999999993,DRS DE ROSA & WILLIAMS,-2.167857,52.569265
18103.9,COMMUNITY DRUG TEAM,-2.164111,53.409517
3148.02,CHILD AND FAMILY SERVICES,-1.5080049999999998,52.413401
3240.2599999999993,GPSI PALLIATIVE CARE,-3.007792,53.502483
617.01,COMMUNITY PAEDIATRICIANS-SOUTHWARK,-0.081097,51.474092
230.75,COMMUNITY CARDIOLOGY SERVICE,0.15356,51.455555
916.3399999999997,INTERMEDIATE CARE-GP SERVICE,-2.130253,53.548188
560.74,THE PRACTICE OPHTHALMOLOGY,-1.245572,53.704968
11968.530000000002,BASSETLAW HEALTH PARTNERSHIP,-0.950634,53.325451
5040.899999999999,DMC COMMUNITY DERMATOLOGY SFSS,-2.98492,53.449136
67.02,DEPARTMENT OF PODIATRIC SURGERY,-1.143101,53.130244
3.0,MERIDIAN HOUSE - AIREWHARFE CMHT,-1.895521,53.873987
333.73,COMMUNITY WARFARIN SERVICE,-1.467656,52.523302
170282.05999999974,FIELDHOUSE MEDICAL GROUP,-0.112579,53.564436
186369.00999999954,HEREWARD MEDICAL CENTRE,-0.380913,52.768626
72483.82999999987,SAXON CROSS SURGERY,-1.273642,52.931099
238395.65,PENISTONE GROUP PMS PRACTICE,-1.630732,53.523565
86156.01999999993,THE NAYAR PRACTICE,-1.1933790000000002,53.480824
56694.49000000001,DR RAOLU'S PRACTICE,-1.204348,53.423549
162957.27999999982,THE PARK SURGERY,1.7292759999999998,52.606218
35015.52999999999,EAST BARNET HEALTH CENTRE,-0.166424,51.646339
60460.16999999996,LANFRANC MEDICAL CENTRE,-0.332746,51.561586
38609.26999999998,THE TUDOR HOUSE MEDICAL CENTRE,-0.266689,51.564495
100745.7699999998,LABURNUM HEALTH CENTRE,0.151208,51.560662
26872.699999999993,NEW NORTH HEALTH CENTRE,-0.091592,51.537534
108887.49000000008,HOVE MEDICAL CENTRE,-0.19539,50.845024
77773.85999999993,PRIMECARE PMS (SOUTH STREET),-0.012448,51.476194
59153.26999999998,THE GARDENS SURGERY,-0.066803,51.46061
135038.66999999993,FORT HOUSE SURGERY,-0.412578,51.37881
200060.4300000001,OXTED HEALTH CENTRE,9.9e-05,51.257686
164792.08000000007,THE WRYTHE GREEN SURGERY,-0.171312,51.371749
99371.92999999992,THE LAWN MEDICAL CENTRE,-1.7619029999999998,51.547821
90185.47000000004,NORDEN HOUSE SURGERY,-0.882727,51.944924
21914.16,ST MARY'S HEALTH CENTRE,-6.308668,49.911605
137230.18000000008,TOPSHAM SURGERY,-3.462097,50.683825
116004.14000000007,BAMPTON SURGERY,-1.55034,51.729032
136986.19000000006,WOODLANDS MEDICAL CENTRE,-1.258898,51.603637
212901.84999999948,PETROC GROUP PRACTICE,-4.943163,50.430739
197978.47000000003,TAVYSIDE HEALTH CENTRE,-4.145976,50.545824
173657.75999999992,EAST QUAY MEDICAL CENTRE,-3.000471,51.135669
57017.73999999994,BREDON HILL SURGERY,-2.104857,52.030166
94036.0300000002,HAGLEY SURGERY,-2.144103,52.420783
43702.14000000007,KNOCKIN MEDICAL CENTRE,-2.993042,52.79343
12800.059999999996,YARDLEY MEDICAL CENTRE,-1.828397,52.463189
74873.49000000005,PHOENIX FAMILY CARE,-1.51543,52.390005
302337.62999999995,ASHTON MEDICAL GROUP,-2.089184,53.489361
150024.86999999994,BRADSHAW MEDICAL CENTRE,-2.688594,53.537889
26944.56000000001,SAVILE TOWN MEDICAL CTR.,-1.625804,53.68222900000001
32104.38,LIMEFIELD ROAD MEDICAL PRACTICE,-2.26047,53.506995
83625.32999999999,THE ORCHARD SURGERY,-0.324352,50.828062
10263.959999999995,THE MATTHEWMAN PRACTICE,-0.149281,51.545823
3910.74,COMMUNITY PAEDIATRICIANS,-2.214271,53.470746
829.56,RICHARDSON COMMUNITY HOSPITAL,-1.9161529999999998,54.545708
33.58,CHILDREN'S HOSPICE SOUTH WEST,-4.116888,51.069795
1718.72,DR WRIGHT ED CLINIC (BELMONT),-1.52816,54.786148
35387.28000000004,LAKESIDE SURGERY,-1.310932,53.52812
11297.249999999987,BSUH DERMATOLOGY SERVICE,-0.115477,50.83046
4047.35,DMC COMMUNITY DERMATOLOGY RBWF,-2.059728,52.337612
35059.99000000003,THE DANBY PRACTICE,-0.907874,54.468317
83262.56999999985,VALLEY VIEW SURGERY,-1.731903,53.806791
165313.63999999996,THE NORTH LEEDS MEDICAL PRACTICE,-1.534037,53.843332
131433.79999999976,IVY GROVE SURGERY,-1.402822,53.042198
55383.62000000001,FRIAR GATE SURGERY,-1.485624,52.924816
160558.64999999994,NAVENBY CLIFF VILLAGES SURGERY,-0.526297,53.103518
82381.43000000007,THE LINDEN MEDICAL GROUP,-1.273642,52.931099
118114.49000000008,ASKERN MEDICAL PRACTICE,-1.148909,53.61549599999999
91981.05000000008,BUTE HOUSE MEDICAL CENTRE,-0.423966,51.880162
52820.15999999999,LICHFIELD GROVE SURGERY,-0.19329,51.599604
109605.7200000001,GURU NANAK MEDICAL CENTRE,-0.387151,51.511774
41.64,WESTMINSTER SCHOOL,-0.128107,51.498762
33794.67999999999,SOUTH GREEN SURGERY,0.430504,51.613411
34135.99,RICHMOND ROAD MEDICAL CENTRE,-0.065532,51.543051
102855.88000000015,THE LAWSON PRACTICE,-0.079465,51.533775
97167.55999999998,LEYTON HEALTHCARE 4TH FLOOR,-0.013313,51.559894
35721.53999999995,FRANCIS ROAD MEDICAL CENTRE,-0.003831,51.561975
171320.6199999999,OLD SCHOOL SURGERY,0.100722,50.772062
43199.99000000001,UNIVERSITY MEDICAL CENTRE,1.062127,51.296198
66954.84999999995,ST STEPHENS HOUSE SURGERY,-0.305726,51.31772
52227.06999999996,PARK VIEW HEALTH PARTNERSHIP,-0.137252,50.961825
129141.66,LAMBTON ROAD MEDICAL PRACTICE,-0.231169,51.411219
194611.69,LORDSHILL HEALTH CENTRE,-1.448733,50.940999
94720.46999999996,BYFIELD MEDICAL CENTRE,-1.242893,52.174071
40650.00999999999,CAMBRIDGE HOUSE,-2.144827,53.024433
123577.99999999988,ARBURY MEDICAL CENTRE,-1.497961,52.51662
49797.57999999993,CHURCH LANE - KHAN,-1.793962,52.487056
92733.8999999999,SOHO ROAD PRIMARY CARE CENTRE,-1.934945,52.503094
27822.74000000001,PARK HOUSE SURGERY,-1.942965,52.54446
34459.60999999998,BEECHDALE CENTRE,-2.007339,52.600867
129446.28000000016,HOLES LANE MEDICAL CENTRE,-2.545107,53.399828
85043.63000000006,LACHE HEALTH CENTRE,-2.914326,53.173615
77625.48000000014,DINGLE PARK PRACTICE,-2.972885,53.38633
212066.43000000023,RAINBOW MEDICAL CENTRE,-2.705931,53.435389
41791.06999999996,BEECHWOOD SURGERY,-3.009057,53.871568
146264.00999999983,HEYWOOD HEALTH,-2.239335,53.58736999999999
79448.81,THE GILL MEDICAL PRACTICE,-2.398384,53.524288
89103.12000000005,GLOUCESTER HOUSE MEDICAL CENTRE,-2.352599,53.447337
37863.62000000002,PAK HEALTH CENTRE,-1.856091,52.490749
23394.63999999999,WALFORD STREET  TIVIDALE,-2.059752,52.513192
142055.02999999982,LITTLE LONDON SURGERY,-1.979284,52.574984
75711.50999999995,STRETTON MEDICAL CENTRE,-2.577017,53.339489
29382.04000000003,THE DALE MEDICAL PRACTICE,-2.154239,53.611617
35435.01999999998,WALNUT ST MED CTR (LEICESTER MED GROUP),-1.138855,52.624601
47025.71000000001,FIR TREE,-2.878691,53.44930600000001
9202.68,CAMBRIDGE ACCESS SURGERY,0.138701,52.20875
9.82,GATESHEAD C.A.S.H SERVICES,-1.603663,54.962972
3499.0900000000024,NELPCT OUT OF HOURS SERVICE,-0.096229,53.544858
1487.6999999999994,ANGEL LODGE,-1.50929,53.683308
59553.799999999865,ETTINGSHALL MEDICAL CENTRE,-2.092879,52.570364
3419.8100000000013,WALK IN CENTRE (WIC),-1.784934,51.563016
989.85,PRIMARY CARE PRESCRIBING - SCH EMPLOYED,-1.490629,53.380599
33906.26000000003,NT&H COMM NURSES DN,-1.227837,54.702398
5551.710000000001,HP NMP'S NN & E CCG,-1.143101,53.130244
48.5,ADULT COMMUNITY NURSING,-0.607463,51.241016
9.89,PRIMARY CARE OPTOMETRY,1.14971,51.79169
182.81000000000003,SOUTH WARK COMM RECOVERY TEAM IPU 10-17,-1.530545,52.285479
25900.48,WARWICKSHIRE DRUG & ALCOHOL RECOVERY,-1.529997,52.283202
1022.71,ADULT ADHD WIGAN/LEIGH NMP,-2.606862,53.42951600000001
63922.79000000005,RUSHEY MEAD HEALTH CENTRE,-1.103823,52.663187
76.29,THE PARALLEL,-2.426061,53.579828
117726.73000000008,ST ANN'S ROAD SURGERY,-0.08783399999999998,51.581428
124644.47999999994,LEIGH FAMILY PRACTICE,-2.511927,53.493519
68225.08000000006,THE PRACTICE FELTHAM,-0.411086,51.446367
197.91,THE WESTBOURNE CENTRE,-1.9230029999999998,52.466075
72390.19000000009,HENDON WAY SURGERY,-0.241873,51.579182
62854.26,NHS FYLDE & WYRE CCG,-2.881037,53.789498
65.17,NT&H COMM MIDWIVES,-1.227837,54.702398
4328.38,SPECIALIST NURSE,-1.517573,53.993807
13.72,VIRGIN CARE SPECIALIST NURSING SHCCG,-0.7846419999999998,51.220491
104274.34,SOUTH COUNTY CONTINENCE PRESCRIPTION SER,-1.273227,52.930792
6927.440000000002,TAURUS HEALTHCARE LTD,-2.71099,52.05708
236.14,TISSUE VIABILITY,-2.095555,52.599722
105.24,MOLESEY COMMUNITY HOSPITAL,-0.372542,51.397531
12069.759999999998,NC GPA PLUS,-1.152649,52.954624
324.5800000000001,THE FLOWERS HUB,-1.438061,53.418053
37575.16000000001,CARTMEL SURGERY,-2.946985,54.199165
243554.07999999987,ALNWICK MEDICAL GROUP,-1.6967470000000002,55.410086
74272.30999999998,NETHERFIELD HOUSE,-1.548435,55.063632
202763.25000000023,PRACTICE 3  MEDICAL CENTRE  BRIDLINGTON,-0.201064,54.084715
99817.22,THE ALMONDBURY SURGERY,-1.751311,53.631868
44276.42,NEWLAND SURGERY,-1.424247,53.695146
498839.99999999907,BEACON MEDICAL PRACTICE,0.331219,53.157472
24638.56,GREENFIELDS MEDICAL CENTRE (YVS RAO),-1.168583,52.966506
90086.14999999969,TREETON MEDICAL CENTRE,-1.354708,53.384994
177783.15000000005,MEADOWGREEN HEALTH CENTRE,-1.480804,53.326831
363555.90999999974,BOROUGHBURY MEDICAL CENTRE,-0.245486,52.577858
183066.99999999985,THE ROOKERY MEDICAL CENTRE,0.405573,52.245158
458.7300000000001,COMMUNITY MATRONS,-2.095555,52.599722
137.89,TISSUE VIABILITY EAST,-2.109085,52.810605
55.36000000000001,VIRGIN CARE (NORTH LINCS),-0.6524,53.592365
23494.500000000004,COVENTRY SMS,-1.513076,52.41159
2109.11,IC24-THANET CCG OOH,0.891514,51.129106
2218.59,MID CLUSTER IAGPS,-1.9731169999999998,50.721987
65.7,AMBER VALLEY HEALTH,-1.3726,53.082351
73.56999999999998,CORNWALL IMPROVED ACCESS SCHEME,-5.097984,50.265937
17.04,BDCT 0-19 CHILDRENS PH SERVICE,-1.788605,53.839675
1526.9100000000005,SJUH GPS IN A+E,-1.520359,53.806869
200.31,SMBC ADULT MH SERVICES,-1.543868,52.308511
177010.86999999976,CRUDDAS PARK SURGERY,-1.630965,54.968173
66133.94000000005,THE CHESTNUTS & HALLGATE SURGERY,-0.403621,53.778985
125971.67999999993,HAWORTH MEDICAL PRACTICE,-1.954883,53.831322
124188.29999999994,FIELDHEAD SURGERY,-1.854229,53.641358
161781.01000000013,CROFTON AND SHARLSTON MED PRAC,-1.427042,53.656573
212383.0,SHIRES HEALTHCARE,-1.215692,53.202513
75416.97000000013,ORCHARD SURGERY,-1.278154,52.836522
108134.61000000012,ST GEORGES MED PRACTICE,-1.132346,52.930754
34014.49000000002,WELBECK SURGERY,-1.147823,52.979645
137886.13000000006,WICKHAM MARKET MEDICAL CENTRE,1.363674,52.151842
77348.95000000008,TODDINGTON MEDICAL CENTRE,-0.530482,51.945856
55960.16000000001,THE RANDOLPH SURGERY,-0.186852,51.529819
57404.47999999996,DR YADAVA N PRACTICE,0.334586,51.476703
96577.0199999999,ST.PAUL'S WAY MEDICAL CTR,-0.024483,51.517862
201686.32000000024,THORNHILLS MEDICAL PRACTICE,0.440958,51.300117
201534.11999999976,OAKLANDS HEALTH CENTRE,1.08253,51.069106
55004.729999999974,HEXTABLE SURGERY,0.182972,51.409182
154401.19999999975,LONGCROFT CLINIC,-0.192332,51.325314
75309.29000000002,THE ROEHAMPTON SURGERY,-0.242431,51.451154
171199.54999999976,WYKE REGIS & LANEHOUSE MEDICAL PRACTICE,-2.475127,50.594634
48019.61000000003,WHITCHURCH SURGERY,-0.8426209999999998,51.882174
62586.08000000006,CRICK MEDICAL PRACTICE,-1.135861,52.343212
171888.1999999998,KINGSWOOD HEALTH CENTRE,-2.499974,51.462895
89387.00999999988,THE VILLAGE SURGERY,-2.219972,53.033945
161105.68000000017,BIDDULPH VALLEY SURGERY,-2.178498,53.116111
21715.309999999994,RIVERSIDE SURGERY,-1.699518,52.632337
137260.85999999993,THREE VILLAGES MEDICAL PRACTICE,-2.146398,52.465406
71994.48,STONE CROSS MEDICAL CENTRE,-1.982689,52.545444
193025.66,STOCKTON HEATH MED.CENTRE,-2.582161,53.37195
106660.26999999996,THE VILLAGE SURGERIES GROUP,-2.771265,53.124246
114706.33000000002,ILEX VIEW MEDICAL PRACTICE,-2.280663,53.70081
117048.20000000008,SHIFA SURGERY,-2.475999,53.757295
142570.57,CHORLTON FAMILY PRACTICE,-2.279717,53.443773
78236.69000000016,OLDHAM MEDICAL SERVICES,-2.111235,53.52535699999999
87601.2800000002,MELROSE SURGERY,-0.9598620000000002,51.451692
27371.93999999999,DR R KAPUR & PARTNERS,-1.119092,52.631036
81981.37999999998,LEADGATE SURGERY,-1.805988,54.860562
175472.9199999998,ACLE MEDICAL PARTNERSHIP,1.548667,52.640969
40357.47000000001,PEEL CROFT,-1.6339549999999998,52.799271
129812.13999999994,MARTONSIDE MEDICAL CENTRE,-1.220329,54.553175
67091.80999999995,ROCKLIFFE COURT SURGERY,-1.544074,54.483444
157651.04000000007,BEDLINGTONSHIRE MED.GROUP,-1.598682,55.1322
47877.82999999997,WESTBOURNE SURGERY,-1.8061,53.650937
115057.83000000006,MIDDLESTOWN,-1.600562,53.650545
55263.55999999997,DR WEBB AND PARTNERS,-1.308041,52.968251
110017.37999999998,GOYT VALLEY MEDICAL PRACTICE,-1.983113,53.3305
48342.59,CASTLE STREET MEDICAL CENTRE,-1.293753,53.229627
55199.390000000116,SILVERDALE MEDICAL CENTRE,-1.090548,52.672318
223894.84000000003,HOLT MEDICAL PRACTICE,1.116042,52.914476
114108.13000000006,HOWARD HOUSE SURGERY,1.349626,51.96149
161568.5299999998,PARKBURY HOUSE SURGERY,-0.334063,51.756766
65928.93000000001,UXENDON CRESCENT SURGERY,-0.292809,51.572063
30846.13000000001,STERNDALE SURGERY,-0.221441,51.498326
52917.72999999998,AEGIS MEDICAL CENTRE,0.467525,51.57556
82667.03000000007,AMWELL GROUP PRACTICE,-0.11081700000000001,51.528043
147012.38999999964,MEOPHAM MEDICAL CENTRE,0.359744,51.368901
84868.36000000003,WESTERHAM PRACTICE,0.070437,51.266465
59576.18000000005,FORGE CLOSE SURGERY,0.016555,51.377137
165561.27999999994,STEYNING HEALTH CENTRE,-0.329972,50.890666
166350.43999999986,LAVANT ROAD SURGERY,-0.781051,50.853385
69731.86,THORNTON & VALLEY PARK SURGERY,-0.120709,51.388871
94390.8300000001,JOHNSON (SHEEN LANE),-0.267239,51.465848
28690.909999999967,BEGG PRACTICE,-0.179391,51.459968
91786.05999999998,MOORDOWN MEDICAL CENTRE,-1.874485,50.756212
61530.05999999998,LITTLEDOWN SURGERY,-1.833439,50.741638
118595.97999999988,EMMER GREEN SURGERY,-0.972861,51.483584
162141.19000000006,WOLVERTON HEALTH CENTRE,-0.814934,52.054197
278529.14000000036,ST THOMAS MEDICAL GROUP,-3.54518,50.714472
71382.99000000003,YOXALL,-1.7931740000000003,52.767984
46356.33999999993,GREET MEDICAL PRACTICE,-1.857778,52.453195
64808.16000000001,PEDMORE MEDICAL PRACTICE,-2.118211,52.457029
130641.50999999992,BOSWORTH MEDICAL CENTRE,-1.7536330000000002,52.480569
206032.57000000007,THE PARK MEDICAL PRACTICE,-2.739045,53.77018
29403.73000000004,CROSSWAYS PRACTICE,-3.023992,53.484655
43009.65999999999,THE OLD DISPENSARY,-1.987226,50.803427
47315.13000000004,STROUD GREEN MEDICAL CENTRE,-0.114328,51.570059
148.3,GPSI ENT SERVICE ROMAN GATE HUNTS,-0.173105,52.317665
4054.349999999999,CBS OOH,-1.233579,53.134573
29.450000000000006,BRADFORD GPWSI EPILEPSY SERV,-1.779859,53.78091
2340.7999999999993,EASTBOURNE  HAILSHAM & SEAFORD OOH,0.891514,51.129106
1120.07,INTERMEDIATE CARE (THE PEELE),-2.259671,53.385779
282.3299999999999,LCW HOUNSLOW CCG OOH,-0.217218,51.522362
1386.15,HERTFORDSHIRE COMMUNITY SEXUAL HEALTH,-0.201186,51.899822
2208.4500000000007,DERMATOLOGY-MERTON CCG,-0.210281,51.409967
197.14,HEALTH VISITORS,-1.155769,52.951832
149630.25999999998,WEST SOMERSET HEALTHCARE,-3.3186760000000004,51.161419
164406.78999999966,WEM AND PREES MEDICAL PRACTICE,-2.722566,52.859338
76529.57,ALL SAINTS SURGERY,-1.644121,52.794285
216523.81000000008,CENTRAL SURGERY,-1.265473,52.371743
189290.70999999985,OMNIA PRACTICE,-1.839082,52.475709
50976.68999999992,SCHOOLACRE ROAD SURGERY,-1.785797,52.497659
144738.80000000002,DORRIDGE SURGERY,-1.752074,52.372757
123749.66999999994,MORETON CROSS GROUP PRACTICE,-3.111975,53.403551
149363.19999999995,WITTON MEDICAL CENTRE,-2.507553,53.740232
26511.83,WALMERSLEY ROAD MEDICAL PRACTICE,-2.289525,53.599849
90414.64000000004,WEST COMMON LANE TEACHING PRACTICE,-0.682441,53.57473100000001
24606.68000000001,QUEENS ROAD SURGERY,-1.474524,52.522119
26109.719999999965,BEVAN HEALTHCARE CIC,-1.753352,53.795581
76113.72000000002,RIVERSIDE MEDICAL PRACTICE,-1.315584,54.56887
19586.689999999984,MEDICUS HEALTH PARTNERS-ENFIELD ISLAND,-0.016992,51.668586
2176.98,RESOURCE CENTRE,-0.356441,51.50598
877.89,WORTLEY BECK CHILDRENS SERVICE,-1.601117,53.782448
11434.789999999992,MERSEYCARE NHS TRUST,-2.826417,53.424035
17.11,JOSEPH COWEN HEALTH CARE CENTRE,-1.585714,54.975773
363.4599999999999,WARRINGTON CARE HOMES,-2.527537,53.414117
374.18000000000006,WHANTS COMM ENT,-0.08430999999999998,51.500087
153261.5800000004,RISING BROOK,-2.118782,52.787133
17015.08,BLOOMSBURY SURGERY,-1.871892,52.49324300000001
68468.47000000002,ST JAMES MEDICAL PRACTICE2,-2.097323,52.514234
29569.34,KHAN MEDICAL PRACTICE,-2.000799,52.613174
37840.15999999999,LINGHOLME HEALTH CENTRE,-2.744752,53.457769
234819.29000000012,PEEL HOUSE MEDICAL PRACTICE,-2.365995,53.75089200000001
54772.14999999997,ASHURST PRIMARY CARE,-2.772723,53.563208
152940.81999999966,RED BANK GROUP PRACTICE,-2.323706,53.560143
78883.34999999989,MARPLE BRIDGE SURGERY,-2.053323,53.400594
126390.26000000015,GRASMERE SURGERY,-2.511455,53.503236
111073.27000000002,GRAVESEND MEDICAL CENTRE,0.369986,51.443932
161793.34,PEASE WAY MEDICAL CENTRE,-1.576495,54.618581
40271.16999999995,ELSDON AVENUE SURGERY,-1.525885,55.07062
58927.450000000106,DR WICKREMESINGHE SSG,-0.123521,51.469491
41789.67999999999,CPT WORTHING,-0.375414,50.817416
545630.3500000003,TELDOC,-2.435206,52.672614
1169.7000000000005,COMMUNITY DIABETES CLINIC,-1.93389,52.489186
6473.03,HAROLD WOOD WIC,0.225699,51.593184
46302.42,CGL SERVICES,-0.8806699999999998,52.238217
51414.11000000002,HOUNSLOW CCG - HRCH (NMP),-0.326599,51.427449
16170.999999999995,LEARNING DISABILITIES SERVICE,-1.904396,52.412409
52358.06999999997,CROSLAND MOOR SURGERY,-1.809637,53.63841
26246.09,SW INTEGRATED TEAM WORCESTER,-2.178135,52.192339
884.25,SOUTH LAKES PRIMARY CARE SERVICES,-2.737133,54.312706
346.18000000000006,MIDDLESBROUGH 0-19 HCP,-1.517573,53.993807
21010.15,CONSULTANT LED DERMATOLOGY SERVICE,-1.922375,52.471325
128164.85999999994,SOUTH EAST HANTS CGG CONTINENCE SERVICE,-1.17634,50.853776
229.25,CITY & HACKNEY COMMUNITY ENT SERVICE,-0.08430999999999998,51.500087
86.37,GP EXTENDED ACCESS - HARROGATE,-1.529793,53.996354
42.31,CRITICAL SUPPLY NIGHT STORE,-2.606862,53.42951600000001
103328.53999999996,THE ROSEBERRY PRACTICE,-1.292215,54.611726
155580.7800000001,ST ANDREW'S MEDICAL PRACTICE,-1.598213,54.699634
181736.83,TANFIELD VIEW MEDICAL GROUP,-1.701373,54.869939
30891.129999999986,DR MITCHELL,-0.503581,53.72075
123408.1299999999,BEECH HOUSE SURGERY,-1.465892,54.010836
198487.56000000052,MANOR PARK SURGERY,-1.628914,53.814076
113586.82,PARKSIDE SURGERY,-1.391868,53.097732
252735.17999999988,SPINNEY HILL MEDICAL CENTRE,-1.109212,52.637381
29370.469999999994,SPRINGFIELD MEDICAL CENTRE,-1.195502,53.003599
97095.92000000026,PARKGATE MEDICAL CENTRE,-1.342798,53.455454
95731.99000000008,BURWELL SURGERY,0.331841,52.273327
84151.55999999992,MARTLESHAM SURGERY,1.272068,52.061314
27738.70000000003,THE AVENUE SURGERY,-0.319031,51.518389
67719.57999999997,THE LILYVILLE SURGERY,-0.199155,51.47377
33928.00999999999,WEST LONDON MEDICAL CENTRE,-0.454699,51.525731
275530.0999999998,ST.JAMES SURGERY,1.147433,51.787326
70439.24999999997,WITHAM HEALTH CENTRE,0.642876,51.800559
41640.72000000005,QUEENS AVENUE PRACTICE,-0.147916,51.591852
128197.52999999998,SANDWICH MEDICAL PRACTICE,1.337364,51.274071
33589.669999999984,DR RHK SINHA'S PRACTICE,-0.103058,51.482668
31138.07999999999,THE ADDISCOMBE SURGERY,-0.061851,51.376293
121880.64999999988,ADELAIDE MEDICAL CENTRE,-1.475274,51.208539
276092.5600000004,THE CAMBRIDGE PRACTICE,-0.76565,51.254364
75293.98000000008,GREENFORD ROAD MED.CTR.,-0.345702,51.537697
75184.1699999999,THE OAKLAND MEDICAL CENTRE,-0.45129300000000006,51.546055
46791.3,QUEENS WALK MEDICAL CENTRE,-0.393155,51.562716
68927.61999999991,THE ABINGDON HEALTH CENTRE,-0.197138,51.496085
117663.73999999998,THE ARDLEIGH SURGERY,0.985096,51.927073
179448.1799999997,ADDISON HOUSE - HAQUE PRACTICE,0.088979,51.770891
85786.59999999993,ST PETER'S STREET MEDICAL PRACTICE,-0.100772,51.535597
64550.70000000002,ABERFELDY PRACTICE,-0.004927,51.514483
189855.9699999999,STONE CROSS SURGERY,0.289944,50.816757
60755.26000000001,ELTHAM PALACE PMS,0.053714,51.449946
88396.79999999986,BROCKBANK (PARK ROAD),-0.334596,51.423912
134348.32000000007,CHAWTON PARK SURGERY,-0.989411,51.139814
78606.92000000004,STOKENCHURCH MEDICAL CTRE,-0.904033,51.660479
38965.179999999964,MARSHALLS ROAD SURGERY,-0.539225,52.344743
53539.46999999996,HOLLINSWOOD SURGERY,-2.437453,52.673936
50396.26000000002,ABBOTS BROMLEY SURGERY,-1.880966,52.819974
230011.24999999985,DARWIN MEDICAL CENTRE,-1.831505,52.694061
177714.40000000017,THE OAKS MEDICAL CENTRE,-1.895827,52.552454
48947.85999999997,VICTORIA ROAD MEDICAL CTR,-1.887197,52.501868
145525.31000000006,ST JOHN'S MEDICAL CENTRE,-1.932532,52.626307
81206.7800000001,NEWBRIDGE SURGERY,-2.155299,52.5936
231047.92000000036,THE CORNERSTONE PRACTICE,-2.4524,53.739201
58776.68999999999,TOWNSIDE SURGERY,-2.29898,53.59031
66537.37000000004,GOODMAYES MEDICAL CENTRE,0.10990599999999999,51.567626
22551.03999999999,PARK GRANGE MEDICAL CENTRE,-1.775929,53.789415
19685.179999999982,ST.GEORGES MEDICAL CENTRE,-0.24612,51.558731
1238.35,EAST CAMHS,-1.531703,53.817673
360.3,GPSI DERMATOLOGY HEAVITREE HC,-3.505542,50.723202
208.01,UTTLESFORD HEALTH LIMITED GYNAECOLOGY,0.256305,52.0236
51029.21000000007,HETHERINGTON AT THE PAVILION,-0.116397,51.461633
38.56,DMC SHEPPEY OPHTHALMOLOGY,0.793061,51.415409
75440.01999999987,OAKWOOD MEDICAL CENTRE,-0.134269,51.646534
104179.45,SOUTH HERMITAGE SURGERY,-2.752497,52.699728
10746.48,C.A.M.H.S.,-2.689816,53.693597
3.2,VIOLENT PATIENT ENHANCED SERVICE 1,-2.2227,53.49493
4949.299999999998,PCEC,-2.227711,53.462436
892.9199999999998,EAST KENT HEADACHE SERVICE,1.414787,51.390277
63.57000000000001,HMP YOI HOLLESLEY BAY,1.451269,52.051591
4450.950000000002,SMGPF,-2.237795,53.434307
190.14,TPG COMMUNITY OPHTHALMOLOGY - SALFORD,-0.574826,51.671154
31721.230000000014,DCHS DERBY CITY,-1.441882,53.221288
25277.66,TURNING POINT LEICESTER & LEICESTERSHIRE,-1.127621,52.637554
69262.83000000003,REDBURN PARK MEDICAL CENTRE,-1.474775,55.00092
36266.16,CASTLETOWN MEDICAL CENTRE,-1.450848,54.913341
37611.43999999999,ALDBROUGH ST JOHN SURGERY,-1.684645,54.496518
24887.31999999999,EAST PARADE MEDICAL PRACTICE,-1.061835,53.965993
29045.449999999986,BARKEREND HC - EL ELIWI,-1.7218490000000002,53.797834
268000.0000000003,SHAFTESBURY MEDICAL CTR.,-1.497858,53.800234
105573.93000000004,GROBY ROAD MEDICAL CENTRE (ID PATCHETT),-1.150468,52.644337
53398.55,ROSEMEAD DRIVE SURGERY,-1.083088,52.5934
16188.239999999983,AR-RAZI MEDICAL CENTRE,-1.101204,52.623926
82851.03999999995,BRANSTON & HEIGHINGTON FAMILY PRACTICE,-0.467988,53.195831
153613.56999999975,FOUNTAIN MEDICAL CENTRE,-0.8043829999999998,53.07286
84046.30999999998,OAKENHALL MEDICAL PRACT,-1.199437,53.03661700000001
74984.27999999998,SCAWSBY HEALTH CENTRE PRACTICE,-1.167843,53.53678299999999
144488.37000000008,ST. GEORGE'S MEDICAL CENTRE,0.298817,52.458085
95987.75999999992,LAWNS PRACTICE,1.109092,52.378889
139596.53999999992,CENTRAL SURGERY,0.147747,51.812546
71341.34999999992,CHURCH END MEDICAL CENTRE,-0.253241,51.54757
83398.41000000006,BRENTFORD GROUP PRACTICE,-0.310054,51.48676
88148.66999999995,THE DEVONSHIRE LODGE PRACTICE,-0.397406,51.579266
35323.53999999999,THE HOXTON SURGERY,-0.086829,51.533527
59999.90999999987,LL MEDICAL CARE LTD,0.0021,51.555415
228081.3100000001,JUBILEE MEDICAL CENTRE,0.300332,51.3978
91036.5900000001,LAMBETH WALK GROUP PRACTICE,-0.11259100000000001,51.495609
80021.7299999999,STANWELL ROAD SURGERY,-0.470567,51.438013
429473.64999999903,THE ADAM PRACTICE,-2.07822,50.757881
61744.82999999997,SOUTHMEAD SURGERY,-0.616953,51.552538
39071.220000000016,CLIFTON HAMPDEN SURGERY,-1.211451,51.658625
75603.77999999993,GROOMBRIDGE AND HARTFIELD MED GRP,0.184416,51.113952
90236.05000000008,POND TAIL SURGERY,-0.066728,51.246436
200880.32000000004,THE WALL HOUSE SURGERY,-0.208192,51.241304
43494.150000000016,THE HALING PARK PARTNERSHIP,-0.098109,51.357113
86596.3299999998,THE PRINCE OF WALES SURGERY,-2.457579,50.713502
141540.09,BRANKSOMEWOOD H/CARE CTR,-0.8448069999999998,51.281888
71026.02000000006,THE GROVE SURGERY,-0.735114,52.023651
110447.31000000011,PROBUS SURGERY,-4.948542,50.290121
224947.93999999968,ABBEY SURGERY,-4.150401,50.546904
129020.54000000002,WHITEACRES MEDICAL CENTRE,-2.300547,52.124716
54685.90000000001,WOODSIDE MEDICAL PRACTICE,-2.466175,52.637949
104584.69999999988,LYME VALLEY MEDICAL CENTRE,-2.22375,53.006305
72448.71999999993,AUDLEM MEDICAL PRACTICE,-2.508717,52.989615
55899.18000000002,KENNETH MACRAE MED CENTRE,-2.786435,53.49903
145796.05000000002,BODEY MEDICAL CENTRE,-2.214798,53.440636
40648.390000000036,WOODLANDS MEDICAL PRACTICE,-2.31213,53.406624
29733.250000000015,DR PAL,-2.595495,53.47988
80756.99000000005,BATH ROAD SURGERY,-0.37684,51.469395
105438.35000000012,CHAPEL ROW SURGERY,-1.17086,51.425877
44267.22000000003,WOODLANDS MEDICAL PRACTICE,-0.170943,51.592914
3365.1000000000013,NORTH LINCOLNSHIRE OOH,-0.667599,53.587582
196.34,EPUT COMMUNITY CARDIOLOGY,0.12393,51.704295
30.53,COMMUNITY SERVICES,-0.175694,51.426682
2615.2999999999993,SOUTH YORK HEART FAILURE NURSES,-1.082907,53.951837
432.0100000000001,BROMLEY DIABETES SERVICE (BECKENHAM),-0.033209,51.405232
11107.789999999995,NCH&C COMMUNITY NURSES (WEST),0.410147,52.749129
440.27000000000015,MUSCULOSKELETAL INTERFACE ASSESSMT SVCE,-0.168282,51.45617
164.38,END OF LIFE & PALLIATIVE CARE SERVICE,-2.13932,53.597586
10225.979999999998,HEALTHBRIDGE DIRECT,0.020102,51.608432
11.39,AQP ANTICOAG RIDGACRE MEDICAL CENTRE,-1.9901099999999998,52.460912
57921.03999999998,TAMESIDE & GLOSSOP IC NHS FT,-2.071433,53.49153
1107.02,WHHFT COMMUNITY NURSE PRESCRIBERS,-2.610717,53.393973
5783.77,STOP SMOKING SERVICE (M'BORO),-1.235298,54.57700500000001
7.66,ACCT 2,-1.962695,53.898015
1811.25,DMC COMMUNITY DERMATOLOGY SERVICE,1.087083,51.266589
1.03,OLDER AGE - CHARLTON LANE HOSPITAL,-2.073674,51.881059
985.1399999999996,EXTENDED HOURS SERVICE-ONE LIFE,-1.214164,54.682342
12.27,BMI-THE SLOANE HOSPITAL,-0.00436,51.408332
74267.18999999997,CRAMLINGTON MEDICAL GROUP,-1.591516,55.084481
193482.65999999977,KINGSTON MEDICAL GROUP,-0.349365,53.756137
37307.72999999999,WESTFIELD MEDICAL CENTRE,-1.531703,53.817673
102883.76999999996,VERNON STREET MEDICAL CTR,-1.49039,52.924019
61019.83,STUBLEY MEDICAL CENTRE,-1.488541,53.304986
259728.31999999995,BRIDGE COTTAGE SURGERY,-0.215995,51.830002
112277.29000000008,GRANGE STREET SURGERY,-0.335878,51.757298
44092.62000000002,CHICHELE ROAD SURGERY,-0.216241,51.55483
43655.10000000002,SHIRLAND ROAD MEDICAL CENTRE,-0.203904,51.5292
76621.24000000003,DR KRISHNAN & PTNR - KENT ELMS HC,0.664114,51.563831
68402.34000000001,CRANHAM HEALTH CENTRE,0.265291,51.568865
56725.65999999999,ST PETER'S SURGERY,1.41893,51.362936
77525.31999999985,LEWISHAM MEDICAL CENTRE,0.004522,51.458513
54202.390000000065,STEWKLEY ROAD SURGERY,-0.71666,51.898041
29966.5,SIBFORD SURGERY,-1.479244,52.037614
178984.13000000032,NEW COURT SURGERY,-2.958059,51.345794
179116.85000000012,AXMINSTER MEDICAL PRACTICE,-2.999226,50.780899
206654.41000000012,COLERIDGE MEDICAL CENTRE,-3.2835660000000004,50.751704
111768.70999999985,LYDNEY PRACTICE,-2.529867,51.727913
98095.88,PRICES MILL SURGERY,-2.224938,51.693801
145116.31999999983,ST. JOHNS SURGERY,-2.059728,52.337612
177706.9399999999,THE ALDERGATE MED.PRACT.,-1.695644,52.639079
127909.77999999998,YARDLEY WOOD HEALTH CENTRE,-1.859168,52.418648
98696.06000000003,MONTAGUE MEDICAL PRACTICE,-0.872899,53.707031
181549.21000000017,EASTGATE MEDICAL GROUP,-1.462815,54.006795
106264.03,HORTON BANK PRACTICE,-1.806018,53.774478
127852.37000000005,MARSH MEDICAL PRACTICE,0.143689,53.445069
215670.57000000007,HUDDERSFIELD ROAD SURGERY,-1.485631,53.558165
226177.91000000012,SWALLOWNEST HEALTH CENTRE,-1.317097,53.362997
157848.19000000018,SHERINGHAM MEDICAL PRACTICE,1.214777,52.939688
184868.04999999984,KNEBWORTH & MARYMEAD MEDICAL PRACTICE,-0.184972,51.866323
28421.580000000016,THE HODFORD ROAD PRACTICE,-0.199318,51.569038
101083.27999999998,HAZELDENE MEDICAL CENTRE,-0.275394,51.547592
63389.09999999993,CLOISTER ROAD SURGERY,-0.265589,51.521352
76830.16999999993,ABBEY ROAD MEDICAL PRACTICE,0.005881,51.534784
43958.10000000003,BOUNDARY HOUSE SURGERY,-0.054245,51.632475
109438.31999999988,MANOR PARK MEDICAL CENTRE,0.24261,50.819107
134655.80999999988,CHURCH LANE HEALTH CENTRE,0.941162,50.984187
286470.89000000013,BETHESDA MEDICAL CENTRE,1.414787,51.390277
128735.19000000008,WOODLANDS SURGERY,0.088913,51.439755
145135.29000000007,LILLIPUT SURGERY,-1.954229,50.711523
268691.75999999925,WESTBURY GROUP PRACTICE,-2.203558,51.252792
180598.56999999995,PENRYN SURGERY,-5.10336,50.167504
120177.55000000008,CROWN MEDICAL CENTRE,-3.080969,51.029111
118630.48999999983,BARN CLOSE SURGERY,-1.859248,52.03627
33448.23000000002,HIGHLEY MEDICAL CENTRE,-2.392978,52.456165
39719.19999999996,ALVELEY MEDICAL PRACTICE,-2.353309,52.454738
61034.32000000002,WOLSTON SURGERY,-1.392727,52.376806
73353.4200000001,BALLIOL ROAD SURGERY,-1.471449,52.415924
68065.63000000009,NEWTON MEDICAL CENTRE,-2.638386,53.457172
113807.35000000006,GREASBY GROUP PRACTICE,-3.121417,53.377628
50321.43999999998,LOSTOCK HALL MEDICAL CTR.,-2.688037,53.727502
46864.50000000001,KNOWSLEY MEDICAL CENTRE,-2.300551,53.588497
56677.95999999996,TIMPERLEY HEALTH CENTRE (WESTWOOD),-2.323566,53.397228
39.81,CHILDREN & YP DIR.,-0.017051,51.454329
47.3,CORPORATE DIVISION,0.475497,50.850706
7224.500000000003,BIRMINGHAM DENTAL HOSPITAL,-1.916521,52.45037
14932.210000000005,SUFFOLK RECOVERY SERVICE - IPSWICH,1.150763,52.057299
26.86,UROLOGY-MERTON CCG,-0.210281,51.409967
23704.92,COMM PAEDIATRIC & LAC HEALTH SERVICE,-2.756261,53.446091
945.9599999999997,WELLINGBOROUGH EXTENDED ACCESS,-0.695567,52.303398
2400.9200000000005,ST JOSEPH'S HOSPICE  HACKNEY,-0.056255,51.537053
47762.97000000006,PENINSULA MEDICAL PRACTICE,-2.915665,54.18795600000001
73745.50000000019,ROSEWORTH SURGERY,-1.61867,55.001366
318810.94999999914,GREENGATES MEDICAL GROUP,-0.418494,53.844343
232033.31000000014,HEBDEN BRIDGE GROUP PRACTICE,-2.010942,53.744036
101213.85000000024,LIMES MEDICAL CENTRE,-1.387885,53.098493
76193.43999999993,CHURCHSIDE MEDICAL PRACTICE,-1.203539,53.146592
67868.29000000001,SELSTON SURGERY,-1.299871,53.070196
108407.85999999987,CRYSTAL PEAKS MEDICAL CENTRE,-1.354473,53.342881
150518.38999999996,LINCOLN HOUSE SURGERY,-0.469093,51.737355
130253.82000000007,STOCKWELL LODGE MED.CTR.,-0.055287,51.713792
47676.19000000002,SOUTHEND MEDICAL CENTRE,0.708516,51.540069
46338.98,DR DEVARAJA VC PRACTICE,0.44359,51.520015
57213.31000000004,DR PM PATEL,0.219281,51.55632
41372.11999999999,THE MITCHISON ROAD SURGERY,-0.087357,51.544992
44166.87999999994,FOUNTAYNE ROAD HEALTH CENTRE,-0.065145,51.56442
121031.09,FRAMLINGHAM SURGERY,1.334192,52.227216
25588.74,ARCHWAY SURGERY,-0.532167,51.72275
57453.06999999998,CHURCH LANE SURGERY,-0.262165,51.574931
20238.379999999983,CHISWICK FAMILY DRS PRACTICE,-0.259879,51.493563
51971.42999999997,ACRE SURGERY,-0.411552,51.604465
33327.12000000005,CHOWDHURY,0.233898,51.592339
40898.76999999998,CUMBERLAND MEDICAL CENTRE,0.026047,51.519716
117504.66000000012,ILFORD MEDICAL CENTRE,0.07431899999999998,51.556823
146548.46000000002,RYE MEDICAL CENTRE,0.730363,50.961944
50993.16999999994,MAIDSTONE RD CHATHAM SURGERY,0.516708,51.361226
46965.95999999999,VASSALL MEDICAL CENTRE,-0.10851199999999998,51.477558
139485.1900000001,WITLEY SURGERY,-0.650163,51.156457
96940.16999999998,FARMHOUSE SURGERY,-1.7595,50.736437
109509.06999999982,JENNER HOUSE SURGERY,-0.7745189999999998,51.294302
75719.52999999996,LONG BARN LANE SURGERY,-0.967033,51.436181
308931.79999999906,WESTONGROVE PARTNERSHIP,-0.74378,51.76588
90997.44,MILBORNE PORT SURGERY,-2.471962,50.967502
59112.22000000002,OMBERSLEY MEDICAL CENTRE,-2.229023,52.276554
185476.1299999997,FURLONG MEDICAL CENTRE,-2.208139,53.063325
111734.24,NORFOLK STREET SURGERY,-2.182794,53.01602
82613.03999999998,PARADISE MEDICAL CENTRE,-1.494835,52.426778
132586.51000000007,MAYFIELD MEDICAL CENTRE,-2.093284,52.583046
89470.82999999994,LEVENSHULME MEDICAL PRACTICE,-2.188524,53.446352
84462.56999999995,HEALD GREEN HEALTH CENTRE 2,-2.229276,53.369878
53503.169999999925,SMITH (RICHMOND LOCK),-0.322897,51.464517
55552.44000000004,CHILLINGTON HEALTH CENTRE,-3.693645,50.272623
85132.47999999992,JUBILEE GARDENS MEDICAL CENTRE,-0.368739,51.521097
51292.13999999999,BLACKHEATH MED CTR,-3.104694,53.412239
20513.29,AMBAR MEDICAL CENTRE,-1.991354,52.575093
22893.239999999987,GOLDINGTON ROAD SURGERY,-0.456174,52.140172
26801.15,DMC ST MARYS ISLAND SURGERY,0.538105,51.406776
7169.1,STREET LANE DERMATOLOGY CLINIC,-1.513393,53.843234
76353.18000000002,POPLAR PRIMARY CARE CENTRE,-1.890326,52.43631
905.6,NORTHAMPTONSHIRE OUT OF HOURS SERVICE,-0.683359,52.29767
933.69,NEUROLOGY LONG TERM CONDITIONS,-2.384279,53.582354
305763.3099999998,THORNABY & BARWICK MEDICAL GROUP,-1.292128,54.538149
229318.33999999985,BRAMPTON MEDICAL PRACTICE,-2.734846,54.94237
93057.27000000003,RISEDALE SURGERY,-3.224778,54.109942
94615.46999999978,ROWLANDS GILL MEDICAL CENTRE,-1.742896,54.91936
120549.44000000006,THE SUTTON MANOR SURGERY,-0.315294,53.785759
121464.6199999998,PLANE TREES GROUP PRACTICE,-1.894437,53.730448
156295.7599999998,THORNTON MEDICAL CENTRE,-1.576209,53.791908
208446.6699999999,JESSOP MEDICAL PRACTICE,-1.372226,53.074348
264709.4500000001,THE PARK MEDICAL PRACTICE,-1.432644,52.928801
72404.08,BRAILSFORD & HULLAND MEDICAL PRACTICE,-1.624927,52.96943
167067.84000000035,MERRIDALE MEDICAL CENTRE (RP TEW),-1.160752,52.620146
127120.66000000006,THE MAYFLOWER MEDICAL PRACTICE,-1.01945,53.431872
186377.80999999968,BASLOW RD  SHOREHAM ST & YORK RD SRGIES,-1.531066,53.316325
38382.269999999975,OVER SURGERY,0.012018,52.314809
120086.38,DR TUN & PARTNERS,-2.583571,53.532102
100776.89999999988,ST.ANTHONY'S HEALTH CENTRE,-1.55655,54.966674
138250.65999999992,MANOR DRIVE MEDICAL CENTRE,-0.24836599999999998,51.380785
3339.15,SMS COMMUNITY DERMATOLOGY CLINIC,-1.398499,50.913503
2200.0,C1 ESTERASE,1.507338,52.34806
9860.169999999998,WESTCALL OOH,-0.8315749999999998,51.410524
25681.94,NORTH LANCASHIRE INSPIRE,-2.798181,54.04844
3086.44,NELFT SOUTH WEST ESSEX CS,0.496195,51.591456
1391.76,HILLINGDON UCC,-0.461175,51.526077
1609.2600000000002,LEARNING ASSESSMENT & NEUROCARE BURY,-2.29898,53.59031
275.01,MK ENT SERVICE,-0.79788,52.035898
5554.750000000003,EAST STAFFS IMPROVING LIVES,-1.6480290000000002,52.798809
9.19,COMMUNITY MIDWIVES,-2.784954,53.420469
162.13000000000005,LYNFIELD MOUNT HOSPITAL,-1.805354,53.809728
693.7600000000001,PCAH - NEW ROMNEY,0.938719,50.987586
7356.479999999998,CGL BROMLEY,0.010068,51.409191
125511.01000000005,BISHOPS CLOSE MEDICAL PRACTICE,-1.599142,54.699817
208220.84000000023,CLEE MEDICAL CENTRE,-0.041433,53.566223
168938.32999999993,WIBSEY & QUEENSBURY MED P,-1.779715,53.767225
34778.64000000001,SOUTHOWRAM SURGERY,-1.831696,53.712293
42680.019999999975,WHITWICK HEALTH CENTRE,-1.3606790000000002,52.742576
157379.0100000003,MARKET SURGERY,-1.345958,53.502635
46536.05000000007,BALDWINS LANE SURGERY,-0.448705,51.654076
84500.62000000005,DERWENT CRESCENT MEDICAL CENTRE,-0.175285,51.622908
164843.90000000026,THE STANMORE MEDICAL CENTRE,-0.304021,51.60154
73747.96000000002,NEASDEN MEDICAL CENTRE,-0.247382,51.559667
27265.64000000001,BROOK GREEN SURGERY,-0.218145,51.495291
263729.3499999997,ABBEY FIELD MEDICAL CENTRE,0.898575,51.877487
25424.550000000007,JOHN SMITH MEDICAL CENTRE,0.112125,51.538899
39550.430000000015,TOTTENHAM HEALTH CENTRE,-0.068474,51.604755
46052.32000000002,DR MOHAMMED GREEN MAN MEDICAL CENTRE,0.015000999999999999,51.571506
99394.43000000002,FAIRFIELD PMS,0.038949,51.483908
48093.88000000004,PARKSIDE MEDICAL CENTRE,-0.092642,51.475826
82364.75000000019,NORK CLINIC,-0.215842,51.326429
86803.33000000003,QUEENHILL MEDICAL PRACTICE,-0.066791,51.34499
70897.20999999982,GRAND DRIVE SURGERY,-0.228811,51.402155
258069.85999999946,THE BOSMERE MEDICAL PRACTICE,-0.990581,50.850232
209478.3899999997,BURNHAM HEALTH CENTRE,-0.662137,51.5349
69307.55,THE LONG BUCKBY PRACTICE,-1.08255,52.30049
444018.3200000002,ASPEN MEDICAL PRACTICE,-2.225797,51.865969
107214.14000000004,GLOUCESTER CITY HEALTH CENTRE,-2.245328,51.860355
262870.62999999983,ABBEY HOUSE MEDICAL PRACTICE,-1.160725,52.260319
143369.93,NORTON BROOK MEDICAL CENTRE,-3.782122,50.288739
41919.279999999984,SOMERSET BRIDGE MEDICAL CENTRE,-2.995883,51.115105
112963.64999999992,TRENT VALE MEDICAL PRACTICE,-2.201785,52.987386
42322.450000000026,BROOKSIDE SURGERY,-1.399088,52.35048
81379.13000000006,NORTHWAY MEDICAL CENTRE,-2.130997,52.54810500000001
145569.16000000012,MARTON MEDICAL PRACTICE,-3.034524,53.812843
120499.00000000006,CORNISHWAY GROUP PRACTICE,-2.265017,53.379925
158655.66999999998,BRAMHALL HEALTH CENTRE,-2.162929,53.36001
108466.24,MAYNARD COURT SURGERY,0.020165,51.685605
46774.72999999998,AYLESBURY SURGERY,-1.876053,52.542854
21046.33000000001,NEVILLE ROAD SURGERY,-0.443036,51.906419
1547.6400000000015,UNIV HOSP NORTH DURHAM OOH,-1.593834,54.788497
387.57,THE HOSPICE CARE FOR BURNLEY & PENDLE,-2.237434,53.819025
29351.88,BOWLING GREEN STREET SURGERY,-1.133096,52.63304599999999
42.13,INTEGRATED COMMUNITY RESPONSE SERVICE,-0.371755,51.468263
970.91,GP CARE DVT SERVICE,-2.570351,51.544821
17.920000000000005,SWALE GROUP,1.118942,51.075872
500061.41999999963,BCHC MEDICINES MANAGEMENT,-1.9537779999999998,52.398207
108.05,CHCP - HESSLE  BROUGH  COTT  ANLABY,-0.429474,53.723082
1000.41,PURLEY MIU - AT MEDICS,-0.11446600000000001,51.34074
40.46,INDEPENDENT HEALTH GROUP,-2.414415,51.312224
1251.56,PML NEIGHBOURHOOD HUB (KIDLINGTON),-1.289236,51.821558
186853.26999999952,YARM MEDICAL PRACTICE,-1.355519,54.50530500000001
58936.63000000001,BENSHAM FAMILY PRACTICE,-1.617038,54.952781
119182.50999999988,BURTON CROFT SURGERY,-1.57692,53.820807
30255.80000000002,EASTMOOR HEALTH CENTRE,-1.476864,53.690004
35560.989999999976,HARTINGTON SURGERY,-1.810816,53.142488
66229.03999999989,THE PRACTICE BEAUMONT LEYS,-1.15392,52.662296
76699.45999999993,TASBURGH LODGE SURGERY,-0.21375,53.151242
144095.72999999984,SOTHALL & BEIGHTON HEALTH CENTRES,-1.340221,53.337895
41080.84999999995,KINGSWAY SURGERY,-0.437208,51.517478
50299.26999999993,FIVE ELMS MEDICAL PRACTICE,0.14235,51.553315
16097.839999999984,SPUR ROAD SURGERY,-0.086621,51.586597
109259.64999999988,THE MEADS SURGERY,0.091624,50.969686
55242.71999999993,ALBION STREET SURGERY,-0.133965,50.827627
116606.86000000016,BELLEGROVE SURGERY,0.09579,51.464561
132297.19999999992,SOUTH VIEW PARTNERSHIP,0.026125,51.405111
58962.72999999998,CORNERWAYS SURGERY,-0.404519,50.81566
51426.24000000001,CHEAM GP CENTRE,-0.225239,51.368621
35891.63,WALLINGTON MEDICAL CENTRE,-0.129285,51.357345
127983.83,THE BANKS & BEARWOOD MEDICAL CENTRE,-1.9292169999999997,50.768326
59376.84000000002,MERE SURGERY,-2.265342,51.089873
34861.869999999966,RAGSTONE ROAD SURGERY,-0.601832,51.503747
106011.72000000002,COMBE DOWN SURGERY,-2.345599,51.361003
107727.75,WADEBRIDGE & CAMEL ESTUARY PRACTICE,-4.835729,50.514816
74847.74000000009,NORTH PETHERTON SURGERY,-3.013922,51.09139
52763.789999999964,HANDSWORTH MEDICAL PRACT.,-1.941212,52.505377
117573.14000000006,EVE HILL MEDICAL PRACTICE,-2.096805,52.512922
49089.05000000002,BEARWOOD MEDICAL CENTRE,-1.97344,52.476903
141359.11000000013,THE GROUP PRACTICE ALFRED SQUIRE ROAD,-2.080754,52.599417
178001.46000000022,WEST DERBY MEDICAL CENTRE,-2.895944,53.431273
32404.150000000034,BEEHIVE SURGERY,-2.419172,53.564161
48671.92000000004,QUEENS MEDICAL CENTRE,-2.235847,53.50081899999999
141648.97999999984,LANGWORTHY MEDICAL PRACTICE,-2.294771,53.489371
31467.18999999998,LEY HILL SURGERY,-1.983266,52.421346
80485.33999999998,THE CHEYLESMORE SURGERY,-1.503924,52.391324
25795.880000000016,DR. B. K. PRASHARA,-2.114816,52.456326
152679.34999999998,ST PETER'S SURGERY,-1.984855,52.594537
119985.85,ORMSKIRK HOUSE SURGERY,-2.74261,53.456686
98005.49,MANOR HEALTH CTR,-3.044493,53.421061
153332.00999999992,THE PENDLE MEDICAL PARTNERSHIP,-2.144307,53.915882
150219.77000000002,3/SPRINGFIELD HOUSE MEDICAL PRACTICE,-2.362019,53.480252
155586.11999999994,PENNINE MEDICAL CENTRE,-2.040966,53.515337
38402.060000000034,THE CROSSROADS SURGERY,-2.770123,53.417492
34663.429999999964,CRESCENT SURGERY,0.106446,51.389854
46746.99999999999,GREEN CEDARS MEDICAL CENTRE,-0.073642,51.616071
7714.129999999997,CGL HALTON,-2.733862,53.354554
45.62,STELLAR HEALTHCARE OPHTHALMOLOGY,0.12393,51.704295
25880.529999999984,THE KINGSWAY PRACTICE,-2.135588,53.612168
100284.85999999981,WHITE HORSE SURGERY,0.343258,51.435153
188.25000000000003,LANCS HOUSE UROLOGY,-2.218662,53.592207
1556.1499999999994,THE ENFIELD PAIN CLINICS,-0.076772,51.66253
210.04,WORC OA CMHT,-2.186957,52.2101
27.000000000000004,WORKING AGE ADULTS - WOTTON LAWN HPL,-2.227893,51.866962
13354.38,WESTMINSTER DAWS,-0.132264,51.511274
108.94,LAS S.E. LONDON IUC CAS,-0.10903099999999999,51.500174
1420.0100000000002,NY HORIZONS SKIPTON,-2.01705,53.963253
70.43000000000002,HMP BRISTOL,-2.591585,51.480902
13.95,HMP & YOI CHELMSFORD,0.484655,51.736724
1440.5200000000002,BARNSLEY HOSPICE,-1.514714,53.560138
564.22,WEST KENT GROUP,1.118942,51.075872
1781.5199999999998,ADHD SERVICE,-0.382232,51.595076
4583.28,CGL RICHMOND UPON THAMES,-0.330961,51.445928
50804.66000000005,CHAPELFORD PRIMARY CARE CENTRE,-2.633066,53.39615799999999
4568.479999999999,BRAMHOPE DERMATOLOGY COMMUNITY CLINIC,-1.61581,53.881903
51572.52000000002,BHF LUNDWOOD SURGERY,-1.438538,53.557711
210.72,SOTON COMMUNITY ENT SERVICE WESTON LANE,-1.370694,50.888213
22.21,WORKING AGE ADULTS - AVON HOUSE,-2.13216,51.999104
112112.77000000028,DALTON SURGERY,-3.179816,54.155917
74685.25000000007,THE SELE MEDICAL PRACTICE,-2.095702,54.970372
85009.20999999998,WOODLANDS PARK HEALTH CTR,-1.628825,55.04614
78188.07999999997,CONCORD MEDICAL PRACTICE,-1.524864,54.913411
136914.15999999995,MARKET WEIGHTON GROUP PRACTICE,-0.674786,53.864903
90514.78000000007,RAJ MEDICAL CENTRE,-0.113968,53.550655
144940.24000000005,MAYFORD HOUSE SURGERY,-1.446534,54.328376
180836.88000000003,OAKWOOD LANE MEDICAL PRACTICE,-1.493931,53.819982
382356.2700000005,HEALTH CARE FIRST PARTNERSHIP,-1.393615,53.736872
93256.53000000004,HAVEN MEDICAL CENTRE,-1.416874,52.891498
117292.78000000016,COUNTESTHORPE HEALTH CENTRE,-1.136767,52.554536
174632.25999999995,CASTLE HEALTHCARE PRACTICE,-1.144908,52.930476
181476.05000000008,BROOM LANE MEDICAL CENTRE,-1.332311,53.417383
62415.200000000055,CADDINGTON SURGERY,-0.458179,51.864502
90880.16000000013,ANNANDALE MEDICAL CENTRE,-0.17421099999999998,51.698571
5337.190000000001,GREENWICH CCG GP ACCESS HUB,0.050556,51.457843
178.1599999999999,WEST KENT HEALTH FEDERATION,0.277462,51.194717
319.8299999999999,CYPS - MARSBURG HOUSE,-2.206729,51.739527
13991.609999999993,DMC COMMUNITY DERMATOLOGY BHR,0.223136,51.563496
96525.44000000005,WEST ROAD MEDICAL CENTRE,-1.656263,54.976209
50058.83999999998,IMEARY STREET PRACTICE,-1.424863,54.98753000000001
23357.180000000004,THE KILLINGHOLME SURGERY,-0.260335,53.62990799999999
131477.15000000005,DR SINHA & PARTNERS,0.100204,53.030138
74964.1099999999,THE HEALTH CARE SURGERY,-1.487911,53.42172
112639.86999999985,COMBERTON SURGERY,0.018614,52.189811
138073.43999999992,TRINITY & BOWTHORPE MEDICAL PRACTICE,1.280248,52.624411
105338.39000000012,THE LIMES SURGERY,-0.010842,51.759413
116162.66000000012,SHEPHALL HEALTH CENTRE,-0.167642,51.890799
28825.049999999992,WAKEMANS HILL SURGERY,-0.254209,51.587088
45973.41000000005,WESTBOURNE GROVE MEDICAL CENTRE,-0.200361,51.514211
125037.4600000002,FOREST PRACTICE,0.07523499999999998,51.654789
36407.04000000003,PRASAD,0.210579,51.600308
125022.12000000011,HARROW ROAD GP CENTRE,0.012856,51.559538
66350.97,SEVEN DIALS MEDICAL CENTRE,-0.147743,50.829681
148576.52000000005,NORTHDOWN SURGERY,1.368001,51.379866
38064.12000000002,MILTON REGIS SURGERY,0.7321839999999998,51.349193
122106.32999999984,BARCROFT MEDICAL CENTRE,-1.780526,51.172939
42162.070000000014,BURBAGE SURGERY,-1.669545,51.348496
268957.1299999999,THE SWAN PRACTICE,-0.985664,52.001593
244904.2599999997,PIONEER MEDICAL GROUP,-2.617628,51.510306
78098.32999999999,THE CREST FAMILY PRACTICE,-2.596274,51.428746
24964.45,WORTHEN MEDICAL PRACTICE,-3.000165,52.635224
105539.73000000004,NESTON MEDICAL CENTRE,-3.064349,53.291818
47616.34999999997,KIRKDALE MEDICAL CENTRE,-2.973842,53.433523
62929.96999999997,WITHNELL HEALTH CENTRE,-2.556663,53.692491
226498.1899999999,DARWEN HEALTHLINK,-2.471427,53.695744
134550.7399999999,ST.MARY'S HEALTH CENTRE,-2.729589,53.747433
61470.73999999993,DAVID MEDICAL CENTRE,-2.268652,53.43186
80662.1599999999,DR ABBAS,-0.841253,52.26834
53890.00000000001,FACCINI HOUSE SURGERY,-0.189379,51.389682
94117.30999999987,EDLESBOROUGH SURGERY,-0.588625,51.868423
70232.04999999994,DR GS KALKAT'S PRACTICE,0.103861,51.527941
50332.62999999997,JRB HEALTHCARE BEECHDALE SURGERY,-1.198142,52.961504
15018.299999999996,THE LYNWOOD SURGERY,-0.29964,51.528594
35712.18000000005,CHURCH VIEW MEDICAL CENTRE,-2.960328,50.935622
186952.88,WOODLANDS FAMILY MEDICAL CENTRE,-1.321204,54.561215
23383.10999999999,ASKAM SURGERY,-3.210918,54.183705
253388.7399999997,FERRYHILL AND CHILTON MEDICAL PRACTICE,-1.556828,54.689838
109991.7800000001,COLLIERY COURT MEDICAL GROUP,-1.460703,54.949762
84122.85000000003,GRANGE PARK SURGERY,-1.7481080000000002,53.912695
167112.65000000005,THE COUNTY PRACTICE,-1.069884,52.70073000000001
277172.2200000001,BEECHFIELD MEDICAL CENTRE,-0.145012,52.787253
114811.06999999993,GRIMETHORPE SURGERY,-1.378978,53.573614
91394.74000000009,THE OAKWOOD SURGERY,-1.073937,53.506609
87681.64999999989,PAPWORTH SURGERY,-0.11749200000000001,52.252071
157923.07000000024,ORCHARD SURGERY,0.944176,52.678309
156904.88999999987,DR JK MARSDEN'S PRACTICE,-0.436528,51.894968
165341.12,MALTINGS SURGERY,-0.337918,51.751851
44368.23999999998,HANWELL HEALTH CENTRE (NAISH),-0.334375,51.510263
141380.12999999995,WHITLEY HOUSE SURGERY,0.455723,51.726539
128139.60999999977,WEST ROAD SURGERY,0.70187,51.544989
38379.820000000014,JOYDENS WOOD MEDICAL CENTRE,0.166397,51.42449
260520.92000000004,TRAFALGAR MEDICAL GROUP PRACTICE,-1.092485,50.785331
127235.02000000006,EASTFIELD HOUSE SURGERY,-1.323251,51.395555
106741.77,RECTORY MEADOW SURGERY,-0.6175,51.669079
155820.06000000026,TUDOR LODGE SURGERY,-2.975378,51.332396
112269.78999999992,PRAZE-AN-BEEBLE SURGERY,-5.309264,50.173753
211685.29000000007,CAMBRIAN MEDICAL PRACTICE,-3.047774,52.86281
96413.98,PENN SURGERY,-2.145001,52.568567
97578.46000000008,FIRDALE MEDICAL CENTRE,-2.537387,53.253804
114562.74999999984,HALL GREEN SURGERY,-2.741349,53.540745
29097.290000000008,SARAF MEDICAL PRACTICE,-2.076954,53.561455
32206.349999999995,LATIMER HEALTH CENTRE,-0.049503,51.54659
51796.91,DELL MEDICAL CENTRE,0.328114,51.480258
63555.93000000005,KIRKSTALL LANE MEDICAL CENTRE,-1.587333,53.816942
95274.68000000008,WHITCHURCH SURGERY,-1.340372,51.230256
52228.18000000002,DR NEWMAN,-1.975441,50.719722
2175.309999999999,GATDOC OOH,-1.580781,54.93938000000001
43264.400000000016,THE TRINITY MEDICAL CENTRE,0.085815,51.478803
9891.619999999988,CARE UK OOH,1.210633,52.034014
2683.4,PONTELAND RD WIC,-1.656804,54.991604
327.99,CONIFER HOUSE SEXUAL HEALTH CLINIC,-0.342095,53.746221
185.97,SUE RYDER NETTLEBED HOSPICE,-0.989042,51.573731
1999.61,IC24 LTD (HWLH OOH),0.891514,51.129106
7.03,MCH PHYSIO SWALE,0.571235,51.364197
65.46000000000001,HEALTH VISITORS SWBH NHS TRUST,-1.988866,52.528091
1386.690000000001,BURNLEY LOCALITY NMPS,-2.238948,53.791326
450.9900000000002,SOUTH EAST HUB 1,-0.10851199999999998,51.477558
72.40999999999998,ONE ASHFORD - ELECTIVE CARE NHS SERVICES,0.9117360000000002,51.142662
74758.17999999995,KIRKBY COMMUNITY PRIMARY CARE CENTRE (3),-1.248741,53.10176
20861.830000000005,SOUTHAMPTON DRUG & ALCOHOL SERVICES,-1.399976,50.907054
1098.85,DMC COMMUNITY DERMATOLOGY ERY,-0.872594,53.695801
126968.41999999993,BERKLEY PRACTICE,-2.024533,52.58916
138207.30999999974,BELLE VALE HEALTH CENTRE,-2.859752,53.392035
69970.47000000016,ELIZABETH STREET SURGERY,-3.043658,53.820839
80543.11000000003,RAMSBOTTOM MEDICAL PRACTICE,-2.319287,53.64878
43663.37000000003,THE WHITSWOOD PRACTICE,-2.253502,53.455769
151773.9499999998,WOODLANDS MEDICAL PRACTICE,-2.142182,53.545559
66287.92000000001,BROOKS BAR MEDICAL CENTRE,-2.261969,53.461412
74087.48999999998,BROOK HOUSE SURGERY,-1.445882,50.921794
61869.50999999993,ASHVILLE SURGERY,-0.201145,51.476255
64217.23000000005,THE VILLAGE MEDICAL CTR,-0.512653,52.128152
4805.470000000002,DR HANTSDOC N OOH,-1.109918,51.280633
3435.44,WEST CAMHS - KIRKSTALL,-1.599694,53.817164
10892.850000000002,GP COLLABORATIVE OOH,-1.455965,53.409821
495.87000000000006,IPU 10-17 EARLY INTERVENTION SW,-1.590621,52.285217
319.0,BEDFORDSHIRE MSK SERVICE,-0.45979,52.141913
45584.79000000002,ST NEOTS HEALTH CENTRE,-0.267116,52.228966
1749.9400000000005,QUAY HEALTH EAC,-0.069645,51.49696
3001.299999999999,HMR BARDOC OOH,-2.288591,53.59553
1708.3100000000004,HOLYWELL AT LANGLEY HOUSE HCT,-0.391206,51.683651
327.08,7 DAY ACCESS ROCHDALE INFIRMARY HUB,-2.160152,53.624282
13328.78,GATESHEAD HEALTH COMMUNITY SERVICES,-1.580781,54.93938000000001
230.88,NEAS HAST CCG,-1.712365,54.969713
34762.19999999998,VC WEST LANCS COMMUNITY NURSING,-2.840112,53.602357
103.51,SOUTH DALES HEALTHCARE LTD,-1.571366,53.077623
210998.87999999983,PRIORY MEDICAL CENTRE,-1.588641,52.285051
8736.130000000006,MODALITY ANN JONES FAMILY HEALTH CENTRE,-1.871333,52.462659
37431.06999999999,BALDWINS LANE SURGERY,-1.846405,52.414514
56713.09999999991,TUDOR PRACTICE STOCKLAND GREEN,-1.857329,52.52388199999999
108101.48000000014,CENTRAL SURGERY,-2.74261,53.456686
272442.4299999998,ASH TREES SURGERY,-2.769484,54.129481
38664.51000000002,FAMILY PRACTICE,-2.486748,53.750552
47520.53999999998,MONARCH MEDICAL CENTRE,-2.316823,53.564198
140963.38999999966,LEESBROOK SURGERY,-2.07266,53.53879
55940.11999999999,WALTON SURGERY,1.335453,51.973564
50306.03999999997,LINCOLN GREEN MEDICAL CENTRE,-1.525196,53.802098
50673.92999999991,PARKGATE SURGERY,-1.548606,54.523273
40137.96999999992,DALTON TM,-2.643772,53.529393
41110.56999999999,POLLARD ROW SURGERY,-0.064328,51.528266
3924.3400000000024,HARROGATE OOH,-1.517573,53.993807
4948.85,MIRIAM MINOR EMERGENCY,-3.04649,53.39824599999999
610.9899999999999,EXTENDED HOURS SERVICE,-2.9023,53.211542
7554.799999999997,LIVEWELL S/W,-4.116613,50.378837
832.16,NORTH CMHT,-4.126897,50.430114
563.2900000000002,WILL ADAMS NHS TREATMENT CENTRE,0.576568,51.380889
3763.880000000001,WIRRAL HEART SUPPORT,-3.026531,53.380029
873.56,NT&H COMM DIAB N DDES,-1.227837,54.702398
1112.66,RUSHCLIFFE URGENT CARE SERVICE,-1.100495,52.924252
384.6000000000001,RUNCORN URGENT CARE CENTRE WIC,-2.694681,53.323266
2074.5899999999992,PML NEIGHBOURHOOD HUB (BANBURY),-1.349027,52.057771
62696.17000000007,BALDERTON SURGERY,-0.7864679999999998,53.052881
56543.00000000008,ULVERSTON COMMUNITY HEALTH CENTRE,-3.097833,54.198882
137960.96999999994,NORTH ROAD SUITE RAVENSTHORPE HEALTH CTR,-1.661589,53.677829
