total_cost,name,longitude,latitude
68.15,COLVILLE HEALTH CENTRE,-0.206231,51.515837
22.92,BRICKFIELDS SURGERY,0.605168,51.653143
18.51,TYNEMOUTH MEDICAL PRACTICE,-0.068331,51.586253
73.59,TRINITY MEDICAL CENTRE,-0.172008,50.831228
130.75,THE CEDARS SURGERY,1.403174,51.217619
63.67,THE KINGS FAMILY PRACTICE,0.534548,51.377821
47.49,FOUNTAIN PRACTICE,-0.252307,51.350378
62.67,ST ALBANS MEDICAL CENTRE,-0.302479,51.42195
40.42,ORCHID HOUSE SURGERY,-1.894499,50.801788
72.18,THE HADLEIGH PRACTICE,-1.993525,50.761018
164.44,THREE CHEQUERS MEDICAL PRACTICE,-1.794625,51.071924
127.4,WEAVERS MEDICAL,-0.733538,52.401531
52.85,NUFFIELD HEALTH CENTRE,-1.486793,51.786441
182.88,BARTON SURGERY,-3.473818,50.579848
72.08,BIDEFORD MEDICAL CENTRE,-4.211785,51.017201
95.84,CORBETT MEDICAL PRACTICE,-2.148792,52.263269
218.7,THE WESTGATE PRACTICE,-1.821176,52.683537
54.27,COBRIDGE SURGERY,-2.187008,53.035377
7.6099999999999985,BURBURY MEDICAL CENTRE,-1.9103740000000002,52.502215
89.26,PLECK HEALTH CENTRE,-1.9980380000000002,52.574248
16.35,CORNERSTONE SURGERY,-2.724149,53.454211
28.99,HIGHER HEYS SURGERY,-2.394094,53.740865
208.24,ALBION MEDICAL PRACTICE,-2.088476,53.48960400000001
114.4,DELAMERE MEDICAL PRACTICE,-2.307365,53.450887
6.58,240 WEXHAM ROAD,-0.57838,51.516902
12.95,LONGFIELD MEDICAL PRACTICE,-2.28357,53.533828
87.83,THISTLEMOOR MEDICAL CENTRE,-0.254566,52.595274
1.85,PALACCI (CASTELNAU),-0.238274,51.476873
27.45,CANTERBURY HEALTH CENTRE,1.082981,51.274249
18.18,BANBURY HEALTH CENTRE,-1.334014,52.062032
54.24,BRERETON SURGERY,-1.924317,52.747482
39.46,THE LAWNS SURGERY,-0.502907,50.807746
14.19,OAK TREE HEALTH CENTRE,-1.2409629999999998,51.614986
37.9,THE TRINITY MEDICAL PRACTICE,0.760305,51.684982
6.69,SOHO HEALTH CENTRE,-1.934945,52.503094
39.08,BRIERLEY MEDICAL CENTRE,-1.382484,53.594188
1.85,CGL RESOLUTIONS SERVICE,-0.416036,51.876369
63.5,METRO INTERCHANGE SURGERY,-1.602943,54.961848
185.59,BRIDGE VIEW MEDICAL GROUP,-1.401824,54.919455
76.08,QUAKERS LANE SURGERY,-1.741713,54.406363
41.93,HOLLYNS HEALTH & WELLBEING - CLAYTON,-1.81454,53.779166
60.85,BRIDGE STREET MEDICAL PRACTICE,-1.20716,52.774841
88.45,CAYTHORPE & ANCASTER MEDICAL PRACTICE,-0.536327,52.981851
99.53,PARSON DROVE SURGERY,0.050459,52.660947
51.08,PRIORS FIELD SURGERY,0.124169,52.388951
92.35000000000002,DAVENPORT HOUSE SURGERY,-0.354549,51.816177
96.52,MILLWAY MEDICAL PRACTICE,-0.24359099999999997,51.614985
39.6,TEMPLE FORTUNE MEDICAL GROUP,-0.197845,51.581101
1.85,MOULSHAM LODGE SURGERY,0.475137,51.716565
13.01,WARRIOR SQUARE SURGERY,0.716503,51.539534
5.76,BRAYFORD SQUARE SURGERY,-0.050404,51.514375
13.16,YORK ROAD SURGERY,0.065859,51.559165
86.15,WEST MALLING GROUP PRACTICE,0.407707,51.293351
121.59,ELMDENE SURGERY,0.263153,51.446098
33.46,MOAT HOUSE SURGERY,-0.146361,51.259819
29.62,ALEXANDRA SURGERY,-0.205887,51.422912
83.4,DENHAM MEDICAL CENTRE,-0.502236,51.584564
65.52,CHEW MEDICAL PRACTICE,-2.629195,51.35619
56.44,ST.GEORGE'S SURGERY,-2.0815,51.906706
306.36,CHARING SURGERY,0.791374,51.20971
12.34,THAMES AVE SURGERY,0.603057,51.36344
134.18,CANTERBURY MEDICAL PRACTICE,1.128982,51.245539
7.2,TRAFALGAR SURGERY,-0.074414,51.485672
51.61,THE ORCHARD PRACTICE,-0.303542,51.369116
45.03999999999999,BALHAM PARK SURGERY,-0.155715,51.440487
50.75,LINDEN MEDICAL CENTRE,-0.737415,51.530813
30.61,OBSERVATORY MEDICAL PRACTICE,-1.265958,51.760293
32.07,CROPREDY SURGERY,-1.320027,52.116731
219.8,HEART OF BATH,-2.373947,51.376364
32.379999999999995,BIRCHWOOD MEDICAL PRACTICE,-2.547938,51.446246
43.67,LOSTWITHIEL SURGERY,-4.668763,50.407892
19.53,ST SAVIOURS SURGERY,-2.308488,52.130324
70.52,WERRINGTON VILLAGE SURGERY,-2.098023,53.021659
45.95,WEST HEATH SURGERY,-1.96202,52.401797
17.32,WEST PARK SURGERY,-2.141256,52.587783
52.23,THE MARSHSIDE SURGERY,-2.963125,53.67143299999999
40.08,MERSEYBANK SURGERY,-2.263012,53.42276
55.14999999999999,THE GROVE ROAD PRACTICE,-0.202341,51.358201
20.97,MOOR PARK MEDICAL PRACTICE,-1.7218490000000002,53.797834
10.28,UPTON ROCKS PRIMARY CARE,-2.754371,53.373367
29.27,HANLEY PRIMARY CARE CENTRE,-0.12083699999999999,51.567951
23.44,LEYLAND SURGERY,-2.709316,53.689645
0.93,HP NMP'S RUSH CCG,-1.143101,53.130244
15.31,WELLSBOURNE HEALTHCARE CIC,-0.107386,50.825445
28.51,CHEVIOT MEDICAL GROUP,-2.01842,55.546525
83.28999999999998,THE CENTRAL SURGERY BARTON,-0.439445,53.684236
10.79,DEARNE VALLEY HEALTH CENTRE,-1.626482,53.588349
102.36,MICKLEOVER MEDICAL CENTRE,-1.54633,52.907111
16.81,THE UNIV OF NOTTINGHAM HEALTH SERV,-1.195942,52.942177
54.28,LISTER HOUSE SURGERY,-0.4515,51.89192
43.8,THE ELMS SURGERY,-0.404224,51.661642
59.88,HOUNSLOW MEDICAL CENTRE,-0.37684,51.469395
25.700000000000006,P A PATEL SURGERY,0.582273,51.56978
8.33,SANCTA MARIA MEDICAL CENTRE,0.284011,51.507882
104.09,SEAFORD MEDICAL PRACTICE,0.099275,50.772678
187.1,BUXTED MEDICAL CENTRE,0.132095,50.989406
6.58,NEW INN SURGERY,-0.545657,51.257698
59.18,THE WHITEHORSE PRACTICE,-0.097391,51.385869
53.41,THE HEALTH CENTRE,-0.19711,51.363031
67.85,WEST END ROAD SURGERY,-1.359281,50.916702
28.53,TOWER HOUSE SURGERY,-0.770004,51.636372
75.62,CHURCH STREET PRACTICE,-1.425847,51.598763
45.93,CLINTON ROAD SURGERY,-5.224966,50.23093
47.83,PINHOE SURGERY,-3.469622,50.737528
149.44,ROSEBANK HEALTH,-2.242194,51.852611
31.74,MAPLE VIEW MEDICAL PRACTICE,-1.905693,52.31659
38.36,PRESCOTT SURGERY,-2.852689,52.784345
11.15,BLOOMSBURY HEALTH CENTRE,-1.876618,52.493743
5.76,HEATON ROAD SURGERY,-1.579814,54.978269
30.79,49 MARINE AVENUE SURGERY,-1.451082,55.046268
41.62000000000001,HOUGHTON MEDICAL GROUP ,-1.469175,54.842322
84.31,HOWDEN MEDICAL PRACTICE,-0.8694039999999998,53.744175
30.94,HANCOCKS ME,-0.41296400000000005,53.782123
61.2,THE WILSDEN MEDICAL PRACTICE,-1.86138,53.818377
20.56,COLSTERWORTH SURGERY,-0.619356,52.806388
36.27,LUNDWOOD MEDICAL CENTRE PMS PRACTICE,-1.438538,53.557711
32.18,GREASBROUGH MEDICAL CENTRE,-1.372776,53.452893
65.03,WELLSIDE SURGERY,-0.28478,52.440324
81.78,CLARE GUILDHALL SURGERY,0.580469,52.078259
39.7,LATTIMORE & VILLAGE SURGERY,-0.298547,51.726244
1.44,SOMERSET MEDICAL CENTRE,-0.371127,51.522244
109.5,CENTRAL UXBRIDGE SURGERY,-0.475739,51.546229
114.26,WEST MERSEA SURGERY,0.9193420000000002,51.778349
171.1,HIGHLANDS SURGERY,0.637339,51.548005
43.85,BALLARDS WALK SURGERY,0.441841,51.573232
126.54,DOWNLANDS MEDICAL CENTRE,0.244085,50.822919
47.68,OTFORD MEDICAL PRACTICE,0.191446,51.31358
21.87,THE HALFWAY SURGERY,0.524157,51.380429
26.69,BURNEY STREET PMS,-0.009168,51.479034
33.72,ELIZABETH HOUSE MEDICAL PRACTICE,-0.050005,51.308093
14.24,ADDINGTON MEDICAL PRACTICE,-0.018557,51.344382
25.42,SARAJLIC (STAINES ROAD),-0.357923,51.439672
155.63,ROYAL CRESCENT SURGERY,-2.452679,50.616587
32.5,TWYFORD SURGERY,-1.314229,51.019421
5.55,ABBEY MEDICAL CENTRE,-0.982406,51.453949
35.84000000000001,ST.BARTHOLOMEWS MEDICAL CENTRE,-1.232108,51.747668
168.98000000000005,THE DOWNEND HEALTH GROUP,-2.505301,51.485109
296.85,IDE LANE SURGERY,-3.534972,50.699471
19.33,THE ARROW SURGERY,-1.861382,52.218546
609.42,DR SN CLAY AND PARTNERS,-1.832005,52.528641
37.12000000000001,WILLENHAL OAK MEDICAL CENTRE,-1.463131,52.388988
107.03,WORDSLEY GREEN HEALTH CENTRE,-2.164692,52.480602
108.36,THE OVER-WYRE MED.CTR.,-2.976492,53.928203
25.18,FISHERGATE HILL SURGERY,-2.714363,53.75445500000001
48.41,THE SINGH MEDICAL PRACTICE,-2.213622,53.512042
56.22000000000001,THE WILLESDEN MEDICAL CENTRE,-0.233873,51.547532
29.75,EASTMEAD AVENUE SURGERY,-0.36274,51.531443
22.62,KINCORA DOCTORS SURGERY,-0.412216,51.511666
29.4,DR M GOYAL'S PRACTICE,0.156711,51.540066
83.00999999999998,TOLLGATE MEDICAL CENTRE,0.056362,51.515573
12.74,HETHERINGTON GROUP PRACTICE,-0.12823,51.460932
14.44,SELHURST MEDICAL PRACTICE,-0.088969,51.390012
34.85,THE WATERFIELD PRACTICE,-0.733923,51.409204
12.74,JERICHO HEALTH CENTRE,-1.265958,51.760293
48.51,PONTESBURY MEDICAL PRAC,-2.887922,52.650521
126.64,TUTBURY HEALTH CENTRE,-1.686361,52.858454
78.25999999999998,TEAN SURGERY,-1.988036,52.954415
14.39,WAKE GREEN SURGERY,-1.883357,52.446103
26.96,THORNLEY STREET MEDICAL CENTRE,-2.125789,52.58843
11.52,MEREPARK MEDICAL CENTRE,-2.300747,53.093285
67.53,RAINHILL VILLAGE SURGERY,-2.763813,53.41631
4.32,MILE LANE HEALTH CENTRE,-2.335248,53.587814
63.32000000000001,NEW ISLINGTON MEDICAL CENTRE,-2.219472,53.4829
438.12,CLARENDON MEDICAL CENTRE,-2.079951,53.45264
51.040000000000006,BRAITHWAITE RD SURGERY,-2.574985,53.477412
35.63000000000001,WOODGRANGE MEDICAL PRACTICE,0.025253,51.548596
16.95,JARVIS MEDICAL PRACTICE,-2.095095,53.537786
20.98,DR SP TALPAHEWA,-0.260303,51.616115
63.52,BRANDON MEDICAL PRACTICE,0.6233,52.448489
31.87,BOLTON MEDICAL CENTRE,-2.431399,53.56543
15.63,THE MANSELL ROAD PRACTICE,-0.358969,51.525654
39.79,WESTCROFT HEALTH CENTRE,-0.795699,52.006367
2.88,READING WALK-IN HEALTH CENTRE,-0.9758960000000002,51.454809
104.23,LOWTHER MEDICAL CENTRE,-3.586392,54.545056
47.24000000000001,COLLEGE LANE SURGERY,-1.336292,53.644573
18.39,THE SURGERY CLIFTON ROAD,-1.737497,53.013356
31.25,THE ORCHARD MED PRACTICE,-1.231693,52.533972
200.88,MUNRO MEDICAL CENTRE,-0.147427,52.794037
28.32,MOSBOROUGH HEALTH CENTRE,-1.364873,53.325238
74.19,ORCHARD SURGERY MELBOURN,0.020092,52.080651
218.9,HIGH STREET SURGERY,1.756043,52.482123
99.65,ANDAMAN SURGERY,1.715485,52.45691600000001
187.34,STANMORE MEDICAL GROUP,-0.204612,51.913274
58.27,PUCKERIDGE & STANDON SURGERY,0.019374,51.888296
103.52,KING GEORGE SURGERY,-0.206096,51.907416
29.4,COMMONWEALTH HEALTH CENTRE,0.36308,51.463166
39.27,KEATS GROUP PRACTICE,-0.17103,51.555534
47.8,BURNT ASH SURGERY,0.009913000000000002,51.452782
84.09,HILLVIEW MEDICAL CENTRE,-0.557727,51.315501
75.77000000000002,DOWNING STREET GROUP PRACTICE,-0.7989009999999998,51.212905
16.44,ASHBURTON PARK MEDICAL CENTRE,-0.064221,51.384147
62.1,TAMWORTH HOUSE MEDICAL CENTRE.,-0.146254,51.40122
34.34,PARKSIDE PRACTICE,-1.353169,50.970948
12.62,ST.PETERS SURGERY,-1.372792,50.897829
13.16,NEATH HILL HEALTH CENTRE,-0.747321,52.060411
20.98,BATHEASTON MEDICAL CENTRE,-2.317387,51.406032
55.48,DARTMOUTH MEDICAL PRACTICE,-3.580811,50.351157
244.14,DARTFORD EAST HEALTH CENTRE,0.236914,51.440747
116.62,CHURCH STREET PRACTICE,-0.459783,51.37345
40.24,THE GREYSWOOD PRACTICE,-0.144853,51.419489
47.31,BOLINGBROKE MEDICAL CENTRE (THMP),-0.168282,51.45617
5.85,LEYBOURNE SURGERY,-1.88721,50.758437
54.07000000000001,THE BORDER PRACTICE,-0.740565,51.240995
75.79999999999998,PATFORD HOUSE PARTNERSHIP,-2.005519,51.437601
26.73,CHATHAM STREET SURGERY,-0.981895,51.455924
79.97,THE CROSS KEYS PRACTICE,-0.830848,51.723655
35.33,WHITELADIES MEDICAL GROUP,-2.612382,51.465097
64.56,HILLCREST SURGERY,-2.431687,51.311982
25.6,DEVON SQUARE SURGERY,-3.60508,50.529985
30.33,ESTOVER SURGERY,-4.0952,50.411271
67.54,THE ROYAL WELL SURGERY,-2.0815,51.906706
55.72,APSLEY SURGERY,-2.187008,53.035377
83.09,THE LIMES SURGERY MEDICAL CENTRE,-2.114052,52.456884
91.68,ASHFIELD ROAD SURGERY,-2.132841,52.62604399999999
104.43,NORTHGATE MEDICAL CENTRE,-2.892972,53.19509300000001
207.3,RIVERSIDE SURGERY,-3.006197,53.372004
83.97999999999998,LAYTON MEDICAL CENTRE,-3.027291,53.827425
150.04,HT PRACTICE,-2.110496,53.478305
23.86,WESTLEIGH MEDICAL PRACTICE,-2.526024,53.510851
12.74,MEDICUS HEALTH PARTNERS-CURZON AVENUE,-0.036518,51.645435
56.21,WINDMILL SURGERY,-1.48555,52.449933
19.28,ARNOS GROVE MEDICAL CENTR,-0.129838,51.615476
1.44,ST.QUINTIN HEALTH CENTRE,-0.220325,51.519199
29.07,PARK COMMUNITY PRACTICE,-1.871717,53.725678
5.76,MELROSE SURGERY,-1.287301,54.609397
30.01,BLACKETTS MEDICAL PRACTICE,-1.559007,54.527221
56.22,DR A SINHA,-0.108523,53.567689
24.89,WILLINGTON SURGERY,-1.566835,52.850285
28.07,UPWELL STREET SURGERY,-1.434724,53.406424
993.82,LAKENHAM SURGERY,1.296577,52.6183
148.53,MANOR FARM MEDICAL CENTRE,0.690513,52.648544
308.41,PLOWRIGHT MEDICAL CENTRE,0.686691,52.655577
90.43,REGAL CHAMBERS SURGERY,-0.275959,51.952843
55.29,STANHOPE SURGERY,-0.032073,51.688002
23.54,THE GARWAY MEDICAL PRACTICE,-0.185494,51.515392
44.42,BEECHWOOD SURGERY,0.292731,51.608567
45.94,THE NIGHTINGALE PRACTICE,-0.062434,51.558261
60.98,THE GRAHAM PRACTICE,0.048721,51.541534
43.64,ISLAND HEALTH,-0.013513,51.495357
84.53,STANFORD MEDICAL CENTRE,-0.148293,50.838378
89.24000000000002,NEWINGTON ROAD SURGERY,1.399222,51.343459
79.80000000000003,BELVEDERE MEDICAL CENTRE,0.144376,51.482567
67.18,ST.LAWRENCE SURGERY,-0.390026,50.823979
106.79,MID SUSSEX HEALTH CARE,-0.175279,50.933719
43.81,THE WHITELEY SURGERY,-1.266072,50.88262
361.42,ACORN HEALTH PARTNERSHIP,-1.114058,51.245047
487.75,PORTSDOWN GROUP PRACTICE,-1.080952,50.812876
159.92000000000004,THE ELMS PRACTICE,-0.976476,50.789794
70.02,ESPLANADE SURGERY,-1.158697,50.731943
28.17,GLASTONBURY HEALTH CENTRE,-2.712893,51.148733
315.76,MAYFIELD SURGERY,-2.13456,52.982709
35.14,BRIDGE MEDICAL,-1.506726,55.038077
8.97,WINDSOR MEDICAL CENTRE,-1.622157,53.693875
26.28,ASHBOURNE MEDICAL PRACTICE,-1.737589,53.012862
81.11,THE UPPINGHAM SURGERY,-0.723557,52.594972
172.74,ABBEY MEDICAL GROUP,-1.119194,53.100674
87.04999999999998,LOWMOOR ROAD SURGERY,-1.244634,53.100062
85.18,BIRLEY HEALTH CENTRE,-1.396985,53.340317
95.38,PARKFIELD MEDICAL CENTRE,-0.179588,51.695129
34.66,REDWOOD PRACTICE,-0.359614,51.461125
17.69,SUNRISE MEDICAL CENTRE,-0.382255,51.51087
70.98,THE THORPE BAY SURGERY,0.757986,51.534599
20.98,HOLBORN MEDICAL CENTRE,-0.118539,51.522233
46.89,BRICK LANE SURGERY,-0.048612,51.657327
30.39,ABBEY COURT,0.26122,51.137755
49.31,ELM LODGE SURGERY,-0.096232,51.451506
77.31,HUDSON (SEYMOUR HOUSE),-0.292773,51.462401
50.08,OPEN DOOR SURGERY,-0.155581,51.443166
133.69,THE LIGHTHOUSE GROUP PRACTICE,-1.0805049999999998,50.796551
313.89,THE ORCHARD PARTNERSHIP,-1.865867,51.077878
79.56999999999998,WHADDON MEDICAL CENTRE,-0.7662759999999998,52.000308
44.42,SONNING COMMON HEALTH CTR,-0.982114,51.515603
102.31,LANDER MEDICAL PRACTICE,-5.055864,50.259982
38.33,BROSELEY MEDICAL PRACTICE,-2.481266,52.611554
15.1,BONEY HAY SURGERY,-1.926768,52.690328
56.44,BEECH TREE MEDICAL PRACTICE,-1.252936,52.377534
53.89,ALUM ROCK MEDICAL CENTRE,-1.850664,52.489901
5.140000000000001,GREENFIELD MEDICAL CENTRE,-1.855764,52.491684
1.44,THE SURGERY,-2.605295,53.024859
48.47,PARKGATE SURGERY,-2.882743,53.564772
24.47,MARPLE MEDICAL PRACTICE,-2.064954,53.39495
1.44,WORKINGTON HEALTH LIMITED,-3.551342,54.642687
15.05,CLOVER CITY PRACTICE,-1.46659,53.38187
26.21,ASPATRIA MEDICAL GROUP,-3.337992,54.762123
231.51,WILLIAM BROWN CENTRE,-1.33142,54.757994
40.1,WELLSPRING MEDICAL PRACT.,-1.564066,55.037289
15.33,RED HOUSE MEDICAL CENTRE,-1.424063,54.925457
157.26,COLNE VALLEY GROUP PRACTICE,-1.9282130000000002,53.602096
42.83,FAMILY DOCTORS,-1.440964,53.798248
66.0,ROYSTON GROUP PRACTICE,-1.451018,53.600005
71.51000000000002,PARK VIEW GROUP PRACTICE,-2.160577,53.445476
37.04,FAMILY SURGERY,-2.346055,53.396194
2.88,STROKE PATHWAY AND REHABILITATION CENTRE,-1.461102,53.37116700000001
2.88,CRANBROOK MEDICAL PRACTICE,-3.416198,50.746596
84.01,WHITLEY BAY HEALTH CENTRE,-1.43996,55.04141
31.83,BLACKBURN RD.MEDICAL CTR.,-1.664718,53.731348
117.76,MARKET HARBOROUGH MED.CTR,-0.924843,52.477084
36.25,COMMUNITY HEALTH CENTRE (ZS OSAMA),-1.113421,52.632387
77.92,TRAMWAYS MEDICAL CENTRE (O'CONNELL),-1.503023,53.402044
19.32,SAFFRON HEALTH PARTNERSHIP,-0.264459,52.084232
50.98,GLADSTONE MEDICAL CENTRE,-0.24612,51.558731
28.84,ST MARTINS MEDICAL CENTRE,-0.424566,51.577646
19.95,ABRIDGE SURGERY,0.12458,51.653631
23.700000000000006,ELSDALE STREET SURGERY,-0.049094,51.543033
86.34999999999998,STOPSLEY VILLAGE PRACTICE,-0.394147,51.901132
37.79,SHEFFORD HEALTH CENTRE,-0.321643,52.034788
31.950000000000006,VALE DRIVE MEDICAL PRACTICE,-0.194727,51.648828
49.77,THE FRYENT WAY SURGERY,-0.280565,51.582963
44.1,BELMONT MEDICAL CENTRE,-0.478036,51.548264
12.63,PORTLAND ROAD PRACTICE,-0.208019,51.507366
157.26999999999995,AUDLEY MILLS SURGERY,0.607129,51.584978
33.46,STRATFORD HEALTH CENTRE,0.004714,51.544651
33.07,THE STROUDLEY WLK HTH CTR,-0.017533,51.527214
35.52,ST JOHN'S MEDICAL PRACTICE,0.195249,51.285009
83.44,BEXLEY GROUP PRACTICE,0.10965599999999999,51.465832
56.14,DERRY DOWNS SURGERY,0.116651,51.385174
90.13,UPPER NORWOOD GROUP PRACTICE,-0.08482,51.413308
31.06,THE MOORINGS MEDICAL PRACTICE,-0.095892,51.322229
45.37000000000001,THE TOLLERFORD PRACTICE,-2.571586,50.778924
74.11,BLACKTHORN HEALTH CENTRE,-1.327194,50.876037
62.99,JUBILEE FIELD SURGERY,-2.191875,51.484091
48.3,DANES CAMP MEDICAL CENTRE,-0.904374,52.205152
63.14,THORNBURY HEALTH CENTRE - BURNEY,-2.517723,51.612861
83.87999999999998,ELM HAYES SURGERY,-2.492756,51.300546
72.39,CULVERHAY SURGERY,-2.348649,51.638921
44.5,SHAWBIRCH MEDICAL CENTRE,-2.531858,52.718121
93.69,THE DOVE MEDICAL PRACTICE,-1.864605,52.535155
128.63,MOSS GROVE SURGERY,-2.1699,52.498674
161.29000000000005,WARLEY MEDICAL CENTRE,-2.006757,52.468122
22.01,SPRINGFIELDS MEDICAL CENTRE,-2.597522,53.389256
47.91,WEAVER VALE PRACTICE,-2.696866,53.325561
141.23000000000005,GLOVERS LANE SURGERY,-2.971961,53.488314
25.08,OLIVE MEDICAL CENTRE,-2.484193,53.752309
27.39,HALLIWELL SURGERY 1,-2.431738,53.588322
38.44,HEATON MERSEY MED.PRACT.,-2.205118,53.412519
23.72,VILLAGE SURGERY,-0.255874,51.399503
9.05,SOMERS TOWN MEDICAL CENTRE,-0.130607,51.529916
6.78,FITZMAURICE (KEW),-0.283117,51.475875
5.76,WOOTTON VALE HEALTHY LIVING CENTRE,-0.527951,52.093688
38.95,ST LUKE'S HEALTH CENTRE,0.7293039999999998,51.551
226.31,THE MEDICAL GROUP,-1.628911,54.748296
47.37000000000001,GLENPARK MEDICAL CENTRE,-1.640096,54.953229
20.54,DR KHALIQ,-1.799612,53.663276
82.25,ROBIN LANE HEALTH AND WELLBEING CENTRE,-1.661311,53.79500899999999
48.97,LAUREL BANK SURGERY,-1.587333,53.816942
59.71,HUGGLESCOTE SURGERY,-1.365684,52.71103
141.29,HEALTH CARE COMPLEX  KIRKBY,-1.244634,53.100062
97.92,RED HOUSE SURGERY,0.129161,52.214906
33.3,KINGS HEAD MEDICAL PRACTICE,-0.011448,51.635688
0.93,WARRINGTON SUBSTANCE MISUSE SERVICE,-2.595849,53.38675799999999
15.82,BRIMPTON HOUSE,0.699534,51.835776
39.42,THE AZAD PRACTICE,0.044868,51.531234
58.7,NEWHOLME SURGERY,-2.74261,53.456686
57.53,LUNESDALE SURGERY,-2.602213,54.200573
63.88,COQUET MEDICAL GROUP,-1.580504,55.332599
9.46,THE GLENDALE SURGERY,-2.01842,55.546525
18.3,ALLERTON MEDICAL CENTRE,-1.533879,53.826921
84.47999999999998,SPILSBY SURGERY,0.098963,53.173049
65.41,BRIDGEWAY PRACTICE,-1.147343,52.943574
5.45,THORNE MOOR MEDICAL PRACTICE,-0.966348,53.613648
123.48,MANOR AND PARK GROUP PRACTICE,-1.42716,53.373705
65.13,SOLE BAY H/C,1.6664740000000002,52.336325
64.94999999999999,DR PS BATH'S PRACTICE,-0.394147,51.901132
30.69,WATERSIDE MEDICAL CENTRE,-0.363984,51.502165
43.41,MELBOURNE HOUSE SURGERY,0.451756,51.749214
108.65,LITTLE WALTHAM & GT NOTLEY SURGERY,0.477622,51.787396
21.39,AMPTHILL PRACTICE,-0.137293,51.5346
27.68,THE NORTH LONDON HEALTH CENTRE,-0.11243199999999999,51.617571
39.59,THE WILLOWS PRACTICE,0.104416,51.60776
136.32,ST.PETER'S MEDICAL CENTRE,-0.135237,50.831002
129.93,HIGHPARKS MEDICAL PRACTICE,0.496762,51.434213
91.74,YALDING,0.429804,51.221188
76.18,CRAWLEY DOWN HEALTH CENTRE,-0.07762099999999998,51.122557
15.84,BIRDHURST MEDICAL PRACTICE,-0.092613,51.365279
37.02,FORESTSIDE MEDICAL PRACTICE,-1.416173,50.851823
22.0,BENTLEY VILLAGE SURGERY,-0.87992,51.189933
48.4,DR KUMAR & PARTNER STUDFALL MEDICAL CTR,-0.704816,52.495882
93.62,CASTLE PLACE PRACTICE,-3.492865,50.908884
100.2,COTSWOLD MEDICAL PRACTICE,-1.75678,51.886317
53.84,GLASTONBURY SURGERY,-2.721853,51.148462
87.99000000000002,NUNWELL SURGERY,-2.507177,52.187931
126.88,CLEOBURY MORTIMER SURGERY,-2.485608,52.377502
102.23,MEDINA HEALTHCARE,-1.298686,50.697239
68.85,BEDFORD STREET SURGERY,-0.729782,51.995784
107.01,ALCHESTER MEDICAL GROUP,-1.138371,51.891398
54.19,GREENWAY COMMUNITY PRACTICE,-2.611274,51.499595
116.18,THREE SPIRES MEDICAL PRACTICE,-5.055864,50.259982
16.79,DEAN CROSS SURGERY,-4.095355,50.358939
56.48,SOUTHOVER MEDICAL PRACTICE,-3.528075,50.474733
283.24,NEW VALLEY PRACTICE,-3.654492,50.792383
62.73,THE STOKE ROAD SURGERY ,-2.068173,51.94667
81.84,HIGHBRIDGE MEDICAL CENTRE,-2.979117,51.227372
188.91,CANTILUPE SURGERY,-2.712261,52.055418
48.0,MYTTON OAK MEDICAL PRACT.,-2.797762,52.707667
59.4,DRS SHAH & TALPUR,-2.194635,52.974032
85.0,DR VSR CHADALAVADA,-2.139143,53.0416
73.72,HAWKESLEY MEDICAL PRACTICE,-1.937498,52.39544
9.05,KEYNELL COVERT,-1.911857,52.408441
67.6,PARK MEDICAL CENTRE,-2.873099,53.202665
129.46,NORWOOD SURGERY,-2.97819,53.65000799999999
98.57,WHALLEY MEDICAL CENTRE,-2.406348,53.819793
7.6099999999999985,SLAIDBURN HEALTH CENTRE,-2.444001,53.967313
59.12,PIKES LANE 1,-2.446348,53.572728
17.27,DR PATHAK ND,-1.9843959999999998,52.51273
63.68,STRELLEY HEALTH CENTRE (COCKRILL),-1.227726,52.973231
49.84,PHOENIX MEDICAL PRACTICE,0.48126899999999995,51.328805
99.31,NETHERTON SURGERY,-2.97236,53.488626
11.97,DILSTON MEDICAL CENTRE,-1.640355,54.976621
17.57,NORTH CHELMSFORD NHS HCC,0.510815,51.750584
14.02,KIRKHOLT MEDICAL PRACTICE,-2.162243,53.59832
24.07,DR AZIM & PARTNERS,-0.225729,51.579655
25.24,BHF HIGHGATE SURGERY,-1.378978,53.573614
26.74,SEASCALE HEALTH CENTRE,-3.479998,54.396756
7.6099999999999985,WIDDRINGTON SURGERY,-1.62051,55.240248
45.53999999999999,RIPLEY MEDICAL CENTRE,-1.405723,53.04704
26.47,DE MONTFORT SURGERY,-1.141192,52.6286
2.88,DENABY MEDICAL PRACTICE,-1.245792,53.490666
64.4,MENDLESHAM MEDICAL GROUP,1.0816,52.251866
87.37,UPTON ROAD SURGERY,-0.401058,51.656689
108.95,DOLPHIN HOUSE SURGERY,-0.029818,51.810791
40.02,THE EVERGLADE MEDICAL PRACTICE,-0.24421,51.601578
40.7,FRIERN BARNET MEDICAL CENTRE,-0.155988,51.613267
19.12,THE CIVIC MEDICAL CENTRE,-0.337497,51.587155
61.63,THE GOLD STREET SURGERY,0.240471,52.021716
113.73,THE HOLLIES,0.610574,51.555461
23.16,THE LEIGH SURGERY,0.656153,51.555504
28.79,WEST HAMPSTEAD MEDICAL CENTRE,-0.196578,51.55004
118.5,STAUNTON GROUP PRACTICE,-0.112926,51.599388
56.56,SOUTHBROOM SURGERY,-1.989037,51.352288
157.32,THE DOWNLAND PRACTICE,-1.312402,51.463442
34.14,BLAKENEY SURGERY,-2.476364,51.759117
9.46,WELLS HEALTH CENTRE,-2.655326,51.203403
114.95,RIVERSIDE MED.PRACTICE,-2.755278,52.709209
89.37999999999998,CHANCERY LANE SURGERY,-1.521755,52.536173
23.85,NECHELLS PRACTICE,-1.876618,52.493743
132.5,THE LIMES MEDICAL CENTRE,-1.974677,52.58065500000001
72.86,TOWNFIELD HEALTH CENTRE,-3.064248,53.378798
13.37,PRINGLE STREET SURGERY,-2.467594,53.742039
25.54,HOPWOOD MEDICAL CENTRE,-2.212052,53.587143
39.85,THE KILTEARN MEDICAL CTR.,-2.518506,53.068155
65.28,BROADWAY MEDICAL CENTRE,-3.033843,53.912667
25.09,EGERTON/DUNSCAR HEALTH CENTRE,-2.426383,53.617589
98.56,SADDLEWORTH MEDICAL PRACTICE,-2.004957,53.548331
26.38,VILLAGE MEDICAL PRACTICE,-2.095994,53.574817
4.5,EASTGATE SURGERY,-0.519836,51.886145
26.72,SUMMERFIELD GROUP PRACTICE,-1.937353,52.487686
57.91,PHOENIX PRIMARY CARE (SOUTH) LTD,-0.441597,51.88973
28.26,THURROCK HEALTH CENTRE,0.323317,51.477404
1.95,CARE UK COVENTRY OOH,-1.5080049999999998,52.413401
22.62,THE OM SURGERY,-1.2057,53.034978
216.72,THE NEW SPRINGWELLS PRACTICE,-0.340804,52.893623
20.72,CAMP HILL GP LED HEALTH CENTRE,-1.507061,52.533074
1.44,DONCASTER URGENT CARE & OUT OF HOURS,-1.109062,53.530806
9.61,THE PATEL PRACTICE,-1.1885709999999998,54.661404
799.41,HOLMSIDE MEDICAL GROUP,-1.66023,54.969004
46.9,FARROW MEDICAL CENTRE,-1.74312,53.802511
49.74,PADDOCK AND LONGWOOD FAMILY PRACTICE,-1.80546,53.642119
53.13,BRAMLEY VILLAGE HEALTH & WELLBEING CTR,-1.623032,53.80781999999999
19.42,SEVERN SURGERY,-1.065583,52.598801
343.17999999999995,BEACHES MEDICAL CENTRE,1.727734,52.577124
20.15,LINDEN ROAD SURGERY,-0.479248,52.14361
73.58,CUFFLEY AND GOFFS OAK MEDICAL PRACTICE,-0.113106,51.708171
98.12,THE GARTH,-1.055444,54.532597
48.1,THE GABLES MEDICAL GROUP,-1.564429,55.140811
35.07,HAYDON BRIDGE & ALLENDALE MEDICAL PRACT,-2.250059,54.975681
55.58,SPRING TERRACE HEALTH CENTRE,-1.450673,55.010941
70.78999999999998,PRACTICE ONE,-0.201064,54.084715
119.02,CHURCH STREET SURGERY,-1.583343,53.681523
51.62,SOUTH WIGSTON HEALTH CTR.,-1.129183,52.580452
39.25,BRAMCOTE SURGERY,-1.244985,52.935604
53.06,CAMPINGLAND SURGERY,0.690978,52.645997
25.99,LEIGHTON ROAD SURGERY,-0.66795,51.915779
70.68000000000002,WILLOW TREE FAMILY DOCTORS,-0.265224,51.589337
35.91000000000001,QUEENS WALK PRACTICE,-0.312985,51.524803
42.37000000000001,HIGH STREET SURGERY  EPPING,0.113402,51.700812
227.92,OLD ROAD SURGERY,1.148421,51.795466
58.94,HIGH STREET SURGERY,0.223589,51.561554
58.4,THE LIMEHOUSE PRACTICE,-0.028747,51.511253
62.51,MAIDSTONE RD RAINHAM SURGERY,0.600379,51.36233
35.38000000000001,BANK HOUSE SURGERY,0.069949,51.359218
37.28,FORDBRIDGE MEDICAL CENTRE,-0.46301,51.431269
58.65,EVERSLEY MEDICAL CENTRE,-0.11191300000000001,51.388514
21.97,YORK MEDICAL PRACTICE,-0.325697,51.449369
42.82,BERRYLANDS SURGERY,-0.299929,51.390825
66.42,CRICKET GREEN MEDICAL PRACTICE,-0.174025,51.404579
1089.74,CARRINGTON HOUSE SURGERY,-0.749217,51.632299
5.78,PROSPECT HOUSE SURGERY,-0.705258,51.701136
2.88,WEMBURY SURGERY,-4.072566,50.32186
54.48,HOLLYOAKS MEDICAL CENTRE,-1.869052,52.377979
70.37000000000002,WOODSETTON MEDICAL CENTRE,-2.10089,52.537994
114.33,SHERWOOD HOUSE MEDICAL PRACTICE,-1.959426,52.473851
31.51,GARSTON FAMILY HEALTH CENTRE,-2.89683,53.353909
60.46,COMMONFIELD RD SURGERY,-3.086369,53.370187
75.03000000000002,THE BORCHARDT MEDICAL CENTRE,-2.237795,53.434307
15.829999999999998,WERNETH MEDICAL PRACTICE,-2.126938,53.53497
14.6,CHAPEL MEDICAL CENTRE,-2.418293,53.449094
26.94,DR VICTORIA MUIR'S PRACTICE,-0.151358,51.490651
261.76,WELLFIELD MEDICAL CENTRE,-2.242019,53.512545
82.69,NEWLANDS MEDICAL CENTRE,-1.226035,54.571931
54.08,WIGTON GROUP MEDICAL PRACTICE,-3.159002,54.820303
23.64,THE FAMILY PRACTICE,-3.229282,54.116755
437.96,SKERNE MEDICAL GROUP,-1.4488,54.654032
75.83,ST ANDREWS SURGERY,-0.361958,53.735566
56.55,COWGILL SURGERY,-1.814543,53.781952
79.46,VILLAGE SURGERY,-1.485797,52.896347
56.74,THE GLENSIDE COUNTRY PRACTICE,-0.537958,52.75451
57.58,PLEASLEY SURGERY,-1.250873,53.175809
52.68,BACON LANE SURGERY,-0.275903,51.605078
106.39,THE MEDICAL CENTRE  DR JEFFERIES & PARTN,-0.212607,51.481206
23.78,MEANWHILE GARDEN MEDICAL CENTRE,-0.203126,51.522228
152.5,THE LIMES MEDICAL CENTRE,0.123958,51.706179
56.74,CHIGWELL MEDICAL CENTRE,0.083876,51.60551
4.32,NORTH AVENUE SURGERY,0.735187,51.546618
14.58,ROSERTON STREET SURGERY,-0.010049,51.498482
6.94,MEDICUS HEALTH PARTNERS- BUSH HILL PARK,-0.066545,51.63953
81.55000000000003,ALBION PLACE MEDICAL PRACTICE,0.529542,51.274206
17.38,OLD PARSONAGE SURGERY,0.460418,51.112785
76.44,TRIVENI PMS,0.058438,51.490321
54.21,HAWTHORNS SURGERY,-0.175174,51.241163
83.59,TRINITY MEDICAL CENTRE,-0.158437,51.437554
23.96,MITCHAM FAMILY PRACTICE,-0.167118,51.410109
20.67,THE WELLBRIDGE PRACTICE,-2.225354,50.679039
155.8,THE HARVEY PRACTICE,-1.993525,50.761018
135.19,HOMEWELL.CURLEW PRACTICE,-0.978019,50.851067
81.94,SPA MEDICAL CENTRE,-2.126012,51.366868
44.58,COOKHAM MEDICAL CENTRE,-0.725805,51.558356
74.44,THE MISBOURNE SURGERY,-0.558045,51.607786
38.24,ORCHARD MEDICAL CENTRE,-2.510659,51.462087
32.67,LYNGFORD PARK,-3.090916,51.036442
167.32999999999996,STAFFORD HEALTH AND WELLBEING,-2.123291,52.817722
16.66,BOURNBROOK VARSITY MEDICAL CENTRE,-1.929903,52.445713
30.58,CAUSEWAY GREEN ROAD SURGERY,-2.014697,52.484564
123.45,PATTERDALE LODGE MED CTRE,-2.64461,53.452446
161.93999999999997,SUNLIGHT GROUP PRACTICE,-3.00005,53.363076
34.58,SHAY LANE MEDICAL CENTRE (KELMAN),-2.31556,53.372189
73.79999999999998,BLYTH ROAD MEDICAL CENTRE,-1.20365,53.422231
52.17,CENTRAL MEDICAL CENTRE,-0.245977,52.587
39.78,HARBOUR MEDICAL PRACTICE,0.324489,50.797353
146.64,MORRAB SURGERY,-5.538987,50.116924
98.7,WILLOW BANK SURGERY,-2.102853,52.97847
67.22,EVERGREEN PRIMARY CARE CENTRE,-0.059836,51.623784
2.14,BARDOC GP OOH,-2.427769,53.590447
38.71,BARBOURNE HEALTH CENTRE,-2.224952,52.208752
34.54,CRAVEN ARMS SURGERY,-2.835416,52.442323
224.89,THE HAYMARKET HEALTH CTR,-2.211781,53.060343
41.34,GOLDENHILL MEDICAL CENTRE,-2.221385,53.076901
75.59,JIGGINS LANE MEDICAL CENTRE,-1.995411,52.436801
5.76,DARTMOUTH MEDICAL CENTRE,-2.005409,52.520435
43.39,ARRAN MEDICAL CENTRE,-1.748679,52.50386700000001
72.89,CHAPEL LANE SURGERY,-3.061428,53.557075
101.8,HEATHERLANDS MED CTR,-3.089543,53.381475
52.39999999999999,GUTTERIDGE MEDICAL CENTRE,-2.691248,53.769881
40.55,TOWN HALL SURGERY,-2.092973,53.478374
32.17,LILFORD PARK SURGERY,-2.511455,53.503236
19.21,PEEL PRECINCT SURGERY,-0.198814,51.534421
20.66,CATHEDRAL MEDICAL CENTRE,0.275488,52.413145
1.44,EXTENDED ACCESS PRIMARY CARE HUB,-0.079465,51.533775
8.429999999999998,MALLING HEALTH AT STOKE ALDERMOOR,-1.479565,52.402142
39.67,DENMARK ROAD SURGERY,-0.06725100000000002,51.393136
75.47,MEIR PARK & WESTON COYNEY MEDICAL PRACT,-2.094889,52.966305
46.38,HAMSTEAD ROAD SURGERY,-1.919012,52.504474
81.29999999999998,OAKWOOD SURGERY,-1.858645,52.444556
2.88,SURGERY AUBERY ROAD,-1.846411,52.46633
33.910000000000004,MOXLEY MEDICAL CENTRE,-2.051113,52.560033
68.1,NORTH PARK HEALTH CENTRE,-2.995994,53.458392
23.75,MEDICARE UNIT SURGERY,-2.69241,53.725239
25.1,LOSTOCK MEDICAL CENTRE,-2.328128,53.45458000000001
5.76,THE GROVE MEDICAL PRACTICE,-0.362401,51.55534
23.12,THE GAMSTON MEDICAL CTR.,-1.100495,52.924252
45.63,LANGLEY MEDICAL PRACTICE,-0.299929,51.390825
65.67,THE DURU PRACTICE,-2.116945,53.543824
13.78,SHAP MEDICAL PRACTICE,-2.677931,54.52889
148.42000000000004,AUCKLAND MEDICAL GROUP,-1.678996,54.648085
19.74,THE GLEN MEDICAL GROUP,-1.52187,54.97385
138.22000000000003,ASHBY TURN PRIMARY CARE PARTNERS,-0.6542,53.566147
379.04,HAXBY GROUP PRACTICE,-1.081866,54.019329
6.16,BRADFORD MOOR PRACTICE,-1.7218490000000002,53.797834
166.56,ASH GROVE,-1.245572,53.704968
155.85000000000005,MILLVIEW MEDICAL CENTRE,-0.30904,52.981326
39.99,HOLLIES MEDICAL CENTRE,-1.494834,53.363179
14.39,VERITAS HEALTH CENTRE,-1.481026,53.354257
78.79999999999998,BRETTON MEDICAL PRACTICE,-0.281891,52.590431
72.65,LONG STRATTON MEDICAL PARTNERSHIP,1.229088,52.491027
47.59,THE NEVELLS ROAD SURGERY,-0.22942,51.980882
55.74,THE HEALTH CENTRE PRACTICE,-0.020738999999999997,52.048757
29.200000000000006,HIGHFIELD SURGERY,-0.459233,51.766434
9.25,BELGRAVIA SURGERY,-0.14856,51.495004
19.84,COLLINGWOOD ROAD SURGERY,0.638271,51.802938
74.81,CHAPEL STREET SURGERY,0.051144,50.79327
61.47,STOCK HILL SURGERY,0.031768,51.312089
19.54,CLAREMONT MEDICAL CENTRE,-0.306132,51.390808
282.9100000000001,WATERFRONT AND SOLENT SURGERY,-1.403379,50.870013
30.31,SOUTHEY GREEN MEDICAL CTR,-1.477666,53.419051
15.22,IVRY STREET MEDICAL PRACTICE,1.148624,52.064021
23.07,NORTH FULHAM SURGERY,-0.199224,51.486415
3.7,FULHAM CROSS MEDICAL CENTRE,-0.214067,51.482774
67.63,NEWBURY GROUP PRACTICE,0.085981,51.576435
184.49,HARDWICKE HOUSE GROUP PRACTICE,0.725792,52.0382
56.11,WHEATFIELD SURGERY,-0.495144,51.904445
12.96,BRAMPTON HEALTH CENTRE,-0.277386,51.586099
29.950000000000006,DOCKLANDS MEDICAL CENTRE,-0.021143,51.491152
58.790000000000006,BELMONT SURGERY,0.340829,51.061952
11.52,LONG CATLIS ROAD SURGERY,0.595579,51.348325
64.46,ABBEY WOOD SURGERY,0.11653,51.497094
34.34,WOOLSTONE MEDICAL CENTRE,-0.036776,51.438421
98.89,MINET GREEN HEALTH PRACTICE,-0.105204,51.475715
54.77,SOUTHGATE MEDICAL GROUP,-0.194559,51.102316
71.40000000000002,NEW ADDINGTON GROUP PRACTICE,-0.018557,51.344382
34.28,BANBURY ROAD MEDICAL CENTRE,-1.263535,51.774771
42.22,THE ARMADA FAMILY PRACTICE,-2.571861,51.413438
84.33,STAFFORD MEDICAL GROUP,-2.914755,51.35259
80.90999999999998,BROCKWORTH SURGERY,-2.156696,51.844575
158.83999999999997,SEVERN VALLEY MEDICAL PRACTICE,-2.235045,52.190415
148.13000000000005,DAWLEY MEDICAL PRACTICE,-2.466781,52.664322
102.8,LEEK HEALTH CENTRE,-2.019347,53.105691
24.47,CHASE MEADOW HEALTH CENTRE,-1.608604,52.268838
55.51,MAGHULL HEALTH CENTRE (DR SAPRE),-2.943932,53.515597
61.53,LIME SQUARE MEDICAL CENTRE,-2.164901,53.473649
39.74,WINDERMERE SURGERY,-2.205709,53.55956
41.61,BEESTON VILLAGE SURGERY,-1.569152,53.772415
31.85,BLURTON MEDICAL CENTRE,-2.156565,52.972002
86.0,BIRBECK MEDICAL GROUP,-2.742581,54.656125
37.48,BEWICK ROAD SURGERY,-1.601653,54.956398
14.55,WENLOCK ROAD SURGERY,-1.455226,54.972635
45.52,WINTERTON MEDICAL PRACTICE,-0.606876,53.652511
78.00999999999998,THE OLD SCHOOL MEDICAL PRACTICE,-1.1424040000000002,53.916163
183.71,KEIGHLEY ROAD SURGERY,-1.893907,53.754239
54.29,MULBERRY STREET MEDICAL PRACTICE,-1.66397,53.794738
116.88,CHATSWORTH ROAD MEDICAL CENTRE,-1.467337,53.231374
80.19,CRICH MEDICAL PRACTICE,-1.482573,53.084327
50.43000000000001,MEXBOROUGH HEALTH CENTRE,-1.279795,53.494237
114.54,ST VINCENT MEDICAL CENTRE,-1.124029,53.525476
91.94,LUDHAM AND STALHAM GREEN SURGERIES,1.534423,52.709131
73.4,BENTHAM ROAD HEALTH CENTRE,-2.50627,53.73058399999999
69.73,CRESWELL AND LANGWITH MEDICAL CENTRE,-1.215835,53.262654
148.51,NORWOOD MEDICAL CENTRE,-3.222974,54.119201
82.74000000000002,BEECHWOOD GROUP PRACTICE,-3.545472,54.642376
41.89,DENMARK STREET SURGERY,-1.552252,54.538825
25.71,WELL CLOSE MEDICAL GROUP,-2.006127,55.77245799999999
104.43,PALLION FAMILY PRACTICE,-1.414195,54.908604
59.50000000000001,PICTON MEDICAL CENTRE,-1.77624,53.807296
113.34,PARKSIDE MEDICAL CENTRE,-0.021998,52.981526
200.78,ORCHARD MEDICAL PRACTICE,-1.206764,53.141121
51.61,THE BURNS PRACTICE,-1.12309,53.520707
54.98,WINCOBANK MEDICAL CENTRE,-1.416316,53.419405
30.02,THE VILLAGE SURGERY,-0.168135,51.648069
18.84,THE CHELSEA PRACTICE,-0.166915,51.486814
75.98,ST. BARTHOLOMEWS SURGERY,0.051755,51.532409
70.99,RYDAL,0.020102,51.608432
64.03,GROSVENOR & ST JAMES MEDICAL CENTRE,0.264349,51.137424
67.99,KING GEORGE ROAD SURGERY,0.518518,51.348911
24.26,THE THREE ZERO SIX MEDICAL CENTRE,-0.076403,51.450741
48.54,VIRGINIA WATER MEDICAL PRACTICE,-0.568235,51.403367
14.6,NEW OTTERSHAW SURGERY,-0.526005,51.361938
19.46,THE ALTON PRACTICE,-0.239471,51.44914
411.4,THE WILLOW GROUP,-1.143034,50.800579
81.25999999999998,ALEXANDER HOUSE SURGERY,-0.7520019999999998,51.293749
62.64,RIDGEWAY VIEW FAMILY PRACTICE,-1.7915709999999998,51.524175
45.45,GREEN MEADOWS SURGERY,-0.677163,51.426939
51.82,PORT VIEW SURGERY,-4.214351,50.40735
121.75,CHURCHDOWN SURGERY,-2.171559,51.882487
89.03,STANMORE HOUSE SURGERY,-2.231468,52.391138
53.68000000000001,WARGRAVE HOUSE SURGERY,-2.712261,52.055418
50.39,VENTNOR MEDICAL CENTRE,-1.203791,50.594548
37.94,THE HALL PRACTICE,-0.561016,51.606986
41.41,WEST VIEW SURGERY,-2.50212,51.411923
15.750000000000002,HARTLAND SURGERY,-4.482549,50.992721
105.25,STATION DRIVE SURGERY,-2.715141,52.370132
246.27,SOLIHULL HEALTHCARE PARTNERSHIP,-1.775235,52.419642
111.04,CONCEPT HOUSE SURGERY,-2.98492,53.449136
200.5,ADELAIDE STREET SURGERY,-3.048397,53.817351
51.77,LOCKWOOD GP SURGERY,-2.989833,53.850947
16.45,CAVENDISH HEALTH CENTRE,-0.148092,51.519331
123.2,BROWNLOW GROUP PRACTICE,-2.96585,53.405021
29.61,HEATHROW MEDICAL CENTRE,-0.433924,51.49302
16.76,THE ENTERPRISE PRACTICE,-0.320613,51.601113
50.92,ODDFELLOWS HALL & ST CLEMENTS,0.327906,51.480703
46.89,CHAUCER SURGERY,-1.45237,52.515151
40.29,THE ENDEAVOUR PRACTICE,-1.235397,54.575047
38.65,THE LAKES MEDICAL PRACTICE,-2.742581,54.656125
50.92,EAST PARADE SURGERY,-1.529793,53.996354
6.58,FIELDHEAD SURGERY,-1.639379,53.831787
62.18,BASLOW HEALTH CENTRE,-1.617823,53.246144
43.82,OSMASTON SURGERY,-1.467954,52.911084
19.95,ASQUITH SURGERY,-1.117116,52.601489
84.31999999999998,HOLBEACH MEDICAL CENTRE,0.014430000000000002,52.804778
41.1,YEADING MEDICAL CENTRE,-0.397019,51.533634
33.11,MAYFAIR MEDICAL CENTRE,-0.150172,51.513536
82.39,SUN LANE,1.087469,51.071536
40.71,LYDDEN SURGERY,1.23991,51.163193
25.5,THE CHURCH VIEW PRACTICE,0.609995,51.363412
39.74,TRIANGLE GROUP PRACTICE,-0.011071,51.457798
93.21999999999998,SELSDON PARK MEDICAL PRACTICE,-0.06457300000000002,51.342409
24.06,LAMBOURN SURGERY,-1.526933,51.504696
80.81,BICESTER HEALTH CENTRE,-1.157239,51.896742
91.79,FOWEY RIVER PRACTICE,-4.635394,50.337915
146.42,KNOWLE HOUSE SURGERY,-4.134098,50.40863
617.52,HOLTS HEALTH CENTRE,-2.406966,51.931555
175.07999999999996,CUMBERLAND HOUSE,-2.145844,52.901549
59.01,BILBROOK MEDICAL CENTRE,-2.181749,52.624775
51.54,VALE OF RED HORSE,-1.510351,52.15797
124.51,BALSALL COMMON & MERIDEN GROUP PRACTICE,-1.643862,52.394956
66.82,LANCE LANE MEDICAL CENTRE,-2.911916,53.396196
52.54,DR A GUPTA BENIM MEDICAL CENTRE,-2.947804,53.419395
109.28,DINAS LANE MEDICAL CENTRE,-2.861513,53.417388
328.04,LANCASTER MEDICAL PRACTICE,-2.797202,54.047583
34.96,DR GWD BHIMA,-2.154239,53.611617
135.35,RIVERSIDE MEDICAL CENTRE,-2.672299,53.748112
27.95,LITTLETOWN FAMILY MED PRACT,-2.134298,53.529137
102.38,NEW COURT SURGERY,-2.30878,52.113538
32.08,THE BARHAM & CLAYDON SURGERY,1.109866,52.110175
28.89,SWANWOOD PARTNERSHIP,0.519034,51.613356
7.71,NIGHTINGALE HOUSE,-0.159747,51.449354
3.9,CROWN WOOD MEDICAL CENTRE,-0.736934,51.395919
82.98,THE JUNCTION SURGERY,-1.759212,53.643662
0.71,DORKING HEALTHCARE LLP,-0.333421,51.225985
18.4,GREAT BRIDGE HEALTH CENTRE,-2.02775,52.527792
21.07,GREENWOOD SURGERY,0.605168,51.653143
109.9,MIDDLE CHARE MEDICAL GROUP,-1.573113,54.855636
33.120000000000005,I J HEALTHCARE,-1.531354,54.88104
7.439999999999999,OAK GLEN SURGERY,-1.816352,53.854799
177.5,WELLINGTON HOUSE,-1.634561,53.714775
136.7,SKELMANTHORPE FAMILY DOCTORS,-1.650686,53.591604
103.68,LEIGH VIEW MEDICAL PRACTICE,-1.558358,53.728574
30.52,OAKWOOD SURGERY,-1.4290459999999998,52.941386
61.34,THE KAKOTY PRACTICE,-1.473444,53.5464
23.44,PHOENIX PRIMARY CARE (SOUTH) LTD,-0.435422,51.918016
38.29,GILDERSOME HEALTH CENTRE,-1.6293,53.756554
16.759999999999998,HAZELMERE MEDICAL CENTRE,-1.16453,52.57337
98.68,BURNGREAVE SURGERY,-1.459815,53.393327
76.12999999999998,FELTWELL SURGERY,0.527056,52.48268
41.66,QUEENS PARK HEALTH CENTRE,-0.493075,52.133151
30.37,ALBANY PRACTICE,-0.310054,51.48676
48.68000000000001,CASSIDY ROAD MEDICAL CENTRE,-0.199015,51.479154
223.51,COLCHESTER MEDICAL PRACTICE,0.909325,51.890029
42.83,GREENFORD ROAD MED.CTR.,-0.345702,51.537697
26.32,THE OAKLAND MEDICAL CENTRE,-0.45129300000000006,51.546055
14.81,QUEENS WALK MEDICAL CENTRE,-0.393155,51.562716
36.18,THE ABINGDON HEALTH CENTRE,-0.197138,51.496085
360.18,THE ARDLEIGH SURGERY,0.985096,51.927073
92.29,ADDISON HOUSE - HAQUE PRACTICE,0.088979,51.770891
43.09,ST PETER'S STREET MEDICAL PRACTICE,-0.100772,51.535597
77.94,ABERFELDY PRACTICE,-0.004927,51.514483
181.76,STONE CROSS SURGERY,0.289944,50.816757
18.23,ELTHAM PALACE PMS,0.053714,51.449946
82.11,BROCKBANK (PARK ROAD),-0.334596,51.423912
118.1,CHAWTON PARK SURGERY,-0.989411,51.139814
45.86,STOKENCHURCH MEDICAL CTRE,-0.904033,51.660479
28.37,MARSHALLS ROAD SURGERY,-0.539225,52.344743
34.93,HOLLINSWOOD SURGERY,-2.437453,52.673936
43.6,ABBOTS BROMLEY SURGERY,-1.880966,52.819974
129.17,DARWIN MEDICAL CENTRE,-1.831505,52.694061
188.05,THE OAKS MEDICAL CENTRE,-1.895827,52.552454
37.83,VICTORIA ROAD MEDICAL CTR,-1.887197,52.501868
74.97999999999998,ST JOHN'S MEDICAL CENTRE,-1.932532,52.626307
58.63,NEWBRIDGE SURGERY,-2.155299,52.5936
233.85,THE CORNERSTONE PRACTICE,-2.4524,53.739201
1.95,TOWNSIDE SURGERY,-2.29898,53.59031
4.32,GOODMAYES MEDICAL CENTRE,0.10990599999999999,51.567626
4.83,PARK GRANGE MEDICAL CENTRE,-1.775929,53.789415
23.23,ST.GEORGES MEDICAL CENTRE,-0.24612,51.558731
21.77,HETHERINGTON AT THE PAVILION,-0.116397,51.461633
47.8,OAKWOOD MEDICAL CENTRE,-0.134269,51.646534
99.76,SOUTH HERMITAGE SURGERY,-2.752497,52.699728
1.44,REDBURN PARK MEDICAL CENTRE,-1.474775,55.00092
22.51,CASTLETOWN MEDICAL CENTRE,-1.450848,54.913341
40.13,ALDBROUGH ST JOHN SURGERY,-1.684645,54.496518
26.94,EAST PARADE MEDICAL PRACTICE,-1.061835,53.965993
8.019999999999998,BARKEREND HC - EL ELIWI,-1.7218490000000002,53.797834
236.29,SHAFTESBURY MEDICAL CTR.,-1.497858,53.800234
17.27,GROBY ROAD MEDICAL CENTRE (ID PATCHETT),-1.150468,52.644337
55.26,ROSEMEAD DRIVE SURGERY,-1.083088,52.5934
4.32,AR-RAZI MEDICAL CENTRE,-1.101204,52.623926
26.630000000000006,BRANSTON & HEIGHINGTON FAMILY PRACTICE,-0.467988,53.195831
148.54,FOUNTAIN MEDICAL CENTRE,-0.8043829999999998,53.07286
85.63000000000002,OAKENHALL MEDICAL PRACT,-1.199437,53.03661700000001
69.84,SCAWSBY HEALTH CENTRE PRACTICE,-1.167843,53.53678299999999
129.75,ST. GEORGE'S MEDICAL CENTRE,0.298817,52.458085
102.67,LAWNS PRACTICE,1.109092,52.378889
92.33,CENTRAL SURGERY,0.147747,51.812546
42.05,CHURCH END MEDICAL CENTRE,-0.253241,51.54757
32.93,BRENTFORD GROUP PRACTICE,-0.310054,51.48676
29.81,THE DEVONSHIRE LODGE PRACTICE,-0.397406,51.579266
18.71,THE HOXTON SURGERY,-0.086829,51.533527
3.39,LL MEDICAL CARE LTD,0.0021,51.555415
115.72,JUBILEE MEDICAL CENTRE,0.300332,51.3978
46.89,LAMBETH WALK GROUP PRACTICE,-0.11259100000000001,51.495609
43.47,STANWELL ROAD SURGERY,-0.470567,51.438013
146.79000000000005,THE ADAM PRACTICE,-2.07822,50.757881
28.380000000000006,SOUTHMEAD SURGERY,-0.616953,51.552538
18.92,CLIFTON HAMPDEN SURGERY,-1.211451,51.658625
37.1,GROOMBRIDGE AND HARTFIELD MED GRP,0.184416,51.113952
38.04,POND TAIL SURGERY,-0.066728,51.246436
33.11,THE WALL HOUSE SURGERY,-0.208192,51.241304
30.67,THE HALING PARK PARTNERSHIP,-0.098109,51.357113
13.36,THE PRINCE OF WALES SURGERY,-2.457579,50.713502
85.19000000000003,BRANKSOMEWOOD H/CARE CTR,-0.8448069999999998,51.281888
19.92,THE GROVE SURGERY,-0.735114,52.023651
122.75,PROBUS SURGERY,-4.948542,50.290121
148.04,ABBEY SURGERY,-4.150401,50.546904
68.25,WHITEACRES MEDICAL CENTRE,-2.300547,52.124716
161.63,WOODSIDE MEDICAL PRACTICE,-2.466175,52.637949
40.39,LYME VALLEY MEDICAL CENTRE,-2.22375,53.006305
32.28,AUDLEM MEDICAL PRACTICE,-2.508717,52.989615
8.429999999999998,KENNETH MACRAE MED CENTRE,-2.786435,53.49903
114.0,BODEY MEDICAL CENTRE,-2.214798,53.440636
24.49,WOODLANDS MEDICAL PRACTICE,-2.31213,53.406624
5.140000000000001,DR PAL,-2.595495,53.47988
47.06,BATH ROAD SURGERY,-0.37684,51.469395
69.03,CHAPEL ROW SURGERY,-1.17086,51.425877
39.26,WOODLANDS MEDICAL PRACTICE,-0.170943,51.592914
16.25,CRAMLINGTON MEDICAL GROUP,-1.591516,55.084481
88.86,KINGSTON MEDICAL GROUP,-0.349365,53.756137
7.75,WESTFIELD MEDICAL CENTRE,-1.531703,53.817673
44.85,VERNON STREET MEDICAL CTR,-1.49039,52.924019
50.53,STUBLEY MEDICAL CENTRE,-1.488541,53.304986
225.53000000000003,BRIDGE COTTAGE SURGERY,-0.215995,51.830002
69.51,GRANGE STREET SURGERY,-0.335878,51.757298
20.15,CHICHELE ROAD SURGERY,-0.216241,51.55483
48.31,SHIRLAND ROAD MEDICAL CENTRE,-0.203904,51.5292
68.8,DR KRISHNAN & PTNR - KENT ELMS HC,0.664114,51.563831
48.53,CRANHAM HEALTH CENTRE,0.265291,51.568865
12.23,ST PETER'S SURGERY,1.41893,51.362936
85.54,LEWISHAM MEDICAL CENTRE,0.004522,51.458513
55.61,STEWKLEY ROAD SURGERY,-0.71666,51.898041
34.95,SIBFORD SURGERY,-1.479244,52.037614
83.87999999999998,NEW COURT SURGERY,-2.958059,51.345794
116.76,AXMINSTER MEDICAL PRACTICE,-2.999226,50.780899
83.24000000000002,COLERIDGE MEDICAL CENTRE,-3.2835660000000004,50.751704
63.61,LYDNEY PRACTICE,-2.529867,51.727913
62.17,PRICES MILL SURGERY,-2.224938,51.693801
55.46,ST. JOHNS SURGERY,-2.059728,52.337612
217.42,THE ALDERGATE MED.PRACT.,-1.695644,52.639079
71.85,YARDLEY WOOD HEALTH CENTRE,-1.859168,52.418648
44.9,MONTAGUE MEDICAL PRACTICE,-0.872899,53.707031
153.70000000000005,EASTGATE MEDICAL GROUP,-1.462815,54.006795
42.27,HORTON BANK PRACTICE,-1.806018,53.774478
51.44000000000001,MARSH MEDICAL PRACTICE,0.143689,53.445069
208.85,HUDDERSFIELD ROAD SURGERY,-1.485631,53.558165
198.98,SWALLOWNEST HEALTH CENTRE,-1.317097,53.362997
53.47,SHERINGHAM MEDICAL PRACTICE,1.214777,52.939688
73.09999999999998,KNEBWORTH & MARYMEAD MEDICAL PRACTICE,-0.184972,51.866323
5.97,THE HODFORD ROAD PRACTICE,-0.199318,51.569038
19.97,HAZELDENE MEDICAL CENTRE,-0.275394,51.547592
47.56,CLOISTER ROAD SURGERY,-0.265589,51.521352
47.790000000000006,ABBEY ROAD MEDICAL PRACTICE,0.005881,51.534784
23.24,BOUNDARY HOUSE SURGERY,-0.054245,51.632475
39.28,MANOR PARK MEDICAL CENTRE,0.24261,50.819107
120.97,CHURCH LANE HEALTH CENTRE,0.941162,50.984187
332.26,BETHESDA MEDICAL CENTRE,1.414787,51.390277
80.76999999999998,WOODLANDS SURGERY,0.088913,51.439755
73.65,LILLIPUT SURGERY,-1.954229,50.711523
146.76,WESTBURY GROUP PRACTICE,-2.203558,51.252792
126.23,PENRYN SURGERY,-5.10336,50.167504
34.7,CROWN MEDICAL CENTRE,-3.080969,51.029111
70.03,BARN CLOSE SURGERY,-1.859248,52.03627
31.35,HIGHLEY MEDICAL CENTRE,-2.392978,52.456165
33.71,ALVELEY MEDICAL PRACTICE,-2.353309,52.454738
34.54,WOLSTON SURGERY,-1.392727,52.376806
82.78999999999998,BALLIOL ROAD SURGERY,-1.471449,52.415924
40.82000000000001,NEWTON MEDICAL CENTRE,-2.638386,53.457172
130.1,GREASBY GROUP PRACTICE,-3.121417,53.377628
9.05,LOSTOCK HALL MEDICAL CTR.,-2.688037,53.727502
25.91,KNOWSLEY MEDICAL CENTRE,-2.300551,53.588497
31.03,TIMPERLEY HEALTH CENTRE (WESTWOOD),-2.323566,53.397228
18.7,PENINSULA MEDICAL PRACTICE,-2.915665,54.18795600000001
220.98,ROSEWORTH SURGERY,-1.61867,55.001366
242.62,GREENGATES MEDICAL GROUP,-0.418494,53.844343
205.63,HEBDEN BRIDGE GROUP PRACTICE,-2.010942,53.744036
117.27,LIMES MEDICAL CENTRE,-1.387885,53.098493
28.01,CHURCHSIDE MEDICAL PRACTICE,-1.203539,53.146592
42.5,SELSTON SURGERY,-1.299871,53.070196
93.22,CRYSTAL PEAKS MEDICAL CENTRE,-1.354473,53.342881
116.58,LINCOLN HOUSE SURGERY,-0.469093,51.737355
64.42,STOCKWELL LODGE MED.CTR.,-0.055287,51.713792
21.64,SOUTHEND MEDICAL CENTRE,0.708516,51.540069
59.1,DR DEVARAJA VC PRACTICE,0.44359,51.520015
74.41999999999999,DR PM PATEL,0.219281,51.55632
15.01,THE MITCHISON ROAD SURGERY,-0.087357,51.544992
32.5,FOUNTAYNE ROAD HEALTH CENTRE,-0.065145,51.56442
748.7400000000001,FRAMLINGHAM SURGERY,1.334192,52.227216
37.42,ARCHWAY SURGERY,-0.532167,51.72275
20.75,CHURCH LANE SURGERY,-0.262165,51.574931
1.95,CHISWICK FAMILY DRS PRACTICE,-0.259879,51.493563
22.87,ACRE SURGERY,-0.411552,51.604465
28.79,CHOWDHURY,0.233898,51.592339
391.12,CUMBERLAND MEDICAL CENTRE,0.026047,51.519716
34.44,ILFORD MEDICAL CENTRE,0.07431899999999998,51.556823
177.8,RYE MEDICAL CENTRE,0.730363,50.961944
31.14,MAIDSTONE RD CHATHAM SURGERY,0.516708,51.361226
58.93,VASSALL MEDICAL CENTRE,-0.10851199999999998,51.477558
76.12999999999998,WITLEY SURGERY,-0.650163,51.156457
23.13,FARMHOUSE SURGERY,-1.7595,50.736437
45.06,JENNER HOUSE SURGERY,-0.7745189999999998,51.294302
43.57,LONG BARN LANE SURGERY,-0.967033,51.436181
188.01,WESTONGROVE PARTNERSHIP,-0.74378,51.76588
51.6,MILBORNE PORT SURGERY,-2.471962,50.967502
49.21,OMBERSLEY MEDICAL CENTRE,-2.229023,52.276554
169.95000000000005,FURLONG MEDICAL CENTRE,-2.208139,53.063325
64.67,NORFOLK STREET SURGERY,-2.182794,53.01602
79.42,PARADISE MEDICAL CENTRE,-1.494835,52.426778
22.58,MAYFIELD MEDICAL CENTRE,-2.093284,52.583046
51.61,LEVENSHULME MEDICAL PRACTICE,-2.188524,53.446352
30.42,HEALD GREEN HEALTH CENTRE 2,-2.229276,53.369878
7.2,SMITH (RICHMOND LOCK),-0.322897,51.464517
20.77,CHILLINGTON HEALTH CENTRE,-3.693645,50.272623
19.94,JUBILEE GARDENS MEDICAL CENTRE,-0.368739,51.521097
72.68,BLACKHEATH MED CTR,-3.104694,53.412239
12.75,AMBAR MEDICAL CENTRE,-1.991354,52.575093
11.09,DMC ST MARYS ISLAND SURGERY,0.538105,51.406776
26.52,POPLAR PRIMARY CARE CENTRE,-1.890326,52.43631
149.70000000000005,THORNABY & BARWICK MEDICAL GROUP,-1.292128,54.538149
114.14,BRAMPTON MEDICAL PRACTICE,-2.734846,54.94237
80.39,RISEDALE SURGERY,-3.224778,54.109942
64.1,ROWLANDS GILL MEDICAL CENTRE,-1.742896,54.91936
55.63,THE SUTTON MANOR SURGERY,-0.315294,53.785759
129.36,PLANE TREES GROUP PRACTICE,-1.894437,53.730448
568.6900000000002,THORNTON MEDICAL CENTRE,-1.576209,53.791908
59.83,JESSOP MEDICAL PRACTICE,-1.372226,53.074348
181.1,THE PARK MEDICAL PRACTICE,-1.432644,52.928801
37.31,BRAILSFORD & HULLAND MEDICAL PRACTICE,-1.624927,52.96943
63.84,MERRIDALE MEDICAL CENTRE (RP TEW),-1.160752,52.620146
43.65000000000001,THE MAYFLOWER MEDICAL PRACTICE,-1.01945,53.431872
145.70000000000005,BASLOW RD  SHOREHAM ST & YORK RD SRGIES,-1.531066,53.316325
22.04,OVER SURGERY,0.012018,52.314809
63.74,DR TUN & PARTNERS,-2.583571,53.532102
58.67,ST.ANTHONY'S HEALTH CENTRE,-1.55655,54.966674
78.23999999999998,MANOR DRIVE MEDICAL CENTRE,-0.24836599999999998,51.380785
1.44,WESTCALL OOH,-0.8315749999999998,51.410524
120.09,BISHOPS CLOSE MEDICAL PRACTICE,-1.599142,54.699817
137.16,CLEE MEDICAL CENTRE,-0.041433,53.566223
54.61,WIBSEY & QUEENSBURY MED P,-1.779715,53.767225
47.55,SOUTHOWRAM SURGERY,-1.831696,53.712293
27.35,WHITWICK HEALTH CENTRE,-1.3606790000000002,52.742576
129.48000000000002,MARKET SURGERY,-1.345958,53.502635
21.91,BALDWINS LANE SURGERY,-0.448705,51.654076
33.92,DERWENT CRESCENT MEDICAL CENTRE,-0.175285,51.622908
138.11,THE STANMORE MEDICAL CENTRE,-0.304021,51.60154
18.69,NEASDEN MEDICAL CENTRE,-0.247382,51.559667
11.61,BROOK GREEN SURGERY,-0.218145,51.495291
178.72,ABBEY FIELD MEDICAL CENTRE,0.898575,51.877487
13.16,JOHN SMITH MEDICAL CENTRE,0.112125,51.538899
25.29,TOTTENHAM HEALTH CENTRE,-0.068474,51.604755
24.93,DR MOHAMMED GREEN MAN MEDICAL CENTRE,0.015000999999999999,51.571506
50.48,FAIRFIELD PMS,0.038949,51.483908
29.35,PARKSIDE MEDICAL CENTRE,-0.092642,51.475826
20.14,NORK CLINIC,-0.215842,51.326429
38.47,QUEENHILL MEDICAL PRACTICE,-0.066791,51.34499
27.09,GRAND DRIVE SURGERY,-0.228811,51.402155
176.89,THE BOSMERE MEDICAL PRACTICE,-0.990581,50.850232
114.12,BURNHAM HEALTH CENTRE,-0.662137,51.5349
40.55,THE LONG BUCKBY PRACTICE,-1.08255,52.30049
198.78,ASPEN MEDICAL PRACTICE,-2.225797,51.865969
56.58,GLOUCESTER CITY HEALTH CENTRE,-2.245328,51.860355
184.78,ABBEY HOUSE MEDICAL PRACTICE,-1.160725,52.260319
100.16,NORTON BROOK MEDICAL CENTRE,-3.782122,50.288739
17.36,SOMERSET BRIDGE MEDICAL CENTRE,-2.995883,51.115105
82.75,TRENT VALE MEDICAL PRACTICE,-2.201785,52.987386
31.46,BROOKSIDE SURGERY,-1.399088,52.35048
39.17,NORTHWAY MEDICAL CENTRE,-2.130997,52.54810500000001
41.96,MARTON MEDICAL PRACTICE,-3.034524,53.812843
96.61,CORNISHWAY GROUP PRACTICE,-2.265017,53.379925
50.21,BRAMHALL HEALTH CENTRE,-2.162929,53.36001
39.53999999999999,MAYNARD COURT SURGERY,0.020165,51.685605
89.73,AYLESBURY SURGERY,-1.876053,52.542854
2.88,NEVILLE ROAD SURGERY,-0.443036,51.906419
0.46,UNIV HOSP NORTH DURHAM OOH,-1.593834,54.788497
22.41,BOWLING GREEN STREET SURGERY,-1.133096,52.63304599999999
1.85,BCHC MEDICINES MANAGEMENT,-1.9537779999999998,52.398207
90.04999999999998,YARM MEDICAL PRACTICE,-1.355519,54.50530500000001
39.44,BENSHAM FAMILY PRACTICE,-1.617038,54.952781
129.31,BURTON CROFT SURGERY,-1.57692,53.820807
15.94,EASTMOOR HEALTH CENTRE,-1.476864,53.690004
21.83,HARTINGTON SURGERY,-1.810816,53.142488
36.5,THE PRACTICE BEAUMONT LEYS,-1.15392,52.662296
80.62,TASBURGH LODGE SURGERY,-0.21375,53.151242
93.68,SOTHALL & BEIGHTON HEALTH CENTRES,-1.340221,53.337895
26.73,KINGSWAY SURGERY,-0.437208,51.517478
55.21,FIVE ELMS MEDICAL PRACTICE,0.14235,51.553315
16.7,SPUR ROAD SURGERY,-0.086621,51.586597
81.33,THE MEADS SURGERY,0.091624,50.969686
7.539999999999998,ALBION STREET SURGERY,-0.133965,50.827627
81.96,BELLEGROVE SURGERY,0.09579,51.464561
62.35000000000001,SOUTH VIEW PARTNERSHIP,0.026125,51.405111
29.81,CORNERWAYS SURGERY,-0.404519,50.81566
44.51,CHEAM GP CENTRE,-0.225239,51.368621
18.5,WALLINGTON MEDICAL CENTRE,-0.129285,51.357345
42.16,THE BANKS & BEARWOOD MEDICAL CENTRE,-1.9292169999999997,50.768326
39.64,MERE SURGERY,-2.265342,51.089873
5.13,RAGSTONE ROAD SURGERY,-0.601832,51.503747
27.55,COMBE DOWN SURGERY,-2.345599,51.361003
70.18,WADEBRIDGE & CAMEL ESTUARY PRACTICE,-4.835729,50.514816
25.8,NORTH PETHERTON SURGERY,-3.013922,51.09139
30.93,HANDSWORTH MEDICAL PRACT.,-1.941212,52.505377
74.54999999999998,EVE HILL MEDICAL PRACTICE,-2.096805,52.512922
18.68,BEARWOOD MEDICAL CENTRE,-1.97344,52.476903
170.35,THE GROUP PRACTICE ALFRED SQUIRE ROAD,-2.080754,52.599417
197.07,WEST DERBY MEDICAL CENTRE,-2.895944,53.431273
19.74,BEEHIVE SURGERY,-2.419172,53.564161
40.13,QUEENS MEDICAL CENTRE,-2.235847,53.50081899999999
93.9,LANGWORTHY MEDICAL PRACTICE,-2.294771,53.489371
20.95,LEY HILL SURGERY,-1.983266,52.421346
83.81,THE CHEYLESMORE SURGERY,-1.503924,52.391324
25.5,DR. B. K. PRASHARA,-2.114816,52.456326
52.23,ST PETER'S SURGERY,-1.984855,52.594537
83.44,ORMSKIRK HOUSE SURGERY,-2.74261,53.456686
95.41,MANOR HEALTH CTR,-3.044493,53.421061
110.76,THE PENDLE MEDICAL PARTNERSHIP,-2.144307,53.915882
123.71,3/SPRINGFIELD HOUSE MEDICAL PRACTICE,-2.362019,53.480252
158.93,PENNINE MEDICAL CENTRE,-2.040966,53.515337
20.450000000000006,THE CROSSROADS SURGERY,-2.770123,53.417492
82.73,CRESCENT SURGERY,0.106446,51.389854
12.36,GREEN CEDARS MEDICAL CENTRE,-0.073642,51.616071
14.81,THE KINGSWAY PRACTICE,-2.135588,53.612168
34.53,WHITE HORSE SURGERY,0.343258,51.435153
15.84,CHAPELFORD PRIMARY CARE CENTRE,-2.633066,53.39615799999999
24.09,BHF LUNDWOOD SURGERY,-1.438538,53.557711
109.78,DALTON SURGERY,-3.179816,54.155917
55.21,THE SELE MEDICAL PRACTICE,-2.095702,54.970372
11.16,WOODLANDS PARK HEALTH CTR,-1.628825,55.04614
95.72000000000001,CONCORD MEDICAL PRACTICE,-1.524864,54.913411
97.58,MARKET WEIGHTON GROUP PRACTICE,-0.674786,53.864903
94.17,RAJ MEDICAL CENTRE,-0.113968,53.550655
59.25,MAYFORD HOUSE SURGERY,-1.446534,54.328376
38.03,OAKWOOD LANE MEDICAL PRACTICE,-1.493931,53.819982
183.63,HEALTH CARE FIRST PARTNERSHIP,-1.393615,53.736872
54.33,HAVEN MEDICAL CENTRE,-1.416874,52.891498
39.99,COUNTESTHORPE HEALTH CENTRE,-1.136767,52.554536
143.48,CASTLE HEALTHCARE PRACTICE,-1.144908,52.930476
156.89,BROOM LANE MEDICAL CENTRE,-1.332311,53.417383
10.33,CADDINGTON SURGERY,-0.458179,51.864502
7.599999999999999,ANNANDALE MEDICAL CENTRE,-0.17421099999999998,51.698571
2.88,GREENWICH CCG GP ACCESS HUB,0.050556,51.457843
86.30000000000003,WEST ROAD MEDICAL CENTRE,-1.656263,54.976209
19.04,IMEARY STREET PRACTICE,-1.424863,54.98753000000001
10.88,THE KILLINGHOLME SURGERY,-0.260335,53.62990799999999
175.84,DR SINHA & PARTNERS,0.100204,53.030138
79.33,THE HEALTH CARE SURGERY,-1.487911,53.42172
59.92,COMBERTON SURGERY,0.018614,52.189811
102.91,TRINITY & BOWTHORPE MEDICAL PRACTICE,1.280248,52.624411
53.42,THE LIMES SURGERY,-0.010842,51.759413
10.78,SHEPHALL HEALTH CENTRE,-0.167642,51.890799
11.92,WAKEMANS HILL SURGERY,-0.254209,51.587088
50.58,FOREST PRACTICE,0.07523499999999998,51.654789
11.82,PRASAD,0.210579,51.600308
40.86,HARROW ROAD GP CENTRE,0.012856,51.559538
26.78,SEVEN DIALS MEDICAL CENTRE,-0.147743,50.829681
123.48,NORTHDOWN SURGERY,1.368001,51.379866
8.84,MILTON REGIS SURGERY,0.7321839999999998,51.349193
98.85,BARCROFT MEDICAL CENTRE,-1.780526,51.172939
24.98,BURBAGE SURGERY,-1.669545,51.348496
129.04000000000002,THE SWAN PRACTICE,-0.985664,52.001593
109.28,PIONEER MEDICAL GROUP,-2.617628,51.510306
43.85,THE CREST FAMILY PRACTICE,-2.596274,51.428746
31.040000000000006,WORTHEN MEDICAL PRACTICE,-3.000165,52.635224
33.41,NESTON MEDICAL CENTRE,-3.064349,53.291818
79.08000000000001,KIRKDALE MEDICAL CENTRE,-2.973842,53.433523
62.8,WITHNELL HEALTH CENTRE,-2.556663,53.692491
212.25,DARWEN HEALTHLINK,-2.471427,53.695744
69.59,ST.MARY'S HEALTH CENTRE,-2.729589,53.747433
65.27000000000001,DAVID MEDICAL CENTRE,-2.268652,53.43186
30.23,DR ABBAS,-0.841253,52.26834
48.63,FACCINI HOUSE SURGERY,-0.189379,51.389682
40.82,EDLESBOROUGH SURGERY,-0.588625,51.868423
22.32,DR GS KALKAT'S PRACTICE,0.103861,51.527941
56.59,JRB HEALTHCARE BEECHDALE SURGERY,-1.198142,52.961504
5.140000000000001,THE LYNWOOD SURGERY,-0.29964,51.528594
10.49,CHURCH VIEW MEDICAL CENTRE,-2.960328,50.935622
75.66999999999999,WOODLANDS FAMILY MEDICAL CENTRE,-1.321204,54.561215
22.2,ASKAM SURGERY,-3.210918,54.183705
219.12,FERRYHILL AND CHILTON MEDICAL PRACTICE,-1.556828,54.689838
47.17,COLLIERY COURT MEDICAL GROUP,-1.460703,54.949762
16.25,GRANGE PARK SURGERY,-1.7481080000000002,53.912695
133.05,THE COUNTY PRACTICE,-1.069884,52.70073000000001
241.79,BEECHFIELD MEDICAL CENTRE,-0.145012,52.787253
104.39,GRIMETHORPE SURGERY,-1.378978,53.573614
18.81,THE OAKWOOD SURGERY,-1.073937,53.506609
32.94,PAPWORTH SURGERY,-0.11749200000000001,52.252071
93.92,ORCHARD SURGERY,0.944176,52.678309
47.08,DR JK MARSDEN'S PRACTICE,-0.436528,51.894968
39.7,MALTINGS SURGERY,-0.337918,51.751851
30.07,HANWELL HEALTH CENTRE (NAISH),-0.334375,51.510263
71.89,WHITLEY HOUSE SURGERY,0.455723,51.726539
84.65999999999998,WEST ROAD SURGERY,0.70187,51.544989
30.94,JOYDENS WOOD MEDICAL CENTRE,0.166397,51.42449
200.11,TRAFALGAR MEDICAL GROUP PRACTICE,-1.092485,50.785331
555.07,EASTFIELD HOUSE SURGERY,-1.323251,51.395555
31.95,RECTORY MEADOW SURGERY,-0.6175,51.669079
58.15000000000001,TUDOR LODGE SURGERY,-2.975378,51.332396
62.1,PRAZE-AN-BEEBLE SURGERY,-5.309264,50.173753
248.23,CAMBRIAN MEDICAL PRACTICE,-3.047774,52.86281
23.42,PENN SURGERY,-2.145001,52.568567
38.23,FIRDALE MEDICAL CENTRE,-2.537387,53.253804
23.54,HALL GREEN SURGERY,-2.741349,53.540745
10.28,SARAF MEDICAL PRACTICE,-2.076954,53.561455
16.240000000000002,LATIMER HEALTH CENTRE,-0.049503,51.54659
19.12,DELL MEDICAL CENTRE,0.328114,51.480258
27.36,KIRKSTALL LANE MEDICAL CENTRE,-1.587333,53.816942
52.28,WHITCHURCH SURGERY,-1.340372,51.230256
28.77,DR NEWMAN,-1.975441,50.719722
89.70999999999998,THE TRINITY MEDICAL CENTRE,0.085815,51.478803
64.11,KIRKBY COMMUNITY PRIMARY CARE CENTRE (3),-1.248741,53.10176
39.59,BERKLEY PRACTICE,-2.024533,52.58916
50.64,BELLE VALE HEALTH CENTRE,-2.859752,53.392035
66.78,ELIZABETH STREET SURGERY,-3.043658,53.820839
6.2700000000000005,RAMSBOTTOM MEDICAL PRACTICE,-2.319287,53.64878
18.81,THE WHITSWOOD PRACTICE,-2.253502,53.455769
125.58,WOODLANDS MEDICAL PRACTICE,-2.142182,53.545559
24.02,BROOKS BAR MEDICAL CENTRE,-2.261969,53.461412
52.01,BROOK HOUSE SURGERY,-1.445882,50.921794
14.33,ASHVILLE SURGERY,-0.201145,51.476255
5.65,THE VILLAGE MEDICAL CTR,-0.512653,52.128152
10.59,ST NEOTS HEALTH CENTRE,-0.267116,52.228966
112.01,PRIORY MEDICAL CENTRE,-1.588641,52.285051
7.4,MODALITY ANN JONES FAMILY HEALTH CENTRE,-1.871333,52.462659
21.27,BALDWINS LANE SURGERY,-1.846405,52.414514
23.43,TUDOR PRACTICE STOCKLAND GREEN,-1.857329,52.52388199999999
51.98,CENTRAL SURGERY,-2.74261,53.456686
102.43,ASH TREES SURGERY,-2.769484,54.129481
11.14,FAMILY PRACTICE,-2.486748,53.750552
7.2,MONARCH MEDICAL CENTRE,-2.316823,53.564198
144.15,LEESBROOK SURGERY,-2.07266,53.53879
1.85,WALTON SURGERY,1.335453,51.973564
30.53,LINCOLN GREEN MEDICAL CENTRE,-1.525196,53.802098
30.98,PARKGATE SURGERY,-1.548606,54.523273
21.99,DALTON TM,-2.643772,53.529393
16.02,POLLARD ROW SURGERY,-0.064328,51.528266
2.88,PML NEIGHBOURHOOD HUB (BANBURY),-1.349027,52.057771
54.85,BALDERTON SURGERY,-0.7864679999999998,53.052881
16.9,ULVERSTON COMMUNITY HEALTH CENTRE,-3.097833,54.198882
117.34,NORTH ROAD SUITE RAVENSTHORPE HEALTH CTR,-1.661589,53.677829
1.85,CASTLE MEAD MEDICAL CENTRE,-1.367743,52.541052
63.93,RADCLIFFE-ON-TRENT. HEALTH CENTRE,-1.03822,52.946139
42.66,RISE PARK SURGERY,-1.174951,53.011477
18.46,MANCHESTER ROAD SURGERY,-1.521086,53.380573
54.53,CHERRY HINTON MEDICAL CENTRE,0.177635,52.187459
47.26,THE MEDICI MEDICAL PRACTICE,-0.418382,51.874494
58.35,PENSHURST GARDENS SURGERY,-0.272812,51.616129
40.93000000000001,ELLIS PRACTICE,-0.276552,51.563894
23.65,ORCHARD END,0.539532,51.091415
53.41,NEW ELTHAM AND BLACKFEN MEDICAL CENTRE,0.074199,51.434495
28.020000000000003,THE GROVE MEDICAL CENTRE,-2.513702,50.953273
74.26,BISHOPS WALTHAM SURGERY,-1.212149,50.95528
47.49,ROWHEDGE SURGERY,0.945058,51.85767
26.33,DR VM PATEL,0.228776,51.561113
25.89,THE HEATHCOTE PRIMARY CARE CENTRE,0.062768,51.593832
25.19,ESHER GREEN SURGERY,-0.370196,51.375782
23.22,CHILDS (THAMESIDE),-0.326599,51.427449
71.14,THE CHESSER SURGERY,-0.177303,51.374927
46.87000000000001,MOREDON MEDICAL CENTRE,-1.8070689999999998,51.582197
85.61000000000001,ASHFIELD MEDICAL CENTRE,-0.7382729999999998,52.019666
90.38,BUGBROOKE MEDICAL PRACTICE,-1.005426,52.211409
74.67999999999998,TRESCOBEAS SURGERY,-5.085333,50.15531
42.81,BUDSHEAD MEDICAL PRACTICE,-4.150289,50.417443
40.2,TEIGN ESTUARY MEDICAL GROUP,-3.496462,50.5456
39.73,MITCHELDEAN SURGERY,-2.488369,51.865935
52.16,LUSON,-3.229566,50.977398
86.81999999999998,HARESFIELD HOUSE SURGERY,-2.202996,52.194829
17.17,HEDNESFORD MEDICAL PRACTICE,-2.000697,52.71233
214.15,LAUREL HOUSE SURGERY,-1.692825,52.636563
49.34,HANDSWORTH WOOD MED.CTR.,-1.928196,52.51303299999999
1.44,ROTTON PARK MEDICAL CENTRE,-1.947079,52.482162
202.58,LONGFORD PRIMARY CARE CENTRE,-1.48555,52.449933
248.72,TETTENHALL MEDICAL PRACTICE,-2.159502,52.600723
49.51,READESMOOR MEDICAL GROUP PRACTICE,-2.216792,53.163762
92.82,NEWTOWN SURGERY,-2.735705,53.362158
48.52,ROPE GREEN MEDICAL CENTRE,-2.453958,53.06655
40.82,PENNY LANE SURGERY,-2.915004,53.389404
89.58,ABINGDON FAMILY HEALTH CARE CENTRE,-2.943503,53.440571
184.29,WINGATE MEDICAL CENTRE,-2.874647,53.488385
95.94,AINSDALE MEDICAL CENTRE,-3.03882,53.602403
22.05,CORNERSTONE SURGERY,-2.457402,53.58815500000001
130.13,BARLBOROUGH MEDICAL PRACTICE,-1.284471,53.289528
17.48,VICTORIA PARK HEALTH CENTRE,-1.1192,52.619071
55.99000000000001,THE WRAGBY SURGERY,-0.301337,53.287948
54.38,SOUTH GRANGE MEDICAL GROUP PRACTICE,-1.166506,54.56995500000001
34.14,QUEEN STREET MEDICAL PRACTICE,-3.589063,54.546567
12.8,OLD FORGE SURGERY,-2.079758,54.623041
30.83,EGTON SURGERY,-0.7552379999999999,54.445555
39.44,VESPER ROAD,-1.615337,53.827318
51.16,GLADSTONE HOUSE SURGERY,-1.307927,52.968816
6.17,THE PRACTICE-SAYEED,-1.106589,52.63081700000001
157.11999999999995,GLEADLESS MEDICAL CENTRE,-1.451325,53.356551
104.78,TRAMWAYS AND MIDDLEWOOD MEDICAL CENTRES,-1.515268,53.418958
39.28,LANGSTONE WAY SURGERY,-0.210815,51.606981
23.700000000000006,ELMTREES SURGERY,-0.335968,51.550787
113.04,TULASI MEDICAL CENTRE,0.12448900000000002,51.561005
46.43,THE MILLER PRACTICE,-0.092165,51.551419
84.04,WARRIOR SQUARE SURGERY,0.562007,50.852963
61.7,SNODLAND MEDICAL PRACTICE,0.441488,51.326053
25.2,SUTTON VALENCE GROUP PRACTICE,0.59403,51.211195
91.16,LEITH HILL PRACTICE,-0.322969,51.150452
112.28,THE GROVES MEDICAL CENTRE,-0.26224,51.410048
285.42,THE MARINE & OAKRIDGE PARTNERSHIP,-1.806532,50.722838
24.880000000000006,MALTHOUSE MEADOWS SURGERY,-2.568038,50.668698
102.46,THE STAUNTON SURGERY,-0.978019,50.851067
102.24,PORT ISAAC SURGERY,-4.824594,50.589808
31.05,THE CORINTHIAN SURGERY,-2.0815,51.906706
65.50999999999999,ST JOHNS HOUSE SURGERY,-2.25911,52.18874
520.1,CASTLEFIELDS,-2.129518,52.801013
54.28,ADDERLEY GREEN SURGERY,-2.135511,52.991714
75.87999999999998,HARBURY SURGERY,-1.458027,52.236759
23.31,DR BILAS,-2.063063,52.612824
100.94,BLUNDELLSANDS SURGERY,-3.041273,53.484452
81.23,QUEEN SQUARE MEDICAL PRACTICE,-2.800994,54.046219
42.36,DILL HALL SURGERY,-2.390844,53.754996
44.47,WEST TIMPERLEY MEDICAL CENTRE,-2.353117,53.402699
23.29,MARUS BRIDGE PRACTICE,-2.643772,53.529393
2.88,SUMMERLEE MEDICAL CENTRE,-0.652145,52.337022
1.44,HEALTH E1,-0.07152500000000002,51.518304
25.39,SLAG LANE MC,-2.575634,53.47856899999999
20.37,THE GRANGE MEDICAL CENTRE,-0.262039,52.57839
1.85,CAXTON HOUSE SURGERY,-1.382415,53.575347
23.64,WESTCOTES MEDICAL CENTRE,-1.153587,52.63133199999999
34.21,REDGATE MEDICAL CENTRE,-2.987659,51.126385
38.44,GREAT WITLEY SURGERY,-2.361004,52.291152
67.3,MADELEY PRACTICE,-2.345126,52.999856
45.23,GREEN RIDGE SURGERY,-1.8710349999999998,52.428433
59.45,RIVER BROOK MEDICAL CENTRE,-1.913809,52.43303
48.31,BUNBURY MEDICAL PRACTICE,-2.649377,53.116827
72.56999999999998,MURDISHAW,-2.662128,53.323997
77.33,ROCK COURT SURGERY,-2.916187,53.411597
84.15,POPLAR HOUSE SURGERY,-3.03076,53.754721
52.2,QUEENSWAY MEDICAL CENTRE,-2.995384,53.846569
96.45,CASTLETON HEALTH CENTRE,-2.18229,53.597034
5.76,HAVEN HEALTH,1.327039,51.96536
36.09,DR KK CHAN & PARTNERS,-2.489022,53.524185
1.44,DANEHOUSE MEDICAL PRACTICE,-2.238948,53.791326
57.35,SWANSWELL MEDICAL CENTRE,-1.816529,52.432515
33.3,DR MALIK - KENT ELMS HC,0.664114,51.563831
44.42,CITY ROAD MEDICAL CENTRE,-0.091116,51.527895
35.14,BOTOLPH BRIDGE COMMUNITY HEALTH CENTRE,-0.261557,52.562595
9.45,SHORTSTOWN MEDICAL CENTRE,-0.432463,52.110853
109.92,THE HAWTHORNS SURGERY,-1.825965,52.538746
96.03,PARK HOUSE MEDICAL CENTRE,-2.805295,53.42670699999999
35.45000000000001,SOUTH KING STREET MEDICAL CENTRE,-3.047855,53.816775
58.37000000000001,DR A CALOW'S PRACTICE,-2.503837,53.742584
112.86,ST MARY'S MEDICAL CENTRE,-2.108554,53.543625
85.58,CHEADLE MEDICAL PRACTICE,-2.213539,53.393745
42.77,GREEN STREET GREEN MED CT,0.089996,51.354366
41.03,3/ST ANDREWS MEDICAL CENTRE,-2.339619,53.484875
40.04,HORIZON HEALTH CENTRE,-2.965121,51.331294
3.24,ANN MARIE HOWES CENTRE,-1.7785380000000002,52.464805
5.140000000000001,BLACKFRIARS,-2.254244,53.484135
35.04,CALDBECK SURGERY,-3.050622,54.749864
44.92,OXFORD STREET SURGERY,-3.5505760000000004,54.64373
11.31,WRAYSDALE HOUSE SURGERY,-3.076077,54.367247
465.37,SAVILLE MEDICAL GROUP,-1.609598,54.976095
24.65,COOK BF,-0.357512,53.780969
27.47,PEELER HOUSE SURGERY,-0.438756,53.72252
122.78,DR INGRAM & PTRS,-1.526892,54.136451
301.41,LINGWELL CROFT SURGERY,-1.535053,53.749986
58.62,HOUNSFIELD SURGERY,-0.811033,53.183702
18.72,LENSFIELD MEDICAL PRACTICE,0.124449,52.198365
61.16,CEDAR BROOK PRACTICE,-0.41413199999999994,51.534092
71.76000000000002,ROSE VILLA SURGERY,0.506616,51.566232
54.33,ADELAIDE MEDICAL CENTRE,-0.161257,51.543548
9.66,DR DHITAL PRACTICE,-0.003074,51.587786
27.630000000000006,HOLLINGTON SURGERY,0.872487,51.151423
95.15,WOODLANDS HEALTH CENTRE,0.38485,51.18077
3.7,NORHEADS LANE SURGERY,0.026739,51.314542
62.14,HARTLAND WAY SURGERY,-0.045782,51.374372
45.14,BOYATT WOOD SURGERY,-1.36001,50.977856
45.47,GREEN PRACTICE,-0.371755,51.468263
41.23,THE ABBOTSBURY PRACTICE,-0.397406,51.579266
102.42,NUFFIELD HOUSE HEALTH CENTRE,0.112828,51.774439
135.41,MARTINS OAK SURGERY,0.483675,50.91716
26.17,THE GLEBE FAMILY PRACTICE,0.544473,51.383164
43.68,MALLING HEALTH BLUE SUITE,0.609995,51.363412
30.23,KNOLL MEDICAL PRACTICE,0.101068,51.375411
18.290000000000006,CLIFTON RISE FAMILY PRACTICE,-0.03143300000000001,51.476334
6.17,BLACKFRIARS MEDICAL PRACTICE,-0.105775,51.505364
125.95,HASLEMERE HEALTH CENTRE,-0.707586,51.092107
71.96000000000002,FARNHAM DENE MEDICAL PRACTICE,-0.777405,51.200549
21.290000000000006,THE DORCHESTER RD SURGERY,-2.457512,50.625193
26.39,CRONDALL NEW SURGERY,-0.858386,51.237211
70.30000000000001,ST.JAMES SURGERY,-1.989956,51.352926
17.28,CORDWALLIS ROAD SURGERY,-0.7240259999999998,51.528097
93.69,BOTLEY MEDICAL CENTRE,-1.299442,51.753753
94.31,ST. MARY'S SURGERY,-2.479869,51.326082
58.49,QUEEN'S MEDICAL CENTRE,-4.057196,51.080161
149.23000000000005,BRUNEL MEDICAL PRACTICE,-3.516948,50.479349
32.06999999999999,EXMOOR MEDICAL CENTRE,-3.544825,51.038507
22.82,CHADDESLEY SURGERY,-2.158038,52.361961
138.53,THE MANOR PRACTICE,-1.8236169999999998,52.55816
17.37,CHARLES ROAD SURGERY,-1.850621,52.4722
51.94,DUNCAN STREET PRIMARY CARE PARTNERSHIP,-2.126602,52.57346999999999
116.11,DR JUDE'S PRACTICE - RIVERSIDE,-2.943016,53.398876
66.41999999999999,WESTOVER SURGERY,-5.07501,50.148927
11.52,THE MANOR PARK PRACTICE,0.057339,51.55393
132.07999999999998,WEST MEADS SURGERY,-0.701481,50.788299
9.97,TRENTHAM MEWS MEDICAL CENTRE,-2.189898,52.970452
47.87000000000001,WILLESDEN GREEN SURGERY,-0.216091,51.553773
5.55,THE SUMMITT PRACTICE,0.04536,51.539588
0.72,WIDNES GP EXTRA SERVICE,-2.735705,53.362158
8.530000000000001,DR THORNILEY-WALKER & PARTNERS,-1.460703,54.949762
15.15,DR U AKBAR,-1.777945,53.803569
144.25,BROOKROYD HOUSE,-1.67818,53.707224
31.520000000000003,AIREBOROUGH FAMILY PRACTICE,-1.684881,53.866663
98.8,BUSHLOE SURGERY,-1.116921,52.583283
85.72,THE BURBAGE SURGERY,-1.361645,52.53009599999999
40.3,PASLEY ROAD HEALTH CENTRE (TK KHONG),-1.146741,52.591287
146.08,NETTLEHAM MEDICAL PRACTICE,-0.476253,53.262865
26.1,HAROLD STREET MEDICAL CENTRE,-1.492871,53.393121
10.9,LEISTON SURGERY,1.575953,52.207708
47.82000000000001,HEATHFIELDE MEDICAL CENTRE,-0.179797,51.585238
37.98,BRENTFIELD MEDICAL CENTRE,-0.260251,51.550588
26.66,DR NAVIN KUMAR,0.70187,51.544989
14.93,RUSTON STREET CLINIC,-0.027306,51.536264
35.98000000000001,SCHOOL HILL MEDICAL PRACTICE,0.012064,50.873469
98.81,MOTE,0.545625,51.246876
90.49,SHEPPERTON MEDICAL PRACTICE,-0.453153,51.396402
160.45000000000005,GRAYSHOTT SURGERY,-0.745626,51.110093
24.59,THE MANOR PRACTICE,-0.234983,50.835138
24.06,HAMPTON HILL MEDICAL CENTRE,-0.354892,51.427508
30.43,CLAPHAM JUNCTION MEDICAL PRACTICE,-0.173908,51.465969
36.6,OLD SCHOOL HOUSE SURGERY,-1.604408,51.376032
142.96,WINSCOMBE SURGERY,-2.830537,51.315196
1201.55,PEMBROKE MEDICAL GROUP,-3.560246,50.445527
179.18,PRIORY ROAD SURGERY,0.589253,50.860828
120.35,SWANSCOMBE HEALTH CENTRE,0.28731,51.424657
26.11,ELTHAM PARK SURGERY,0.061023,51.4547
56.08,JAMES O'RIORDAN MEDICAL CENTRE,-0.212686,51.385157
184.66,WISTARIA & MILFORD SURGERIES,-1.547285,50.760041
50.18,27 BEAUMONT STREET,-1.26216,51.755081
6.81,WIDCOMBE SURGERY,-2.354321,51.376371
117.91,ST LUKES MEDICAL CENTRE,-3.517636,50.394313
85.12999999999998,FRITHWOOD SURGERY,-2.162379,51.729707
98.98,HILLVIEW MEDICAL CENTRE,-1.951153,52.305568
115.22,GORDON STREET SURGERY,-1.644613,52.810998
49.75,LONGTON MEDICAL CENTRE,-2.770123,53.417492
47.16,PRIMROSE SURGERY,-2.357311,53.456159
60.17,DR AHMAD & PTNRS,-2.595925,53.522279
19.22,THE OLD DAIRY HEALTH CENTRE,-0.091201,51.436586
10.49,THE ISLAND SURGERY,0.591014,51.520226
37.83,JS MEDICAL PRACTICE,-0.078706,51.589103
76.45999999999998,GATEWAY PRIMARY CARE,-1.352431,53.429997
28.78,ESSINGTON MEDICAL CENTRE,-2.056915,52.63194
503.64,THE WILLASTON SURGERY,-3.011643,53.292908
21.06,STONELEIGH SURGERY,-2.770704,54.227277
30.700000000000006,BROWNEY HOUSE SURGERY,-1.670679,54.800313
81.36,TOWNHEAD SURGERY,-2.276903,54.070534
11.23,HORNE STREET SURGERY,-1.871717,53.725678
66.93,HONLEY SURGERY,-1.791936,53.602386
36.11,GOSBERTON MEDICAL CENTRE,-0.159263,52.869915
169.91,THE MANOR SURGERY,-1.216371,52.925036
59.71,PROSPECT MEDICAL PRACTICE,1.285656,52.643921
71.87000000000002,THE GARDEN CITY PRACTICE,-0.209287,51.797151
37.72,MAPESBURY MEDICAL GROUP,-0.209473,51.551496
54.35,RIVERMEAD GATE MED.CTR.,0.472887,51.740849
52.28,ROMAN WAY MEDICAL CENTRE,-0.10550599999999999,51.544561
27.48,CHOLMLEY GARDENS SURGERY,-0.195423,51.552261
47.95,ESSEX LODGE,0.026685000000000004,51.527915
49.87,GROVELANDS MEDICAL CENTRE,-0.112028,51.620685
122.34,HIGH GLADES MEDICAL CENTRE,0.551301,50.878354
66.7,ST JAMES' SURGERY,1.315702,51.128516
67.2,OXSHOTT MEDICAL PRACTICE,-0.360843,51.333099
134.95000000000002,BRIDGE MEDICAL CENTRE,-0.166439,51.117364
8.73,LAVENDER HILL GROUP PRACTICE,-0.15683,51.466044
40.27,THE CRANBORNE PRACTICE,-1.9192779999999998,50.919773
45.85,ST.MARY'S SURGERY,-1.397475,50.905746
38.97000000000001,NEW FOREST MEDICAL GROUP,-1.576665,50.81471
77.74000000000002,SWALLOWFIELD MEDICAL PRACTICE,-0.958531,51.378289
64.15,CHERRYMEAD SURGERY,-0.700228,51.608271
108.75,HORFIELD HC,-2.576275,51.489998
61.75,CARNON DOWNS SURGERY,-5.091905,50.22345
79.11000000000001,WHITE HOUSE SURGERY,-1.705957,51.983554
9.87,SPRINGMEAD SURGERY  CHARD,-2.967972,50.869562
81.73999999999998,CHURCH STRETTON MEDICAL CENTRE,-2.806169,52.537286
97.14,DR KS UPTON'S PRACTICE,-1.986582,52.988358
64.34,KINGSWAY MEDICAL CENTRE,-1.289009,54.606459
14.6,WARWICK ROAD SURGERY,-2.928541,54.893858
4.83,PRUDHOE MEDICAL GROUP,-1.853822,54.96186
109.73,TALBOT MEDICAL CENTRE,-1.440661,54.973054
99.51,NOVA SCOTIA MEDICAL CNTR,-1.373051,53.747561
71.3,ARTHUR MEDICAL CENTRE,-1.422636,53.001503
97.45,WOODVILLE SURGERY,-1.5365030000000002,52.770685
125.61,NEWBOLD VERDON MED.PRACT.,-1.34334,52.634612
76.39,PORTLAND MEDICAL PRACTICE,-0.539074,53.22371999999999
137.72,TORKARD HILL MEDICAL CTRE,-1.207389,53.029901
53.3,BAKERSFIELD MEDICAL CENTRE,-1.104957,52.960219
120.43,HIGH STREET PRACTICE,-1.458313,53.597926
130.95,VILLAGE SURGERY,-1.251934,53.39421
12.67,ALLENBY CLINIC,-0.376261,51.531514
215.42,DR PUZEY DR KOTHARI AND DR NANDA,0.705992,51.582107
61.56,DR BAKER & PARTNERS,0.548167,51.570733
23.1,INGREBOURNE MEDICAL CENTRE,0.210579,51.600308
77.94,THE ORDNANCE UNITY CENTRE FOR HEALTH,-0.039073,51.672653
375.06,CROUCH HALL ROAD SURGERY,-0.127301,51.579178
111.95,CENTRAL SURGERY,-0.299929,51.390825
10.48,ST PAUL'S SURGERY,-1.32139,51.065963
31.47,SHEET STREET SURGERY,-0.605507,51.479648
69.16000000000001,HEDENA HEALTH,-1.204547,51.76203
76.21999999999998,BLOXHAM SURGERY,-1.372977,52.018108
95.09,KINGTON MEDICAL PRACTICE,-3.022556,52.199361
100.56,SEVERN FIELDS MEDICAL PRACTICE,-2.721619,52.728047
35.64,SELLY OAK HEALTH CENTRE,-1.939144,52.438251
146.88,PEELHOUSE MEDICAL PLAZA,-2.72256,53.372135
109.57,CUMBERLAND HOUSE SURGERY,-2.990437,53.638743
41.22,LANE ENDS SURGERY,-2.727014,53.770173
8.429999999999998,HOLLINS GROVE SURGERY,-2.477472,53.705346
12.39,WHITTAKER LANE MED CENTRE,-2.268645,53.528488
85.76999999999998,WEST GORTON MEDICAL PRACTICE,-2.203859,53.46720500000001
54.21,OLDHAM FAMILY PRACTICE,-2.116945,53.543824
35.45000000000001,SHAY LANE MEDICAL CENTRE (PATEL),-2.31556,53.372189
61.58,BIRTLEY MEDICAL GROUP,-1.576441,54.891881
132.92,THE LEEDS ROAD PRACTICE,-1.535156,53.980466
48.77,APOLLO COURT MEDICAL CENTRE,-1.524816,53.542364
28.99,THE LAKESIDE PRACTICE,-1.148909,53.61549599999999
77.5,FOXHILL MEDICAL CENTRE,-1.501327,53.429911
49.91,WESTWOOD CLINIC,-0.269054,52.591395
62.32000000000001,THEOBALD MEDICAL CENTRE,-0.285584,51.661381
57.69,SUDBURY & ALPERTON MEDICAL CENTRE,-0.298046,51.536916
1.95,THE SURGERY,-0.184519,51.497627
225.85,CHURCHILL MEDICAL CENTRE,-0.018466,51.618226
24.57,THE CHESTERFIELD DRIVE PRACTICE,1.132012,52.07623
53.02,COMBS FORD SURGERY,0.995999,52.180181
10.17,CAULDWELL MEDICAL CENTRE,-0.472495,52.128265
26.630000000000006,PRIORY MEDICAL CENTRE,-0.50567,52.167181
79.63000000000002,HILLVIEW SURGERY,-0.318331,51.540536
44.58,DR HAFFIZ,-0.119262,51.539321
12.13,SANDRINGHAM PRACTICE,-0.067207,51.547773
6.17,ESK ROAD MEDICAL CENTRE,0.024266,51.522454
7.289999999999998,MONTPELIER SURGERY,-0.149079,50.827148
102.31,THE AVENUE SURGERY,-0.113425,50.844357
162.16,REACH HEALTHCARE,0.52408,51.337756
55.73,SELLINDGE SURGERY,1.002785,51.103536
133.95,LAKESIDE MEDICAL,0.122454,51.496518
56.01,CAMBERLEY HEALTH CENTRE,-0.754069,51.324435
102.45,HARBOUR VIEW HEALTHCARE,-0.27437,50.833817
43.58,NEW POND ROW SURGERY,-0.322292,50.824911
12.74,FLOOD (ESSEX HOUSE),-0.247469,51.472541
80.39,WILSON PRACTICE,-0.966958,51.153736
30.84,WOLLASTON AND BOZEAT SURGERIES,-0.674311,52.252471
122.77,LEAP VALLEY MEDICAL CENTRE,-2.487852,51.496541
75.01,KINGSTEIGNTON MEDICAL PRACTICE,-3.597395,50.54898
60.47,ST.LEVAN SURGERY,-4.177328,50.383921
9.87,STIRCHLEY MEDICAL PRACTICE,-2.433777,52.655188
105.57,LUDLOW - PORTCULLIS,-2.715958,52.368905
83.06,BARTON,-1.725223,52.761751
42.44,RED LION SURGERY,-2.030614,52.693241
7.6099999999999985,DADHANIA SURGERY,-1.491047,52.405815
31.250000000000004,ST JAMES MEDICAL PRACTICE1,-2.097323,52.514234
22.06,HAWTHORNS MEDICAL CENTRE,-1.967268,52.501507
23.68,BROWNLOW AT MARYBONE,-2.987806,53.411269
91.71,MORETON MEDICAL CENTRE,-3.110005,53.39886
61.88999999999999,LITTLE LEVER HEALTH CENTRE 1,-2.370624,53.55981800000001
4.32,WOODBANK SURGERY,-2.308802,53.60507
104.03,DRS HANIF &  BANNURU,-2.184157,53.484308
9.36,4/LOWER BROUGHTON MEDICAL PRACTICE,-2.258808,53.49359
101.21,BRINNINGTON SURGERY,-2.132367,53.427651
53.49,CONWAY ROAD MEDICAL PRACTICE,-2.303561,53.417873
29.8,DESFORD MEDICAL CENTRE,-1.296116,52.627473
9.87,DR VIJE'S SURGERY,-1.650877,52.617569
15.42,HIGHFIELD HEALTH,-1.395746,50.932777
27.56,DR R SHARMA'S PRACTICE,-0.096482,51.499125
12.02,HALF PENNY STEPS HEALTH CENTRE,-0.206044,51.526213
151.9,NORTON MEDICAL CENTRE,-1.308737,54.588737
185.26,CARLISLE HEALTHCARE,-2.930647,54.893714
29.67,PEEL PARK SURGERY,-1.731903,53.806791
98.7,MAYBUSH MEDICAL CENTRE,-1.489249,53.670273
78.87999999999998,THE GOLDEN BROOK PRACTICE,-1.272531,52.901553
99.66,IBSTOCK HOUSE SURGERY,-1.401818,52.684869
112.88,RUSKINGTON SURGERY,-0.400977,53.048226
206.69,BARNBY GATE SURGERY,-0.8049699999999999,53.074931
71.39,DUKE MEDICAL CENTRE,-1.455657,53.378576
9.45,FALKLAND HOUSE SURGERY,-1.514423,53.359728
147.56,PRIORY FIELDS SURGERY,-0.179856,52.332272
43.59,BOURN SURGERY,-0.063404,52.193155
17.38,COACHMANS MEDICAL PRACTICE,-0.203875,51.096335
32.58,MILTON KEYNES VILLAGE SURG,-0.697865,52.043891
18.92,DRS DE ROSA & WILLIAMS,-2.167857,52.569265
169.92000000000004,FIELDHOUSE MEDICAL GROUP,-0.112579,53.564436
130.57,HEREWARD MEDICAL CENTRE,-0.380913,52.768626
88.46,SAXON CROSS SURGERY,-1.273642,52.931099
156.18,PENISTONE GROUP PMS PRACTICE,-1.630732,53.523565
62.14,THE NAYAR PRACTICE,-1.1933790000000002,53.480824
44.99,DR RAOLU'S PRACTICE,-1.204348,53.423549
94.32,THE PARK SURGERY,1.7292759999999998,52.606218
22.67,EAST BARNET HEALTH CENTRE,-0.166424,51.646339
28.18,LANFRANC MEDICAL CENTRE,-0.332746,51.561586
5.55,THE TUDOR HOUSE MEDICAL CENTRE,-0.266689,51.564495
60.62,LABURNUM HEALTH CENTRE,0.151208,51.560662
48.040000000000006,NEW NORTH HEALTH CENTRE,-0.091592,51.537534
17.14,HOVE MEDICAL CENTRE,-0.19539,50.845024
86.40999999999998,PRIMECARE PMS (SOUTH STREET),-0.012448,51.476194
47.18,THE GARDENS SURGERY,-0.066803,51.46061
65.15,FORT HOUSE SURGERY,-0.412578,51.37881
120.35,OXTED HEALTH CENTRE,9.9e-05,51.257686
159.05999999999997,THE WRYTHE GREEN SURGERY,-0.171312,51.371749
31.25,THE LAWN MEDICAL CENTRE,-1.7619029999999998,51.547821
54.65,NORDEN HOUSE SURGERY,-0.882727,51.944924
18.49,ST MARY'S HEALTH CENTRE,-6.308668,49.911605
70.2,TOPSHAM SURGERY,-3.462097,50.683825
134.91,BAMPTON SURGERY,-1.55034,51.729032
51.82,WOODLANDS MEDICAL CENTRE,-1.258898,51.603637
122.58,PETROC GROUP PRACTICE,-4.943163,50.430739
81.65,TAVYSIDE HEALTH CENTRE,-4.145976,50.545824
134.26,EAST QUAY MEDICAL CENTRE,-3.000471,51.135669
4.32,BREDON HILL SURGERY,-2.104857,52.030166
54.7,HAGLEY SURGERY,-2.144103,52.420783
9.95,KNOCKIN MEDICAL CENTRE,-2.993042,52.79343
48.43000000000001,PHOENIX FAMILY CARE,-1.51543,52.390005
302.04,ASHTON MEDICAL GROUP,-2.089184,53.489361
56.96,BRADSHAW MEDICAL CENTRE,-2.688594,53.537889
3.39,SAVILE TOWN MEDICAL CTR.,-1.625804,53.68222900000001
5.76,LIMEFIELD ROAD MEDICAL PRACTICE,-2.26047,53.506995
16.86,THE ORCHARD SURGERY,-0.324352,50.828062
0.36,RICHARDSON COMMUNITY HOSPITAL,-1.9161529999999998,54.545708
36.96,LAKESIDE SURGERY,-1.310932,53.52812
25.19,THE DANBY PRACTICE,-0.907874,54.468317
11.31,VALLEY VIEW SURGERY,-1.731903,53.806791
68.73,THE NORTH LEEDS MEDICAL PRACTICE,-1.534037,53.843332
118.64,IVY GROVE SURGERY,-1.402822,53.042198
34.230000000000004,FRIAR GATE SURGERY,-1.485624,52.924816
62.49,NAVENBY CLIFF VILLAGES SURGERY,-0.526297,53.103518
39.17,THE LINDEN MEDICAL GROUP,-1.273642,52.931099
8.949999999999998,ASKERN MEDICAL PRACTICE,-1.148909,53.61549599999999
16.66,BUTE HOUSE MEDICAL CENTRE,-0.423966,51.880162
35.45000000000001,LICHFIELD GROVE SURGERY,-0.19329,51.599604
34.76,GURU NANAK MEDICAL CENTRE,-0.387151,51.511774
26.74,SOUTH GREEN SURGERY,0.430504,51.613411
14.88,RICHMOND ROAD MEDICAL CENTRE,-0.065532,51.543051
31.34,THE LAWSON PRACTICE,-0.079465,51.533775
54.7,LEYTON HEALTHCARE 4TH FLOOR,-0.013313,51.559894
28.57,FRANCIS ROAD MEDICAL CENTRE,-0.003831,51.561975
67.52,OLD SCHOOL SURGERY,0.100722,50.772062
20.05,UNIVERSITY MEDICAL CENTRE,1.062127,51.296198
35.94,ST STEPHENS HOUSE SURGERY,-0.305726,51.31772
14.6,PARK VIEW HEALTH PARTNERSHIP,-0.137252,50.961825
66.61,LAMBTON ROAD MEDICAL PRACTICE,-0.231169,51.411219
71.96000000000002,LORDSHILL HEALTH CENTRE,-1.448733,50.940999
93.31,BYFIELD MEDICAL CENTRE,-1.242893,52.174071
71.58,CAMBRIDGE HOUSE,-2.144827,53.024433
69.82,ARBURY MEDICAL CENTRE,-1.497961,52.51662
73.12999999999998,CHURCH LANE - KHAN,-1.793962,52.487056
30.43,SOHO ROAD PRIMARY CARE CENTRE,-1.934945,52.503094
21.75,PARK HOUSE SURGERY,-1.942965,52.54446
24.63,BEECHDALE CENTRE,-2.007339,52.600867
77.93,HOLES LANE MEDICAL CENTRE,-2.545107,53.399828
76.31999999999998,LACHE HEALTH CENTRE,-2.914326,53.173615
95.63,DINGLE PARK PRACTICE,-2.972885,53.38633
158.94,RAINBOW MEDICAL CENTRE,-2.705931,53.435389
2.37,BEECHWOOD SURGERY,-3.009057,53.871568
99.48,HEYWOOD HEALTH,-2.239335,53.58736999999999
33.2,THE GILL MEDICAL PRACTICE,-2.398384,53.524288
58.33,GLOUCESTER HOUSE MEDICAL CENTRE,-2.352599,53.447337
48.40000000000001,PAK HEALTH CENTRE,-1.856091,52.490749
11.1,WALFORD STREET  TIVIDALE,-2.059752,52.513192
92.94,LITTLE LONDON SURGERY,-1.979284,52.574984
34.95,STRETTON MEDICAL CENTRE,-2.577017,53.339489
20.98,THE DALE MEDICAL PRACTICE,-2.154239,53.611617
15.63,WALNUT ST MED CTR (LEICESTER MED GROUP),-1.138855,52.624601
49.33,FIR TREE,-2.878691,53.44930600000001
1.44,CAMBRIDGE ACCESS SURGERY,0.138701,52.20875
28.68,ETTINGSHALL MEDICAL CENTRE,-2.092879,52.570364
21.59,RUSHEY MEAD HEALTH CENTRE,-1.103823,52.663187
93.3,ST ANN'S ROAD SURGERY,-0.08783399999999998,51.581428
67.18,LEIGH FAMILY PRACTICE,-2.511927,53.493519
19.130000000000006,THE PRACTICE FELTHAM,-0.411086,51.446367
46.78,HENDON WAY SURGERY,-0.241873,51.579182
34.739999999999995,CARTMEL SURGERY,-2.946985,54.199165
152.7,ALNWICK MEDICAL GROUP,-1.6967470000000002,55.410086
29.27,NETHERFIELD HOUSE,-1.548435,55.063632
108.58,PRACTICE 3  MEDICAL CENTRE  BRIDLINGTON,-0.201064,54.084715
84.14,THE ALMONDBURY SURGERY,-1.751311,53.631868
90.68,NEWLAND SURGERY,-1.424247,53.695146
481.82000000000005,BEACON MEDICAL PRACTICE,0.331219,53.157472
9.71,GREENFIELDS MEDICAL CENTRE (YVS RAO),-1.168583,52.966506
104.52,TREETON MEDICAL CENTRE,-1.354708,53.384994
117.68,MEADOWGREEN HEALTH CENTRE,-1.480804,53.326831
246.17,BOROUGHBURY MEDICAL CENTRE,-0.245486,52.577858
75.87999999999998,THE ROOKERY MEDICAL CENTRE,0.405573,52.245158
0.51,IC24-THANET CCG OOH,0.891514,51.129106
0.36,SJUH GPS IN A+E,-1.520359,53.806869
58.15000000000001,CRUDDAS PARK SURGERY,-1.630965,54.968173
26.87,THE CHESTNUTS & HALLGATE SURGERY,-0.403621,53.778985
38.24,HAWORTH MEDICAL PRACTICE,-1.954883,53.831322
65.2,FIELDHEAD SURGERY,-1.854229,53.641358
125.13,CROFTON AND SHARLSTON MED PRAC,-1.427042,53.656573
258.31,SHIRES HEALTHCARE,-1.215692,53.202513
41.43,ORCHARD SURGERY,-1.278154,52.836522
99.13,ST GEORGES MED PRACTICE,-1.132346,52.930754
15.93,WELBECK SURGERY,-1.147823,52.979645
96.57,WICKHAM MARKET MEDICAL CENTRE,1.363674,52.151842
9.559999999999999,TODDINGTON MEDICAL CENTRE,-0.530482,51.945856
35.22,THE RANDOLPH SURGERY,-0.186852,51.529819
17.09,DR YADAVA N PRACTICE,0.334586,51.476703
30.92,ST.PAUL'S WAY MEDICAL CTR,-0.024483,51.517862
139.02,THORNHILLS MEDICAL PRACTICE,0.440958,51.300117
144.09,OAKLANDS HEALTH CENTRE,1.08253,51.069106
35.77,HEXTABLE SURGERY,0.182972,51.409182
111.2,LONGCROFT CLINIC,-0.192332,51.325314
65.91,THE ROEHAMPTON SURGERY,-0.242431,51.451154
49.39,WYKE REGIS & LANEHOUSE MEDICAL PRACTICE,-2.475127,50.594634
17.48,WHITCHURCH SURGERY,-0.8426209999999998,51.882174
14.38,CRICK MEDICAL PRACTICE,-1.135861,52.343212
79.4,KINGSWOOD HEALTH CENTRE,-2.499974,51.462895
106.96,THE VILLAGE SURGERY,-2.219972,53.033945
157.59,BIDDULPH VALLEY SURGERY,-2.178498,53.116111
42.1,RIVERSIDE SURGERY,-1.699518,52.632337
71.16,THREE VILLAGES MEDICAL PRACTICE,-2.146398,52.465406
39.07,STONE CROSS MEDICAL CENTRE,-1.982689,52.545444
55.87000000000001,STOCKTON HEATH MED.CENTRE,-2.582161,53.37195
49.25,THE VILLAGE SURGERIES GROUP,-2.771265,53.124246
1511.9,ILEX VIEW MEDICAL PRACTICE,-2.280663,53.70081
48.74,SHIFA SURGERY,-2.475999,53.757295
35.09,CHORLTON FAMILY PRACTICE,-2.279717,53.443773
80.2,OLDHAM MEDICAL SERVICES,-2.111235,53.52535699999999
22.4,MELROSE SURGERY,-0.9598620000000002,51.451692
38.44,DR R KAPUR & PARTNERS,-1.119092,52.631036
53.57,LEADGATE SURGERY,-1.805988,54.860562
129.02,ACLE MEDICAL PARTNERSHIP,1.548667,52.640969
17.89,PEEL CROFT,-1.6339549999999998,52.799271
69.33,MARTONSIDE MEDICAL CENTRE,-1.220329,54.553175
30.01,ROCKLIFFE COURT SURGERY,-1.544074,54.483444
108.82999999999998,BEDLINGTONSHIRE MED.GROUP,-1.598682,55.1322
48.73,WESTBOURNE SURGERY,-1.8061,53.650937
65.19,MIDDLESTOWN,-1.600562,53.650545
13.45,DR WEBB AND PARTNERS,-1.308041,52.968251
45.22,GOYT VALLEY MEDICAL PRACTICE,-1.983113,53.3305
86.47,CASTLE STREET MEDICAL CENTRE,-1.293753,53.229627
80.74000000000002,SILVERDALE MEDICAL CENTRE,-1.090548,52.672318
156.02,HOLT MEDICAL PRACTICE,1.116042,52.914476
94.8,HOWARD HOUSE SURGERY,1.349626,51.96149
86.18,PARKBURY HOUSE SURGERY,-0.334063,51.756766
17.880000000000006,UXENDON CRESCENT SURGERY,-0.292809,51.572063
26.16,STERNDALE SURGERY,-0.221441,51.498326
136.82999999999998,AEGIS MEDICAL CENTRE,0.467525,51.57556
38.25,AMWELL GROUP PRACTICE,-0.11081700000000001,51.528043
1076.24,MEOPHAM MEDICAL CENTRE,0.359744,51.368901
52.16,WESTERHAM PRACTICE,0.070437,51.266465
50.59,FORGE CLOSE SURGERY,0.016555,51.377137
61.06,STEYNING HEALTH CENTRE,-0.329972,50.890666
108.56,LAVANT ROAD SURGERY,-0.781051,50.853385
27.34,THORNTON & VALLEY PARK SURGERY,-0.120709,51.388871
50.69,JOHNSON (SHEEN LANE),-0.267239,51.465848
50.42,BEGG PRACTICE,-0.179391,51.459968
10.17,MOORDOWN MEDICAL CENTRE,-1.874485,50.756212
14.6,LITTLEDOWN SURGERY,-1.833439,50.741638
91.3,EMMER GREEN SURGERY,-0.972861,51.483584
25.14,WOLVERTON HEALTH CENTRE,-0.814934,52.054197
140.28,ST THOMAS MEDICAL GROUP,-3.54518,50.714472
58.97,YOXALL,-1.7931740000000003,52.767984
26.22,GREET MEDICAL PRACTICE,-1.857778,52.453195
43.07,PEDMORE MEDICAL PRACTICE,-2.118211,52.457029
95.65,BOSWORTH MEDICAL CENTRE,-1.7536330000000002,52.480569
136.77999999999997,THE PARK MEDICAL PRACTICE,-2.739045,53.77018
19.94,CROSSWAYS PRACTICE,-3.023992,53.484655
55.28,THE OLD DISPENSARY,-1.987226,50.803427
22.2,STROUD GREEN MEDICAL CENTRE,-0.114328,51.570059
153.44,WEST SOMERSET HEALTHCARE,-3.3186760000000004,51.161419
118.58,WEM AND PREES MEDICAL PRACTICE,-2.722566,52.859338
50.99,ALL SAINTS SURGERY,-1.644121,52.794285
123.54,CENTRAL SURGERY,-1.265473,52.371743
67.63000000000001,OMNIA PRACTICE,-1.839082,52.475709
50.85,SCHOOLACRE ROAD SURGERY,-1.785797,52.497659
65.45,DORRIDGE SURGERY,-1.752074,52.372757
122.02,MORETON CROSS GROUP PRACTICE,-3.111975,53.403551
138.38,WITTON MEDICAL CENTRE,-2.507553,53.740232
27.65,WEST COMMON LANE TEACHING PRACTICE,-0.682441,53.57473100000001
22.01,QUEENS ROAD SURGERY,-1.474524,52.522119
1.85,BEVAN HEALTHCARE CIC,-1.753352,53.795581
104.18,RIVERSIDE MEDICAL PRACTICE,-1.315584,54.56887
10.89,MEDICUS HEALTH PARTNERS-ENFIELD ISLAND,-0.016992,51.668586
131.93,RISING BROOK,-2.118782,52.787133
93.24,ST JAMES MEDICAL PRACTICE2,-2.097323,52.514234
33.54,KHAN MEDICAL PRACTICE,-2.000799,52.613174
2.88,LINGHOLME HEALTH CENTRE,-2.744752,53.457769
133.42000000000002,PEEL HOUSE MEDICAL PRACTICE,-2.365995,53.75089200000001
33.32,ASHURST PRIMARY CARE,-2.772723,53.563208
2.5700000000000003,RED BANK GROUP PRACTICE,-2.323706,53.560143
47.68,MARPLE BRIDGE SURGERY,-2.053323,53.400594
130.69,GRASMERE SURGERY,-2.511455,53.503236
77.01999999999998,GRAVESEND MEDICAL CENTRE,0.369986,51.443932
53.89,PEASE WAY MEDICAL CENTRE,-1.576495,54.618581
17.69,ELSDON AVENUE SURGERY,-1.525885,55.07062
44.29,DR WICKREMESINGHE SSG,-0.123521,51.469491
323.59,TELDOC,-2.435206,52.672614
41.8,CROSLAND MOOR SURGERY,-1.809637,53.63841
15.02,THE ROSEBERRY PRACTICE,-1.292215,54.611726
149.98000000000005,ST ANDREW'S MEDICAL PRACTICE,-1.598213,54.699634
94.42,TANFIELD VIEW MEDICAL GROUP,-1.701373,54.869939
6.99,DR MITCHELL,-0.503581,53.72075
103.33,BEECH HOUSE SURGERY,-1.465892,54.010836
84.25,MANOR PARK SURGERY,-1.628914,53.814076
28.47,PARKSIDE SURGERY,-1.391868,53.097732
135.53,SPINNEY HILL MEDICAL CENTRE,-1.109212,52.637381
21.17,SPRINGFIELD MEDICAL CENTRE,-1.195502,53.003599
128.31,PARKGATE MEDICAL CENTRE,-1.342798,53.455454
45.90000000000001,BURWELL SURGERY,0.331841,52.273327
34.44,MARTLESHAM SURGERY,1.272068,52.061314
10.92,THE AVENUE SURGERY,-0.319031,51.518389
34.67,THE LILYVILLE SURGERY,-0.199155,51.47377
20.96,WEST LONDON MEDICAL CENTRE,-0.454699,51.525731
201.6,ST.JAMES SURGERY,1.147433,51.787326
32.17,WITHAM HEALTH CENTRE,0.642876,51.800559
28.44,QUEENS AVENUE PRACTICE,-0.147916,51.591852
90.22000000000001,SANDWICH MEDICAL PRACTICE,1.337364,51.274071
6.58,DR RHK SINHA'S PRACTICE,-0.103058,51.482668
34.629999999999995,THE ADDISCOMBE SURGERY,-0.061851,51.376293
145.85,ADELAIDE MEDICAL CENTRE,-1.475274,51.208539
130.64,THE CAMBRIDGE PRACTICE,-0.76565,51.254364
21.14,JAI MEDICAL CENTRE (BRENT),-0.270721,51.598168
22.88,THORNBURY ROAD CENTRE FOR HEALTH,-0.345443,51.474432
39.72,DR SIVANESAN & PARTNER,-0.368739,51.521097
37.76,THE SALUJA CLINIC,-0.38043,51.512742
28.98,GILL MEDICAL PRACTICE,-0.404921,51.451481
94.49000000000002,ROBERT FREW MEDICAL CENTRE,0.535838,51.602009
53.11,THE WRITTLE SURGERY,0.426548,51.73248
68.48,HUMBER ROAD SURGERY,0.48396000000000006,51.747558
112.92,MEDICUS HEALTH PARTNERS-FREEZYWATER PCC,-0.040104,51.674558
72.36,VANBRUGH GROUP PRACTICE,0.008553,51.48607
37.32,MORDEN HILL SURGERY,-0.012291,51.469123
24.83,PARK MEDICAL CENTRE,-0.049813,51.492146
38.37,AUSTEN ROAD SURGERY,-0.557983,51.237261
97.72000000000001,WONERSH SURGERY,-0.545609,51.197393
79.45,SPRING STREET SURGERY,-0.252307,51.350378
140.92000000000004,MAYWOOD HEALTH CARE CENTRE,-0.693582,50.786664
16.72,DANEBURY AVENUE SURGERY,-0.248646,51.452353
147.21,NORTH SWINDON PRACTICE,-1.807748,51.592341
53.26,TWYFORD SURGERY,-0.862762,51.481804
5.76,DR NABI,-0.632139,51.518854
48.18000000000001,OAKRIDGE PARK MEDICAL CENTRE,-0.777853,52.068655
16.240000000000002,ST.MICHAEL'S SURGERY,-2.399483,51.381854
72.95,CADBURY HEATH HEALTHCARE,-2.488652,51.447306
29.92,SOUTHWAY SURGERY,-4.133237,50.427678
76.12,WODEN ROAD SURGERY,-2.110037,52.593318
27.11,DR SHARMA,-2.077177,52.568442
754.37,APPLETON VILLAGE SURGERY,-2.729552,53.371391
70.93000000000002,THE GREAT SUTTON MED.CTR. (BLUE),-2.937481,53.27699200000001
37.43,PHOENIX MEDICAL CENTRE,-2.740123,53.455695
30.63,STRENSHAM ROAD SURGERY,-1.892563,52.453843
30.38,BUCKSHAW VILLAGE HEALTH CENTRE,-2.658003,53.678415
7.2,QUEENS PARK HEALTH CENTRE,-0.205826,51.530911
96.27,NEWBURN SURGERY,-1.743614,54.985644
44.71,DR WEATHERHEAD & ASSOCIATES,-1.401824,54.919455
139.07,LISTER LANE SURGERY,-1.8654959999999998,53.722573
68.99000000000001,EAST PARK MEDICAL CENTRE,-1.514944,53.793168
15.1,PARK LANE SURGERY,-1.479808,52.955553
44.4,ST ALBANS MEDICAL CENTRE,-1.193037,53.007115
83.64,THE ROSE TREE PMS PRACTICE,-1.416417,53.578187
84.69,FAR LANE MEDICAL CENTRE,-1.507692,53.409335
191.15,HELLESDON MEDICAL PRACTICE,1.253831,52.670098
39.48,WYMONDHAM MEDICAL PARTNERSHIP,1.121665,52.572176
55.05,DORMERS WELLS MEDICAL CENTRE,-0.365362,51.514997
9.46,GLENDALE MEDICAL CENTRE,-0.434503,51.490429
8.429999999999998,CRAWFORD STREET SURGERY,-0.161224,51.519321
161.58999999999997,CHURCH VIEW SURGERY,0.656272,51.600376
5.140000000000001,STEEPLE BUMPSTEAD SURGERY,0.447079,52.039986
7.2,THE FOREST SURGERY,-0.005037,51.594726
162.01,THE NEW SURGERY,1.181851,51.089152
53.34,INGLETON AVENUE SURGERY,0.10408699999999999,51.454007
21.2,BECKETT HOUSE PRACTICE,-0.123521,51.469491
8.019999999999998,MAYBURY SURGERY,-0.53899,51.325599
178.12,CATHEDRAL MEDICAL GROUP,-0.7764299999999998,50.832176
72.4,PARKWAY HEALTH CENTRE (01),-0.018557,51.344382
71.06999999999998,SOUTHBOURNE PRACTICE,-1.8141470000000002,50.72812
35.98000000000001,CLAREMONT HOLYPORT SURGERY,-0.71973,51.524993
64.0,LOCKING HILL SURGERY,-2.216093,51.747198
183.76,THE LIMES MEDICAL CENTRE,1.385395,51.390977
32.9,BULBANKS MEDICAL CENTRE,0.166234,51.488523
21.35,HERNE HILL ROAD MEDICAL PRACTICE,-0.100485,51.465549
82.01,ST JOHN'S FAMILY PRACTICE,-0.597884,51.31196
187.06,PARK SURGERY,-0.327381,51.064354
70.01,DOWNTON SURGERY,-1.741585,50.991794
14.43,SAMPFORD PEVERELL SURGERY,-3.378398,50.919726
23.84,NEWNHAM SURGERY,-2.448564,51.804811
39.28,FERNLEY MEDICAL CENTRE,-1.864567,52.451603
140.26000000000002,MANOR HOUSE LANE SURGERY,-1.802707,52.46130600000001
8.429999999999998,THE HANDBRIDGE MED.CTR.,-2.889428,53.183658
22.2,PICTON GREEN,-2.943016,53.398876
77.2,THE MACMILLAN SURGERY,-2.884427,53.482603
105.97,YORKSHIRE STREET MEDICAL CENTRE,-2.234655,53.789105
21.18,BRADFORD STREET SURGERY,-2.418225,53.576838
100.43,HULME HALL MEDICAL GROUP,-2.191357,53.366475
44.15,OLD SCHOOL SURGERY,1.00666,51.253788
48.86,THE BARKANTINE PRACTICE,-0.025725,51.500806
42.29,DEPTFORD MEDICAL CENTRE,-0.02709,51.474535
17.58,FIRST CHOICE MEDICAL CARE,-0.375726,51.571243
72.92,SILVERDALE FAMILY PRACTICE,-1.410087,54.800244
69.98,WHICKHAM COTTAGE MEDICAL CENTRE,-1.677226,54.94538000000001
57.31,THE BRIDGE GROUP PRACTICE,-0.375759,53.787555
73.93,DR AC MILNER,-0.434335,53.748495
33.78,AMPLEFORTH SURGERY,-1.104697,54.200351
4.32,THE LISTER SURGERY,-1.77624,53.807296
18.09,AIRE VALLEY SURGERY,-1.684881,53.866663
23.95,PROSPECT SURGERY,-1.583343,53.681523
62.66,BOULTHAM PARK MEDICAL PRACTICE,-0.560497,53.211134
18.39,RHR MEDICAL CENTRE,-1.225502,52.978502
61.27,CARTERKNOWLE & DORE MEDICAL PRACTICE,-1.488728,53.353454
32.43,DARNALL HEALTH CENTRE (MEHROTRA),-1.410397,53.388203
84.87,EVEREST HOUSE SURGERY,-0.448848,51.755442
8.82,ACTON TOWN MEDICAL CENTRE,-0.28217,51.50246
30.85,THE PINE MEDICAL CENTRE,-0.416838,51.527591
53.22,DR C OLA'S PRACTICE,0.16367,51.542357
73.67,ISLINGTON CENTRAL MEDICAL CENTRE,-0.10550599999999999,51.544561
38.86,QUEENS CRESCENT PRACTICE,-0.151779,51.549657
14.77,THE GROVE ROAD SURGERY,-0.038875,51.529785
74.25,EAST ONE HEALTH,-0.055203,51.513746
30.02,LATYMER ROAD SURGERY,-0.066553,51.628128
3.3,HIGHAM HILL MEDICAL CENTRE,-0.034616,51.594829
97.11000000000001,MINSTER SURGERY,1.314866,51.334402
26.32,COLDHARBOUR HILL PMS,0.059184,51.432116
80.87999999999998,EARLSFIELD SURGERY,-0.187631,51.438287
58.28,PENNY'S HILL PRACTICE,-1.894499,50.801788
29.09,HILL LANE SURGERY,-1.41571,50.915802
71.47999999999998,LANGLEY HEALTH CENTRE,-0.541284,51.495313
49.09,KENNEDY WAY SURGERY,-2.415136,51.539619
71.31,SUNNYSIDE SURGERY,-5.545142,50.122396
23.03,WOODBURY SURGERY,-3.400157,50.674
101.89,YORK HOUSE MEDICAL CTR.,-2.280438,52.339069
10.9,PARK LANE SURGERY,-1.425131,54.604639
2.88,DALSTON MEDICAL GROUP,-2.985542,54.841376
184.95,DOCTOR LANE HEALTH CENTRE,-1.696722,53.675715
90.35,OLD STATION SURGERY,-1.312469,52.978912
66.1,FAMILY FRIENDLY SURGERY,-1.288663,53.230325
102.83,BARROW HEALTH CENTRE,-1.149088,52.751623
3.29,HUSBANDS BOSWORTH MEDICAL CENTRE,-1.056212,52.449479
99.06,STENHOUSE MEDICAL CENTRE,-1.130211,53.005324
36.44,LITTLE ST JOHN STREET SURGERY,1.319292,52.094018
28.89,PUTNOE MEDICAL CENTRE PARTNERSHIP,-0.438308,52.147939
110.14,SUTHERGREY HOUSE MEDICAL CENTRE,-0.400244,51.660755
44.57,THE SPEEDWELL PRACTICE,-0.17501,51.617149
10.08,IMPERIAL COLLEGE HEALTH CENTRE,-0.172669,51.50022
115.81,THORPE SURGERY,1.161634,51.857976
31.22,CENTRAL PARK SURGERY,0.224895,51.606266
3.39,DR MARKS PRACTICE,0.192379,51.572553
61.18,THE MISSION PRACTICE,-0.056483,51.531373
26.630000000000006,THE COLLEGE PRACTICE,0.522256,51.2684
137.85000000000002,ST.WERBURGH MED.PRACTICE,0.562721,51.423453
27.35,TUDOR WAY SURGERY,0.078424,51.388791
49.62,ST GILES SURGERY,-0.08417099999999998,51.474546
40.04,OUSE VALLEY PRACTICE,-0.201476,51.060269
50.66,BRAMBLYS GRANGE MEDICAL PRACTICE,-1.086369,51.267215
13.05,RAYMOND ROAD SURGERY,-1.419748,50.91941
82.96,WATERSHIP DOWN HEALTH,-1.246599,51.326264
4.32,LUTHER STREET MEDICAL PRACTICE,-1.258255,51.747356
59.83,BOTTREAUX SURGERY,-4.69177,50.684001
97.48,THE PORTLAND PRACTICE,-2.0815,51.906706
27.44,BELVIDERE MEDICAL PRACT.,-2.729864,52.70734
65.17999999999999,HELSBY HEALTH CENTRE,-2.770522,53.270467
66.94999999999999,LATCHFORD MEDICAL CENTRE,-2.561658,53.381001
34.11,NORTHGATE VILLAGE SURGERY,-2.892972,53.19509300000001
32.79,KNOTTY ASH MEDICAL CENTRE,-2.88707,53.419961
65.92,DR CUNNINGHAM & PARTNERS,-2.224996,53.470565
82.95,LEES MEDICAL PRACTICE,-2.074881,53.54028100000001
34.85,MANOR HOUSE SURGERY,-0.161227,51.916084
42.83,ROCKLEIGH COURT SURGERY,0.326872,51.63026
28.17,SOUTH SAXON HOUSE SURGERY,0.526723,50.868702
217.5,IVY COURT SURGERY,0.690221,51.068039
89.08000000000001,ROWAN TREE PRACTICE,-0.459783,51.37345
84.03999999999998,VILLAGES MEDICAL CTR,-0.523731,51.28718
163.34,LIME TREE SURGERY,-0.395859,50.848816
34.96,CENTRAL MEDICAL CENTRE,-0.188927,51.398227
54.9,TESTVALE SURGERY,-1.489898,50.919405
32.28,FOREST HEALTH GROUP,-0.745846,51.41381
73.03,OUNDLE,-0.472297,52.485583
37.9,BARTON SURGERY,-4.088247,50.359085
98.9,PRESTON GROVE MEDICAL CENTRE  YEOVIL,-2.644279,50.94185
574.21,HAZELWOOD GROUP PRACTICE,-1.706804,52.496959
107.96,MILLENNIUM MEDICAL CENTRE,-1.9669470000000002,52.437633
35.86,GEORGE ELIOT MEDICAL CENTRE,-1.506534,52.419528
17.89,BIRCHILLS HEALTH CENTRE,-1.99541,52.591122
117.28,DEVANEY MED CTR,-3.037525,53.3852
223.32,EXCEL PRIMARY CARE,-2.758901,53.538343
11.62,FAIRFAX GROUP PRACTICE,-2.28357,53.533828
1540.61,FAILSWORTH GROUP PRACTICE,-2.156747,53.509855
47.40000000000001,HEADY HILL SURGERY,-2.241622,53.59365699999999
35.68,DR A MOGHAL'S PRACTICE,0.141076,51.559372
7.6099999999999985,PEARL MEDICAL PRACTICE,-0.306785,51.549713
371.8,NORTH CLACTON MEDICAL PRACTICE,1.162631,51.818131
78.64,GREAT OAKLEY MEDICAL CENTRE,-0.721317,52.470376
63.84,DAM HEAD MEDICAL CENTRE,-2.21232,53.526139
31.25,GROVE SURGERY,-1.79086,50.7445
43.75,LANTERN HEALTH-CARPENTERS PRACTICE,-0.003474,51.537165
1.44,NURSING HOME PROJECT TEAM (SOUTH),-2.25528,53.390625
52.68,GRANGE FARM MEDICAL CENTRE,-1.235252,52.960227
114.96,PRIORY MEDICAL GROUP,-1.450123,55.010031
112.1,NEW SILKSWORTH MEDICAL PRACTICE,-1.407217,54.870954
158.66,BEACON MEDICAL,-0.037662,53.557
116.34,THE CHANTRY HEALTH GROUP,-0.091675,53.563205
84.45,RYDINGS HALL SURGERY,-1.782549,53.703064
122.9,THE VILLAGE SURGERY,-1.343137,53.10449499999999
98.34,EMPINGHAM MEDICAL CENTRE,-0.593784,52.667718
137.46,GREAT NORTH MEDICAL GROUP,-1.186019,53.583324
83.09999999999998,BENTLEY SURGERY,-1.146786,53.546053
196.7,THE MILLWOOD PARTNERSHIP,1.6984549999999998,52.584751
54.25,THE CIRCLE PRACTICE,-0.320613,51.601113
13.88,LANCELOT MEDICAL CENTRE,-0.299498,51.552907
10.329999999999998,WILLOW PRACTICE,-0.359614,51.461125
51.38,THAXTED SURGERY,0.343457,51.95519
11.88,CHESHIRE ROAD SURGERY,-0.1137,51.607188
22.21,CASTLE MEDICAL PRACTICE,0.507384,51.37935
64.13,THE SANDHURST GROUP PRACTICE,-0.7783379999999998,51.352512
76.17,THEALE MEDICAL CENTRE,-1.080703,51.438261
49.03999999999999,MANN COTTAGE SURGERY,-1.705957,51.983554
65.35,FERRY ROAD HEALTH CENTRE,0.7280759999999998,50.951404
35.0,WATERFIELD HOUSE SURGERY,0.329031,51.14815
38.55,THE FERNS MEDICAL PRACTICE,-0.784377,51.220758
59.37,CUCKFIELD MEDICAL CENTRE,-0.136629,51.009425
81.51999999999998,GIFFORDS PRIMARY CARE CTR,-2.130879,51.367813
130.47,CLEVEDON MEDICAL CENTRE,-2.84572,51.437228
52.94,SOUTH BRENT HEALTH CENTRE,-3.833473,50.423571
16.03,CHAGFORD HEALTH CENTRE,-3.836747,50.671452
170.66,THE CHURCH STREET PRACTICE,-2.251069,52.389036
156.36,CROFT MEDICAL CENTRE,-1.511374,52.278398
82.54999999999998,THE SWAN MEDICAL CENTRE,-1.817596,52.462579
58.09,BARTLEY GREEN MEDICAL PRACTICE,-2.003045,52.436235
8.12,BOURNVILLE SURGERY,-1.933138,52.431128
97.21,THE JACEY PRACTICE,-1.821273,52.419657
460.31,ASTON HEALTHCARE LIMITED,-2.831049,53.404553
29.910000000000004,SANDFIELD MEDICAL CENTRE,-2.743577,53.450846
168.72,WATERLOO MEDICAL CENTRE,-3.041358,53.799799
171.40999999999997,NEW COLLEGIATE MEDICAL CENTRE,-2.236077,53.504378
9.040000000000001,MEDICUS HEALTH PARTNERS-GREEN STREET,-0.044502,51.657069
7.2,AMAANAH MEDICAL PRACTICE,-1.851957,52.490838
17.28,SCOTS GAP MEDICAL GROUP,-1.940563,55.172746
1.84,FRIZINGHALL MEDICAL CENTRE,-1.773597,53.818858
107.54,STURDEE ROAD HEALTH AND WELLBEING CENTRE,-1.143296,52.590435
69.04,SKEGBY FAMILY MEDICAL CENTRE,-1.273344,53.142337
16.240000000000002,NORTH LEVERTON SURGERY,-0.8222450000000001,53.332038
103.17,ALCONBURY SURGERY,-0.256797,52.371699
80.48999999999998,THE LONG MELFORD PRACTICE,0.7207519999999998,52.076465
10.89,FRAMFIELD HOUSE SURGERY,1.308174,52.090193
19.33,GREENSAND SURGERY (AMPTHILL),-0.493277,52.026193
21.49,KINGS ROAD SURGERY,-0.376476,51.567603
9.809999999999999,THE CHURCHFIELD ROAD SURGERY,-0.266614,51.508768
80.2,THE WARREN PRACTICE,-0.408587,51.519684
31.55,DR AA ANSARI'S PRACTICE,0.0943,51.535424
69.18,THE RISE GROUP PRACTICE,-0.125007,51.571444
46.98,HERSTMONCEUX INTEGRATIVE HEALTH CENTRE,0.31697,50.887451
16.44,HIGHLAND ROAD SURGERY,0.006131,51.410167
55.93,FLEET MEDICAL CENTRE,-0.848607,51.288193
110.46,LAUNCESTON MEDICAL CENTRE,-4.360007,50.627668
95.48,SOUTH LAWN MEDICAL PRACTICE,-3.505542,50.723202
61.53,PERSHORE MEDICAL PRACTICE,-2.077775,52.114043
188.6,CHURCHMERE MEDICAL GROUP,-2.896494,52.907846
39.05,TRI-LINKS MEDICAL PRACTICE,-1.664038,52.634849
39.29,SPA MEDICAL CENTRE,-1.525278,52.284514
55.38999999999999,JAMES STREET GROUP PRACT,-3.550292,54.644831
104.84,NORTH HOUSE SURGERY,-1.747262,54.716993
38.3,THROCKLEY PRIMARY CARE CENTRE,-1.758854,54.992882
331.85,EAST HULL FAMILY PRACTICE,-0.308391,53.755107
35.050000000000004,DELTA HEALTHCARE,-0.292835,53.764281
67.06,PARK VIEW SURGERY,-0.435833,53.72979
27.62,STAITHES SURGERY,-0.7941129999999998,54.553165
