total_cost,name,longitude,latitude
478.18000000000006,GREENFORD ROAD MED.CTR.,-0.345702,51.537697
573.5500000000002,THE OAKLAND MEDICAL CENTRE,-0.45129300000000006,51.546055
284.9100000000001,QUEENS WALK MEDICAL CENTRE,-0.393155,51.562716
436.64,THE ABINGDON HEALTH CENTRE,-0.197138,51.496085
664.5000000000001,THE ARDLEIGH SURGERY,0.985096,51.927073
1035.9,ADDISON HOUSE - HAQUE PRACTICE,0.088979,51.770891
489.17,ST PETER'S STREET MEDICAL PRACTICE,-0.100772,51.535597
241.18,ABERFELDY PRACTICE,-0.004927,51.514483
1372.99,STONE CROSS SURGERY,0.289944,50.816757
414.93,ELTHAM PALACE PMS,0.053714,51.449946
648.2500000000001,BROCKBANK (PARK ROAD),-0.334596,51.423912
830.2799999999999,CHAWTON PARK SURGERY,-0.989411,51.139814
540.0400000000001,STOKENCHURCH MEDICAL CTRE,-0.904033,51.660479
306.7999999999999,MARSHALLS ROAD SURGERY,-0.539225,52.344743
299.5300000000001,HOLLINSWOOD SURGERY,-2.437453,52.673936
289.9500000000001,ABBOTS BROMLEY SURGERY,-1.880966,52.819974
1491.0699999999995,DARWIN MEDICAL CENTRE,-1.831505,52.694061
1301.0799999999995,THE OAKS MEDICAL CENTRE,-1.895827,52.552454
211.9,VICTORIA ROAD MEDICAL CTR,-1.887197,52.501868
1382.16,ST JOHN'S MEDICAL CENTRE,-1.932532,52.626307
533.05,NEWBRIDGE SURGERY,-2.155299,52.5936
1917.26,THE CORNERSTONE PRACTICE,-2.4524,53.739201
640.5899999999998,TOWNSIDE SURGERY,-2.29898,53.59031
461.39,GOODMAYES MEDICAL CENTRE,0.10990599999999999,51.567626
256.46000000000004,PARK GRANGE MEDICAL CENTRE,-1.775929,53.789415
150.89,ST.GEORGES MEDICAL CENTRE,-0.24612,51.558731
320.76,HETHERINGTON AT THE PAVILION,-0.116397,51.461633
737.52,OAKWOOD MEDICAL CENTRE,-0.134269,51.646534
661.5300000000002,SOUTH HERMITAGE SURGERY,-2.752497,52.699728
5.88,PCEC,-2.227711,53.462436
32.0,EAST KENT HEADACHE SERVICE,1.414787,51.390277
45.22,SMGPF,-2.237795,53.434307
3.5600000000000005,DCHS DERBY CITY,-1.441882,53.221288
458.28,REDBURN PARK MEDICAL CENTRE,-1.474775,55.00092
254.84000000000003,CASTLETOWN MEDICAL CENTRE,-1.450848,54.913341
255.2,ALDBROUGH ST JOHN SURGERY,-1.684645,54.496518
285.62,EAST PARADE MEDICAL PRACTICE,-1.061835,53.965993
141.59000000000003,BARKEREND HC - EL ELIWI,-1.7218490000000002,53.797834
2382.26,SHAFTESBURY MEDICAL CTR.,-1.497858,53.800234
650.2000000000002,GROBY ROAD MEDICAL CENTRE (ID PATCHETT),-1.150468,52.644337
356.2099999999999,ROSEMEAD DRIVE SURGERY,-1.083088,52.5934
83.67,AR-RAZI MEDICAL CENTRE,-1.101204,52.623926
774.56,BRANSTON & HEIGHINGTON FAMILY PRACTICE,-0.467988,53.195831
1547.21,FOUNTAIN MEDICAL CENTRE,-0.8043829999999998,53.07286
598.8400000000001,OAKENHALL MEDICAL PRACT,-1.199437,53.03661700000001
950.0600000000003,SCAWSBY HEALTH CENTRE PRACTICE,-1.167843,53.53678299999999
1011.79,ST. GEORGE'S MEDICAL CENTRE,0.298817,52.458085
835.5699999999998,LAWNS PRACTICE,1.109092,52.378889
869.4000000000002,CENTRAL SURGERY,0.147747,51.812546
386.94,CHURCH END MEDICAL CENTRE,-0.253241,51.54757
427.8400000000001,BRENTFORD GROUP PRACTICE,-0.310054,51.48676
476.83,THE DEVONSHIRE LODGE PRACTICE,-0.397406,51.579266
238.71,THE HOXTON SURGERY,-0.086829,51.533527
285.32,LL MEDICAL CARE LTD,0.0021,51.555415
1471.86,JUBILEE MEDICAL CENTRE,0.300332,51.3978
425.5300000000001,LAMBETH WALK GROUP PRACTICE,-0.11259100000000001,51.495609
760.63,STANWELL ROAD SURGERY,-0.470567,51.438013
3786.9400000000014,THE ADAM PRACTICE,-2.07822,50.757881
489.43000000000006,SOUTHMEAD SURGERY,-0.616953,51.552538
266.89000000000004,CLIFTON HAMPDEN SURGERY,-1.211451,51.658625
446.88000000000005,GROOMBRIDGE AND HARTFIELD MED GRP,0.184416,51.113952
692.0800000000002,POND TAIL SURGERY,-0.066728,51.246436
1470.55,THE WALL HOUSE SURGERY,-0.208192,51.241304
233.36,THE HALING PARK PARTNERSHIP,-0.098109,51.357113
590.71,THE PRINCE OF WALES SURGERY,-2.457579,50.713502
953.8900000000001,BRANKSOMEWOOD H/CARE CTR,-0.8448069999999998,51.281888
649.1099999999999,THE GROVE SURGERY,-0.735114,52.023651
871.2500000000001,PROBUS SURGERY,-4.948542,50.290121
1401.72,ABBEY SURGERY,-4.150401,50.546904
912.0900000000001,WHITEACRES MEDICAL CENTRE,-2.300547,52.124716
281.45000000000005,WOODSIDE MEDICAL PRACTICE,-2.466175,52.637949
868.2299999999998,LYME VALLEY MEDICAL CENTRE,-2.22375,53.006305
609.4,AUDLEM MEDICAL PRACTICE,-2.508717,52.989615
640.1800000000002,KENNETH MACRAE MED CENTRE,-2.786435,53.49903
1191.33,BODEY MEDICAL CENTRE,-2.214798,53.440636
328.9000000000001,WOODLANDS MEDICAL PRACTICE,-2.31213,53.406624
295.37,DR PAL,-2.595495,53.47988
348.84,BATH ROAD SURGERY,-0.37684,51.469395
701.67,CHAPEL ROW SURGERY,-1.17086,51.425877
355.16999999999985,WOODLANDS MEDICAL PRACTICE,-0.170943,51.592914
20.8,NORTH LINCOLNSHIRE OOH,-0.667599,53.587582
3.6,EPUT COMMUNITY CARDIOLOGY,0.12393,51.704295
16.55,SOUTH YORK HEART FAILURE NURSES,-1.082907,53.951837
1.94,HEALTHBRIDGE DIRECT,0.020102,51.608432
0.61,EXTENDED HOURS SERVICE-ONE LIFE,-1.214164,54.682342
737.1699999999998,CRAMLINGTON MEDICAL GROUP,-1.591516,55.084481
1937.7000000000005,KINGSTON MEDICAL GROUP,-0.349365,53.756137
271.17,WESTFIELD MEDICAL CENTRE,-1.531703,53.817673
938.43,VERNON STREET MEDICAL CTR,-1.49039,52.924019
585.49,STUBLEY MEDICAL CENTRE,-1.488541,53.304986
1525.14,BRIDGE COTTAGE SURGERY,-0.215995,51.830002
672.66,GRANGE STREET SURGERY,-0.335878,51.757298
262.38,CHICHELE ROAD SURGERY,-0.216241,51.55483
232.51,SHIRLAND ROAD MEDICAL CENTRE,-0.203904,51.5292
676.44,DR KRISHNAN & PTNR - KENT ELMS HC,0.664114,51.563831
368.19000000000005,CRANHAM HEALTH CENTRE,0.265291,51.568865
409.01000000000016,ST PETER'S SURGERY,1.41893,51.362936
384.3299999999999,LEWISHAM MEDICAL CENTRE,0.004522,51.458513
319.2300000000001,STEWKLEY ROAD SURGERY,-0.71666,51.898041
218.91000000000003,SIBFORD SURGERY,-1.479244,52.037614
1228.68,NEW COURT SURGERY,-2.958059,51.345794
1874.97,AXMINSTER MEDICAL PRACTICE,-2.999226,50.780899
2185.850000000001,COLERIDGE MEDICAL CENTRE,-3.2835660000000004,50.751704
692.48,LYDNEY PRACTICE,-2.529867,51.727913
646.82,PRICES MILL SURGERY,-2.224938,51.693801
1158.5599999999995,ST. JOHNS SURGERY,-2.059728,52.337612
1118.5300000000002,THE ALDERGATE MED.PRACT.,-1.695644,52.639079
671.8100000000002,YARDLEY WOOD HEALTH CENTRE,-1.859168,52.418648
947.5299999999999,MONTAGUE MEDICAL PRACTICE,-0.872899,53.707031
1421.6400000000006,EASTGATE MEDICAL GROUP,-1.462815,54.006795
1160.8900000000006,HORTON BANK PRACTICE,-1.806018,53.774478
876.1799999999998,MARSH MEDICAL PRACTICE,0.143689,53.445069
2407.86,HUDDERSFIELD ROAD SURGERY,-1.485631,53.558165
1453.1400000000006,SWALLOWNEST HEALTH CENTRE,-1.317097,53.362997
1005.9300000000003,SHERINGHAM MEDICAL PRACTICE,1.214777,52.939688
1317.07,KNEBWORTH & MARYMEAD MEDICAL PRACTICE,-0.184972,51.866323
222.42,THE HODFORD ROAD PRACTICE,-0.199318,51.569038
583.3699999999999,HAZELDENE MEDICAL CENTRE,-0.275394,51.547592
526.8499999999999,CLOISTER ROAD SURGERY,-0.265589,51.521352
429.94999999999993,ABBEY ROAD MEDICAL PRACTICE,0.005881,51.534784
282.39,BOUNDARY HOUSE SURGERY,-0.054245,51.632475
1074.59,MANOR PARK MEDICAL CENTRE,0.24261,50.819107
1000.81,CHURCH LANE HEALTH CENTRE,0.941162,50.984187
2161.2500000000005,BETHESDA MEDICAL CENTRE,1.414787,51.390277
1025.4799999999998,WOODLANDS SURGERY,0.088913,51.439755
1451.8299999999995,LILLIPUT SURGERY,-1.954229,50.711523
2099.46,WESTBURY GROUP PRACTICE,-2.203558,51.252792
1574.4,PENRYN SURGERY,-5.10336,50.167504
817.61,CROWN MEDICAL CENTRE,-3.080969,51.029111
958.81,BARN CLOSE SURGERY,-1.859248,52.03627
161.48999999999995,HIGHLEY MEDICAL CENTRE,-2.392978,52.456165
388.01000000000016,ALVELEY MEDICAL PRACTICE,-2.353309,52.454738
554.2400000000001,WOLSTON SURGERY,-1.392727,52.376806
466.64,BALLIOL ROAD SURGERY,-1.471449,52.415924
620.43,NEWTON MEDICAL CENTRE,-2.638386,53.457172
680.6300000000001,GREASBY GROUP PRACTICE,-3.121417,53.377628
404.39,LOSTOCK HALL MEDICAL CTR.,-2.688037,53.727502
288.48,KNOWSLEY MEDICAL CENTRE,-2.300551,53.588497
403.43000000000006,TIMPERLEY HEALTH CENTRE (WESTWOOD),-2.323566,53.397228
0.25,ST JOSEPH'S HOSPICE  HACKNEY,-0.056255,51.537053
427.9,PENINSULA MEDICAL PRACTICE,-2.915665,54.18795600000001
519.87,ROSEWORTH SURGERY,-1.61867,55.001366
3666.3999999999987,GREENGATES MEDICAL GROUP,-0.418494,53.844343
1936.56,HEBDEN BRIDGE GROUP PRACTICE,-2.010942,53.744036
1310.37,LIMES MEDICAL CENTRE,-1.387885,53.098493
681.5999999999998,CHURCHSIDE MEDICAL PRACTICE,-1.203539,53.146592
581.7099999999998,SELSTON SURGERY,-1.299871,53.070196
661.51,CRYSTAL PEAKS MEDICAL CENTRE,-1.354473,53.342881
1440.62,LINCOLN HOUSE SURGERY,-0.469093,51.737355
946.6599999999999,STOCKWELL LODGE MED.CTR.,-0.055287,51.713792
385.86,SOUTHEND MEDICAL CENTRE,0.708516,51.540069
349.7399999999999,DR DEVARAJA VC PRACTICE,0.44359,51.520015
288.12,DR PM PATEL,0.219281,51.55632
263.76000000000005,THE MITCHISON ROAD SURGERY,-0.087357,51.544992
310.24000000000007,FOUNTAYNE ROAD HEALTH CENTRE,-0.065145,51.56442
963.77,FRAMLINGHAM SURGERY,1.334192,52.227216
409.32,ARCHWAY SURGERY,-0.532167,51.72275
448.66,CHURCH LANE SURGERY,-0.262165,51.574931
139.19000000000003,CHISWICK FAMILY DRS PRACTICE,-0.259879,51.493563
177.24,ACRE SURGERY,-0.411552,51.604465
195.53,CHOWDHURY,0.233898,51.592339
567.36,CUMBERLAND MEDICAL CENTRE,0.026047,51.519716
534.7900000000001,ILFORD MEDICAL CENTRE,0.07431899999999998,51.556823
1008.73,RYE MEDICAL CENTRE,0.730363,50.961944
242.82,MAIDSTONE RD CHATHAM SURGERY,0.516708,51.361226
229.93,VASSALL MEDICAL CENTRE,-0.10851199999999998,51.477558
1098.3699999999997,WITLEY SURGERY,-0.650163,51.156457
897.49,FARMHOUSE SURGERY,-1.7595,50.736437
764.6599999999999,JENNER HOUSE SURGERY,-0.7745189999999998,51.294302
334.5900000000001,LONG BARN LANE SURGERY,-0.967033,51.436181
2075.2700000000004,WESTONGROVE PARTNERSHIP,-0.74378,51.76588
725.12,MILBORNE PORT SURGERY,-2.471962,50.967502
559.78,OMBERSLEY MEDICAL CENTRE,-2.229023,52.276554
1787.98,FURLONG MEDICAL CENTRE,-2.208139,53.063325
1002.39,NORFOLK STREET SURGERY,-2.182794,53.01602
447.19000000000005,PARADISE MEDICAL CENTRE,-1.494835,52.426778
678.6700000000002,MAYFIELD MEDICAL CENTRE,-2.093284,52.583046
768.02,LEVENSHULME MEDICAL PRACTICE,-2.188524,53.446352
793.0600000000002,HEALD GREEN HEALTH CENTRE 2,-2.229276,53.369878
256.77000000000004,SMITH (RICHMOND LOCK),-0.322897,51.464517
313.41,CHILLINGTON HEALTH CENTRE,-3.693645,50.272623
461.06,JUBILEE GARDENS MEDICAL CENTRE,-0.368739,51.521097
354.61,BLACKHEATH MED CTR,-3.104694,53.412239
135.09,AMBAR MEDICAL CENTRE,-1.991354,52.575093
246.48,GOLDINGTON ROAD SURGERY,-0.456174,52.140172
204.22000000000003,DMC ST MARYS ISLAND SURGERY,0.538105,51.406776
278.87000000000006,POPLAR PRIMARY CARE CENTRE,-1.890326,52.43631
3008.09,THORNABY & BARWICK MEDICAL GROUP,-1.292128,54.538149
1417.68,BRAMPTON MEDICAL PRACTICE,-2.734846,54.94237
1010.6399999999996,RISEDALE SURGERY,-3.224778,54.109942
750.26,ROWLANDS GILL MEDICAL CENTRE,-1.742896,54.91936
1147.12,THE SUTTON MANOR SURGERY,-0.315294,53.785759
1047.3200000000004,PLANE TREES GROUP PRACTICE,-1.894437,53.730448
1170.96,THORNTON MEDICAL CENTRE,-1.576209,53.791908
2792.72,JESSOP MEDICAL PRACTICE,-1.372226,53.074348
3046.03,THE PARK MEDICAL PRACTICE,-1.432644,52.928801
562.88,BRAILSFORD & HULLAND MEDICAL PRACTICE,-1.624927,52.96943
927.09,MERRIDALE MEDICAL CENTRE (RP TEW),-1.160752,52.620146
870.8800000000001,THE MAYFLOWER MEDICAL PRACTICE,-1.01945,53.431872
1404.04,BASLOW RD  SHOREHAM ST & YORK RD SRGIES,-1.531066,53.316325
233.49,OVER SURGERY,0.012018,52.314809
1138.48,DR TUN & PARTNERS,-2.583571,53.532102
765.88,ST.ANTHONY'S HEALTH CENTRE,-1.55655,54.966674
883.0,MANOR DRIVE MEDICAL CENTRE,-0.24836599999999998,51.380785
13.840000000000002,WESTCALL OOH,-0.8315749999999998,51.410524
2.69,NELFT SOUTH WEST ESSEX CS,0.496195,51.591456
7.6099999999999985,EAST STAFFS IMPROVING LIVES,-1.6480290000000002,52.798809
1.72,LYNFIELD MOUNT HOSPITAL,-1.805354,53.809728
841.5299999999999,BISHOPS CLOSE MEDICAL PRACTICE,-1.599142,54.699817
2142.5900000000006,CLEE MEDICAL CENTRE,-0.041433,53.566223
1224.97,WIBSEY & QUEENSBURY MED P,-1.779715,53.767225
306.75000000000006,SOUTHOWRAM SURGERY,-1.831696,53.712293
335.44000000000005,WHITWICK HEALTH CENTRE,-1.3606790000000002,52.742576
1463.8200000000004,MARKET SURGERY,-1.345958,53.502635
404.07,BALDWINS LANE SURGERY,-0.448705,51.654076
444.14000000000016,DERWENT CRESCENT MEDICAL CENTRE,-0.175285,51.622908
918.72,THE STANMORE MEDICAL CENTRE,-0.304021,51.60154
429.0100000000001,NEASDEN MEDICAL CENTRE,-0.247382,51.559667
153.36999999999995,BROOK GREEN SURGERY,-0.218145,51.495291
2167.2,ABBEY FIELD MEDICAL CENTRE,0.898575,51.877487
99.77,JOHN SMITH MEDICAL CENTRE,0.112125,51.538899
299.69,TOTTENHAM HEALTH CENTRE,-0.068474,51.604755
297.6700000000001,DR MOHAMMED GREEN MAN MEDICAL CENTRE,0.015000999999999999,51.571506
625.0700000000002,FAIRFIELD PMS,0.038949,51.483908
178.19999999999996,PARKSIDE MEDICAL CENTRE,-0.092642,51.475826
566.9300000000002,NORK CLINIC,-0.215842,51.326429
449.86,QUEENHILL MEDICAL PRACTICE,-0.066791,51.34499
574.31,GRAND DRIVE SURGERY,-0.228811,51.402155
1561.83,THE BOSMERE MEDICAL PRACTICE,-0.990581,50.850232
1312.64,BURNHAM HEALTH CENTRE,-0.662137,51.5349
567.6999999999998,THE LONG BUCKBY PRACTICE,-1.08255,52.30049
2806.429999999999,ASPEN MEDICAL PRACTICE,-2.225797,51.865969
493.9599999999999,GLOUCESTER CITY HEALTH CENTRE,-2.245328,51.860355
2115.5500000000006,ABBEY HOUSE MEDICAL PRACTICE,-1.160725,52.260319
1068.9600000000003,NORTON BROOK MEDICAL CENTRE,-3.782122,50.288739
280.27,SOMERSET BRIDGE MEDICAL CENTRE,-2.995883,51.115105
1338.92,TRENT VALE MEDICAL PRACTICE,-2.201785,52.987386
212.49000000000004,BROOKSIDE SURGERY,-1.399088,52.35048
805.8899999999999,NORTHWAY MEDICAL CENTRE,-2.130997,52.54810500000001
1579.42,MARTON MEDICAL PRACTICE,-3.034524,53.812843
1443.32,CORNISHWAY GROUP PRACTICE,-2.265017,53.379925
1376.9199999999994,BRAMHALL HEALTH CENTRE,-2.162929,53.36001
740.8800000000001,MAYNARD COURT SURGERY,0.020165,51.685605
437.05000000000007,AYLESBURY SURGERY,-1.876053,52.542854
148.41,NEVILLE ROAD SURGERY,-0.443036,51.906419
6.01,UNIV HOSP NORTH DURHAM OOH,-1.593834,54.788497
233.12000000000003,BOWLING GREEN STREET SURGERY,-1.133096,52.63304599999999
34.7,BCHC MEDICINES MANAGEMENT,-1.9537779999999998,52.398207
1585.68,YARM MEDICAL PRACTICE,-1.355519,54.50530500000001
576.3800000000001,BENSHAM FAMILY PRACTICE,-1.617038,54.952781
982.66,BURTON CROFT SURGERY,-1.57692,53.820807
281.3,EASTMOOR HEALTH CENTRE,-1.476864,53.690004
283.67,HARTINGTON SURGERY,-1.810816,53.142488
564.25,THE PRACTICE BEAUMONT LEYS,-1.15392,52.662296
676.73,TASBURGH LODGE SURGERY,-0.21375,53.151242
1058.58,SOTHALL & BEIGHTON HEALTH CENTRES,-1.340221,53.337895
400.9500000000001,KINGSWAY SURGERY,-0.437208,51.517478
353.06000000000006,FIVE ELMS MEDICAL PRACTICE,0.14235,51.553315
218.43,SPUR ROAD SURGERY,-0.086621,51.586597
810.5599999999998,THE MEADS SURGERY,0.091624,50.969686
428.7,ALBION STREET SURGERY,-0.133965,50.827627
1045.95,BELLEGROVE SURGERY,0.09579,51.464561
833.2799999999999,SOUTH VIEW PARTNERSHIP,0.026125,51.405111
467.73,CORNERWAYS SURGERY,-0.404519,50.81566
315.99,CHEAM GP CENTRE,-0.225239,51.368621
112.77,WALLINGTON MEDICAL CENTRE,-0.129285,51.357345
1030.1699999999996,THE BANKS & BEARWOOD MEDICAL CENTRE,-1.9292169999999997,50.768326
451.2300000000001,MERE SURGERY,-2.265342,51.089873
196.63,RAGSTONE ROAD SURGERY,-0.601832,51.503747
1205.83,COMBE DOWN SURGERY,-2.345599,51.361003
955.55,WADEBRIDGE & CAMEL ESTUARY PRACTICE,-4.835729,50.514816
524.69,NORTH PETHERTON SURGERY,-3.013922,51.09139
370.07,HANDSWORTH MEDICAL PRACT.,-1.941212,52.505377
738.54,EVE HILL MEDICAL PRACTICE,-2.096805,52.512922
248.47,BEARWOOD MEDICAL CENTRE,-1.97344,52.476903
684.76,THE GROUP PRACTICE ALFRED SQUIRE ROAD,-2.080754,52.599417
1291.2199999999996,WEST DERBY MEDICAL CENTRE,-2.895944,53.431273
199.91,BEEHIVE SURGERY,-2.419172,53.564161
233.38,QUEENS MEDICAL CENTRE,-2.235847,53.50081899999999
1594.4999999999998,LANGWORTHY MEDICAL PRACTICE,-2.294771,53.489371
157.76999999999995,LEY HILL SURGERY,-1.983266,52.421346
591.9100000000002,THE CHEYLESMORE SURGERY,-1.503924,52.391324
168.25000000000003,DR. B. K. PRASHARA,-2.114816,52.456326
567.7600000000001,ST PETER'S SURGERY,-1.984855,52.594537
973.99,ORMSKIRK HOUSE SURGERY,-2.74261,53.456686
717.05,MANOR HEALTH CTR,-3.044493,53.421061
1085.02,THE PENDLE MEDICAL PARTNERSHIP,-2.144307,53.915882
1468.7899999999993,3/SPRINGFIELD HOUSE MEDICAL PRACTICE,-2.362019,53.480252
1806.4400000000005,PENNINE MEDICAL CENTRE,-2.040966,53.515337
345.73,THE CROSSROADS SURGERY,-2.770123,53.417492
212.77000000000004,CRESCENT SURGERY,0.106446,51.389854
246.35,GREEN CEDARS MEDICAL CENTRE,-0.073642,51.616071
186.49,THE KINGSWAY PRACTICE,-2.135588,53.612168
660.32,WHITE HORSE SURGERY,0.343258,51.435153
4.95,LANCS HOUSE UROLOGY,-2.218662,53.592207
0.17,THE ENFIELD PAIN CLINICS,-0.076772,51.66253
3.84,HMP BRISTOL,-2.591585,51.480902
9.0,WEST KENT GROUP,1.118942,51.075872
530.7800000000001,CHAPELFORD PRIMARY CARE CENTRE,-2.633066,53.39615799999999
16.04,BRAMHOPE DERMATOLOGY COMMUNITY CLINIC,-1.61581,53.881903
368.45,BHF LUNDWOOD SURGERY,-1.438538,53.557711
876.93,DALTON SURGERY,-3.179816,54.155917
506.37,THE SELE MEDICAL PRACTICE,-2.095702,54.970372
715.7600000000001,WOODLANDS PARK HEALTH CTR,-1.628825,55.04614
575.1700000000002,CONCORD MEDICAL PRACTICE,-1.524864,54.913411
1163.1000000000004,MARKET WEIGHTON GROUP PRACTICE,-0.674786,53.864903
601.61,RAJ MEDICAL CENTRE,-0.113968,53.550655
1121.41,MAYFORD HOUSE SURGERY,-1.446534,54.328376
1192.3300000000004,OAKWOOD LANE MEDICAL PRACTICE,-1.493931,53.819982
3269.51,HEALTH CARE FIRST PARTNERSHIP,-1.393615,53.736872
726.2600000000001,HAVEN MEDICAL CENTRE,-1.416874,52.891498
847.2799999999999,COUNTESTHORPE HEALTH CENTRE,-1.136767,52.554536
1227.2,CASTLE HEALTHCARE PRACTICE,-1.144908,52.930476
1340.0999999999995,BROOM LANE MEDICAL CENTRE,-1.332311,53.417383
475.24,CADDINGTON SURGERY,-0.458179,51.864502
695.49,ANNANDALE MEDICAL CENTRE,-0.17421099999999998,51.698571
6.42,GREENWICH CCG GP ACCESS HUB,0.050556,51.457843
415.6,WEST ROAD MEDICAL CENTRE,-1.656263,54.976209
384.14,IMEARY STREET PRACTICE,-1.424863,54.98753000000001
159.5,THE KILLINGHOLME SURGERY,-0.260335,53.62990799999999
869.04,DR SINHA & PARTNERS,0.100204,53.030138
566.3900000000001,THE HEALTH CARE SURGERY,-1.487911,53.42172
713.0300000000002,COMBERTON SURGERY,0.018614,52.189811
876.2799999999997,TRINITY & BOWTHORPE MEDICAL PRACTICE,1.280248,52.624411
683.27,THE LIMES SURGERY,-0.010842,51.759413
758.6100000000001,SHEPHALL HEALTH CENTRE,-0.167642,51.890799
247.7,WAKEMANS HILL SURGERY,-0.254209,51.587088
257.78,WESTBOURNE GROVE MEDICAL CENTRE,-0.200361,51.514211
825.09,FOREST PRACTICE,0.07523499999999998,51.654789
146.01,PRASAD,0.210579,51.600308
736.51,HARROW ROAD GP CENTRE,0.012856,51.559538
524.7199999999999,SEVEN DIALS MEDICAL CENTRE,-0.147743,50.829681
1559.87,NORTHDOWN SURGERY,1.368001,51.379866
321.07,MILTON REGIS SURGERY,0.7321839999999998,51.349193
975.7,BARCROFT MEDICAL CENTRE,-1.780526,51.172939
360.4,BURBAGE SURGERY,-1.669545,51.348496
2010.85,THE SWAN PRACTICE,-0.985664,52.001593
1475.5300000000002,PIONEER MEDICAL GROUP,-2.617628,51.510306
446.18,THE CREST FAMILY PRACTICE,-2.596274,51.428746
160.56,WORTHEN MEDICAL PRACTICE,-3.000165,52.635224
753.5299999999999,NESTON MEDICAL CENTRE,-3.064349,53.291818
310.07,KIRKDALE MEDICAL CENTRE,-2.973842,53.433523
539.32,WITHNELL HEALTH CENTRE,-2.556663,53.692491
1797.08,DARWEN HEALTHLINK,-2.471427,53.695744
1246.41,ST.MARY'S HEALTH CENTRE,-2.729589,53.747433
640.39,DAVID MEDICAL CENTRE,-2.268652,53.43186
478.97,DR ABBAS,-0.841253,52.26834
233.31,FACCINI HOUSE SURGERY,-0.189379,51.389682
506.87,EDLESBOROUGH SURGERY,-0.588625,51.868423
246.19000000000003,DR GS KALKAT'S PRACTICE,0.103861,51.527941
321.2800000000001,JRB HEALTHCARE BEECHDALE SURGERY,-1.198142,52.961504
80.70999999999998,THE LYNWOOD SURGERY,-0.29964,51.528594
254.75,CHURCH VIEW MEDICAL CENTRE,-2.960328,50.935622
1735.0100000000002,WOODLANDS FAMILY MEDICAL CENTRE,-1.321204,54.561215
203.61,ASKAM SURGERY,-3.210918,54.183705
1989.12,FERRYHILL AND CHILTON MEDICAL PRACTICE,-1.556828,54.689838
781.0000000000001,COLLIERY COURT MEDICAL GROUP,-1.460703,54.949762
639.6500000000002,GRANGE PARK SURGERY,-1.7481080000000002,53.912695
1567.7,THE COUNTY PRACTICE,-1.069884,52.70073000000001
2123.92,BEECHFIELD MEDICAL CENTRE,-0.145012,52.787253
789.1799999999998,GRIMETHORPE SURGERY,-1.378978,53.573614
640.25,THE OAKWOOD SURGERY,-1.073937,53.506609
912.18,PAPWORTH SURGERY,-0.11749200000000001,52.252071
1150.2600000000002,ORCHARD SURGERY,0.944176,52.678309
1159.58,DR JK MARSDEN'S PRACTICE,-0.436528,51.894968
1076.53,MALTINGS SURGERY,-0.337918,51.751851
368.58,HANWELL HEALTH CENTRE (NAISH),-0.334375,51.510263
941.87,WHITLEY HOUSE SURGERY,0.455723,51.726539
1199.2400000000002,WEST ROAD SURGERY,0.70187,51.544989
375.88000000000005,JOYDENS WOOD MEDICAL CENTRE,0.166397,51.42449
2230.0400000000004,TRAFALGAR MEDICAL GROUP PRACTICE,-1.092485,50.785331
690.11,EASTFIELD HOUSE SURGERY,-1.323251,51.395555
828.82,RECTORY MEADOW SURGERY,-0.6175,51.669079
1071.7400000000002,TUDOR LODGE SURGERY,-2.975378,51.332396
763.6099999999999,PRAZE-AN-BEEBLE SURGERY,-5.309264,50.173753
1198.86,CAMBRIAN MEDICAL PRACTICE,-3.047774,52.86281
446.91,PENN SURGERY,-2.145001,52.568567
892.77,FIRDALE MEDICAL CENTRE,-2.537387,53.253804
1337.4700000000005,HALL GREEN SURGERY,-2.741349,53.540745
218.01,SARAF MEDICAL PRACTICE,-2.076954,53.561455
215.57,LATIMER HEALTH CENTRE,-0.049503,51.54659
445.41999999999985,DELL MEDICAL CENTRE,0.328114,51.480258
459.76000000000016,KIRKSTALL LANE MEDICAL CENTRE,-1.587333,53.816942
638.23,WHITCHURCH SURGERY,-1.340372,51.230256
313.23,DR NEWMAN,-1.975441,50.719722
0.72,GATDOC OOH,-1.580781,54.93938000000001
407.76,THE TRINITY MEDICAL CENTRE,0.085815,51.478803
4.510000000000001,CARE UK OOH,1.210633,52.034014
3.8,PONTELAND RD WIC,-1.656804,54.991604
24.09,IC24 LTD (HWLH OOH),0.891514,51.129106
5.56,SOUTH EAST HUB 1,-0.10851199999999998,51.477558
655.4,KIRKBY COMMUNITY PRIMARY CARE CENTRE (3),-1.248741,53.10176
779.7400000000001,BERKLEY PRACTICE,-2.024533,52.58916
940.3900000000001,BELLE VALE HEALTH CENTRE,-2.859752,53.392035
824.58,ELIZABETH STREET SURGERY,-3.043658,53.820839
984.4300000000003,RAMSBOTTOM MEDICAL PRACTICE,-2.319287,53.64878
193.17,THE WHITSWOOD PRACTICE,-2.253502,53.455769
1088.61,WOODLANDS MEDICAL PRACTICE,-2.142182,53.545559
745.4100000000003,BROOKS BAR MEDICAL CENTRE,-2.261969,53.461412
499.69,BROOK HOUSE SURGERY,-1.445882,50.921794
349.21,ASHVILLE SURGERY,-0.201145,51.476255
443.63,THE VILLAGE MEDICAL CTR,-0.512653,52.128152
0.85,DR HANTSDOC N OOH,-1.109918,51.280633
8.359999999999998,GP COLLABORATIVE OOH,-1.455965,53.409821
371.35,ST NEOTS HEALTH CENTRE,-0.267116,52.228966
1.72,QUAY HEALTH EAC,-0.069645,51.49696
0.42,HMR BARDOC OOH,-2.288591,53.59553
8.73,HOLYWELL AT LANGLEY HOUSE HCT,-0.391206,51.683651
0.59,7 DAY ACCESS ROCHDALE INFIRMARY HUB,-2.160152,53.624282
16.9,NEAS HAST CCG,-1.712365,54.969713
1.18,VC WEST LANCS COMMUNITY NURSING,-2.840112,53.602357
7.679999999999999,SOUTH DALES HEALTHCARE LTD,-1.571366,53.077623
1722.84,PRIORY MEDICAL CENTRE,-1.588641,52.285051
30.41,MODALITY ANN JONES FAMILY HEALTH CENTRE,-1.871333,52.462659
301.3400000000001,BALDWINS LANE SURGERY,-1.846405,52.414514
421.63,TUDOR PRACTICE STOCKLAND GREEN,-1.857329,52.52388199999999
718.82,CENTRAL SURGERY,-2.74261,53.456686
2154.28,ASH TREES SURGERY,-2.769484,54.129481
368.75999999999993,FAMILY PRACTICE,-2.486748,53.750552
518.98,MONARCH MEDICAL CENTRE,-2.316823,53.564198
958.48,LEESBROOK SURGERY,-2.07266,53.53879
517.8800000000001,WALTON SURGERY,1.335453,51.973564
312.14,LINCOLN GREEN MEDICAL CENTRE,-1.525196,53.802098
465.14,PARKGATE SURGERY,-1.548606,54.523273
399.79,DALTON TM,-2.643772,53.529393
179.69,POLLARD ROW SURGERY,-0.064328,51.528266
3.94,HARROGATE OOH,-1.517573,53.993807
8.92,EXTENDED HOURS SERVICE,-2.9023,53.211542
12.2,WIRRAL HEART SUPPORT,-3.026531,53.380029
6.88,RUSHCLIFFE URGENT CARE SERVICE,-1.100495,52.924252
692.08,BALDERTON SURGERY,-0.7864679999999998,53.052881
368.59,ULVERSTON COMMUNITY HEALTH CENTRE,-3.097833,54.198882
1199.08,NORTH ROAD SUITE RAVENSTHORPE HEALTH CTR,-1.661589,53.677829
1064.35,CASTLE MEAD MEDICAL CENTRE,-1.367743,52.541052
1094.08,RADCLIFFE-ON-TRENT. HEALTH CENTRE,-1.03822,52.946139
770.4199999999998,RISE PARK SURGERY,-1.174951,53.011477
554.04,MANCHESTER ROAD SURGERY,-1.521086,53.380573
791.4099999999999,CHERRY HINTON MEDICAL CENTRE,0.177635,52.187459
916.0100000000003,THE MEDICI MEDICAL PRACTICE,-0.418382,51.874494
569.3999999999999,PENSHURST GARDENS SURGERY,-0.272812,51.616129
442.86000000000007,ELLIS PRACTICE,-0.276552,51.563894
123.69,ORCHARD END,0.539532,51.091415
523.7700000000002,NEW ELTHAM AND BLACKFEN MEDICAL CENTRE,0.074199,51.434495
610.4499999999998,THE GROVE MEDICAL CENTRE,-2.513702,50.953273
1354.03,BISHOPS WALTHAM SURGERY,-1.212149,50.95528
750.7,THE WILLESDEN MEDICAL CENTRE,-0.233873,51.547532
334.51,EASTMEAD AVENUE SURGERY,-0.36274,51.531443
174.76999999999995,KINCORA DOCTORS SURGERY,-0.412216,51.511666
211.32,DR M GOYAL'S PRACTICE,0.156711,51.540066
522.19,TOLLGATE MEDICAL CENTRE,0.056362,51.515573
311.68999999999994,HETHERINGTON GROUP PRACTICE,-0.12823,51.460932
233.26999999999995,SELHURST MEDICAL PRACTICE,-0.088969,51.390012
753.47,THE WATERFIELD PRACTICE,-0.733923,51.409204
193.67,JERICHO HEALTH CENTRE,-1.265958,51.760293
643.4100000000002,PONTESBURY MEDICAL PRAC,-2.887922,52.650521
891.84,TUTBURY HEALTH CENTRE,-1.686361,52.858454
894.9199999999998,TEAN SURGERY,-1.988036,52.954415
439.99,WAKE GREEN SURGERY,-1.883357,52.446103
513.92,THORNLEY STREET MEDICAL CENTRE,-2.125789,52.58843
656.3299999999998,MEREPARK MEDICAL CENTRE,-2.300747,53.093285
846.8999999999999,RAINHILL VILLAGE SURGERY,-2.763813,53.41631
348.88,MILE LANE HEALTH CENTRE,-2.335248,53.587814
627.5799999999998,NEW ISLINGTON MEDICAL CENTRE,-2.219472,53.4829
1185.9600000000005,CLARENDON MEDICAL CENTRE,-2.079951,53.45264
633.09,BRAITHWAITE RD SURGERY,-2.574985,53.477412
573.3000000000002,WOODGRANGE MEDICAL PRACTICE,0.025253,51.548596
195.38,JARVIS MEDICAL PRACTICE,-2.095095,53.537786
292.88,DR SP TALPAHEWA,-0.260303,51.616115
0.07,WIRRAL WIC (APH)_WIC APH,-3.096815,53.36964
3.3200000000000003,IC24 LTD (NORFOLK & WISBECH OOH),0.891514,51.129106
391.0199999999999,BRANDON MEDICAL PRACTICE,0.6233,52.448489
485.3,BOLTON MEDICAL CENTRE,-2.431399,53.56543
478.01,THE MANSELL ROAD PRACTICE,-0.358969,51.525654
691.32,WESTCROFT HEALTH CENTRE,-0.795699,52.006367
28.680000000000003,FOUNDATIONS,-1.257899,54.563441
14.15,(FRACTURE CLINIC) NORTH OOH,-0.883829,52.236068
214.79,READING WALK-IN HEALTH CENTRE,-0.9758960000000002,51.454809
2.85,MERSEYCARE NHS TRUST - NMP,-2.933499,53.407265
0.19,BRADFORD DISTRICT CARE TRUST,-1.788605,53.839675
15.510000000000002,NORTH TYNESIDE CARE PLUS,-1.456596,55.011193
2.3,KINGSTON CCG SLDUC OOH,-0.283378,51.412517
1.72,8 TO 8 TOP-UP HUB QMH,0.101687,51.419041
0.54,OPTIMUSEXTENDEDACCESS,-0.596637,53.18754
1316.3000000000004,LOWTHER MEDICAL CENTRE,-3.586392,54.545056
1095.15,COLLEGE LANE SURGERY,-1.336292,53.644573
1002.56,THE SURGERY CLIFTON ROAD,-1.737497,53.013356
977.97,THE ORCHARD MED PRACTICE,-1.231693,52.533972
2158.85,MUNRO MEDICAL CENTRE,-0.147427,52.794037
534.74,MOSBOROUGH HEALTH CENTRE,-1.364873,53.325238
652.48,ORCHARD SURGERY MELBOURN,0.020092,52.080651
1220.85,HIGH STREET SURGERY,1.756043,52.482123
703.7599999999999,ANDAMAN SURGERY,1.715485,52.45691600000001
3004.7100000000005,STANMORE MEDICAL GROUP,-0.204612,51.913274
512.6,PUCKERIDGE & STANDON SURGERY,0.019374,51.888296
1503.62,KING GEORGE SURGERY,-0.206096,51.907416
498.27,COMMONWEALTH HEALTH CENTRE,0.36308,51.463166
442.94000000000005,KEATS GROUP PRACTICE,-0.17103,51.555534
285.4500000000001,BURNT ASH SURGERY,0.009913000000000002,51.452782
806.9399999999998,HILLVIEW MEDICAL CENTRE,-0.557727,51.315501
951.3199999999997,DOWNING STREET GROUP PRACTICE,-0.7989009999999998,51.212905
258.65000000000003,ASHBURTON PARK MEDICAL CENTRE,-0.064221,51.384147
464.2100000000001,TAMWORTH HOUSE MEDICAL CENTRE.,-0.146254,51.40122
698.31,PARKSIDE PRACTICE,-1.353169,50.970948
408.7900000000001,ST.PETERS SURGERY,-1.372792,50.897829
306.9,NEATH HILL HEALTH CENTRE,-0.747321,52.060411
619.1299999999999,BATHEASTON MEDICAL CENTRE,-2.317387,51.406032
928.69,DARTMOUTH MEDICAL PRACTICE,-3.580811,50.351157
886.4999999999997,DARTFORD EAST HEALTH CENTRE,0.236914,51.440747
842.59,CHURCH STREET PRACTICE,-0.459783,51.37345
751.9200000000003,THE GREYSWOOD PRACTICE,-0.144853,51.419489
331.72,BOLINGBROKE MEDICAL CENTRE (THMP),-0.168282,51.45617
486.96,LEYBOURNE SURGERY,-1.88721,50.758437
1164.37,THE BORDER PRACTICE,-0.740565,51.240995
834.5899999999998,PATFORD HOUSE PARTNERSHIP,-2.005519,51.437601
338.2,CHATHAM STREET SURGERY,-0.981895,51.455924
1289.0000000000002,THE CROSS KEYS PRACTICE,-0.830848,51.723655
933.86,WHITELADIES MEDICAL GROUP,-2.612382,51.465097
311.6500000000001,HILLCREST SURGERY,-2.431687,51.311982
931.19,DEVON SQUARE SURGERY,-3.60508,50.529985
384.9699999999999,ESTOVER SURGERY,-4.0952,50.411271
700.1,THE ROYAL WELL SURGERY,-2.0815,51.906706
570.91,APSLEY SURGERY,-2.187008,53.035377
654.62,THE LIMES SURGERY MEDICAL CENTRE,-2.114052,52.456884
428.96,ASHFIELD ROAD SURGERY,-2.132841,52.62604399999999
753.0699999999998,NORTHGATE MEDICAL CENTRE,-2.892972,53.19509300000001
983.97,RIVERSIDE SURGERY,-3.006197,53.372004
974.66,LAYTON MEDICAL CENTRE,-3.027291,53.827425
1494.12,HT PRACTICE,-2.110496,53.478305
653.27,WESTLEIGH MEDICAL PRACTICE,-2.526024,53.510851
110.09,MEDICUS HEALTH PARTNERS-CURZON AVENUE,-0.036518,51.645435
392.18,WINDMILL SURGERY,-1.48555,52.449933
308.4099999999999,ARNOS GROVE MEDICAL CENTR,-0.129838,51.615476
91.24000000000002,ST.QUINTIN HEALTH CENTRE,-0.220325,51.519199
420.9,PARK COMMUNITY PRACTICE,-1.871717,53.725678
49.2,NT&H COMM CARDIAC N,-1.227837,54.702398
4.23,CAMDEN COMMUNITY NURSING,-0.131658,51.53665
1.22,CHELTENHAM LOCALITY NURSE PRESCRIBER,-2.176389,51.847073
104.19,CARDIAC SERVICE STOKE AND NORTH,-2.109085,52.810605
3.21,CHESTERFIELD HEALTH PROVIDER LTD,-1.43962,53.233943
470.74999999999994,MELROSE SURGERY,-1.287301,54.609397
1040.44,BLACKETTS MEDICAL PRACTICE,-1.559007,54.527221
697.03,DR A SINHA,-0.108523,53.567689
1131.78,WILLINGTON SURGERY,-1.566835,52.850285
275.28,UPWELL STREET SURGERY,-1.434724,53.406424
656.04,LAKENHAM SURGERY,1.296577,52.6183
1274.59,MANOR FARM MEDICAL CENTRE,0.690513,52.648544
847.06,PLOWRIGHT MEDICAL CENTRE,0.686691,52.655577
1151.64,REGAL CHAMBERS SURGERY,-0.275959,51.952843
388.07000000000005,STANHOPE SURGERY,-0.032073,51.688002
181.07,THE GARWAY MEDICAL PRACTICE,-0.185494,51.515392
926.7,BEECHWOOD SURGERY,0.292731,51.608567
473.31,THE NIGHTINGALE PRACTICE,-0.062434,51.558261
645.8999999999999,THE GRAHAM PRACTICE,0.048721,51.541534
786.8399999999997,ISLAND HEALTH,-0.013513,51.495357
1612.2800000000007,STANFORD MEDICAL CENTRE,-0.148293,50.838378
733.6200000000001,NEWINGTON ROAD SURGERY,1.399222,51.343459
1070.8700000000003,BELVEDERE MEDICAL CENTRE,0.144376,51.482567
1413.27,ST.LAWRENCE SURGERY,-0.390026,50.823979
1715.3,MID SUSSEX HEALTH CARE,-0.175279,50.933719
960.7,THE WHITELEY SURGERY,-1.266072,50.88262
3924.11,ACORN HEALTH PARTNERSHIP,-1.114058,51.245047
5297.18,PORTSDOWN GROUP PRACTICE,-1.080952,50.812876
1772.1600000000005,THE ELMS PRACTICE,-0.976476,50.789794
1198.97,ESPLANADE SURGERY,-1.158697,50.731943
378.85,GLASTONBURY HEALTH CENTRE,-2.712893,51.148733
1913.25,MAYFIELD SURGERY,-2.13456,52.982709
505.78,BRIDGE MEDICAL,-1.506726,55.038077
165.04000000000005,WINDSOR MEDICAL CENTRE,-1.622157,53.693875
1086.9499999999996,ASHBOURNE MEDICAL PRACTICE,-1.737589,53.012862
1016.7,THE UPPINGHAM SURGERY,-0.723557,52.594972
1283.5700000000004,ABBEY MEDICAL GROUP,-1.119194,53.100674
692.2199999999997,LOWMOOR ROAD SURGERY,-1.244634,53.100062
746.62,BIRLEY HEALTH CENTRE,-1.396985,53.340317
1589.7000000000005,PARKFIELD MEDICAL CENTRE,-0.179588,51.695129
315.05000000000007,REDWOOD PRACTICE,-0.359614,51.461125
273.72,SUNRISE MEDICAL CENTRE,-0.382255,51.51087
669.0700000000002,THE THORPE BAY SURGERY,0.757986,51.534599
249.06,HOLBORN MEDICAL CENTRE,-0.118539,51.522233
206.37,BRICK LANE SURGERY,-0.048612,51.657327
251.66,ABBEY COURT,0.26122,51.137755
398.39,ELM LODGE SURGERY,-0.096232,51.451506
828.6799999999998,HUDSON (SEYMOUR HOUSE),-0.292773,51.462401
572.6399999999999,OPEN DOOR SURGERY,-0.155581,51.443166
944.7,THE LIGHTHOUSE GROUP PRACTICE,-1.0805049999999998,50.796551
1324.2300000000002,THE ORCHARD PARTNERSHIP,-1.865867,51.077878
1200.2600000000002,WHADDON MEDICAL CENTRE,-0.7662759999999998,52.000308
500.46,SONNING COMMON HEALTH CTR,-0.982114,51.515603
1637.05,LANDER MEDICAL PRACTICE,-5.055864,50.259982
415.44,BROSELEY MEDICAL PRACTICE,-2.481266,52.611554
202.34,BONEY HAY SURGERY,-1.926768,52.690328
511.24000000000007,BEECH TREE MEDICAL PRACTICE,-1.252936,52.377534
706.2899999999997,ALUM ROCK MEDICAL CENTRE,-1.850664,52.489901
89.41000000000003,GREENFIELD MEDICAL CENTRE,-1.855764,52.491684
496.31000000000006,THE SURGERY,-2.605295,53.024859
681.41,PARKGATE SURGERY,-2.882743,53.564772
821.2600000000001,MARPLE MEDICAL PRACTICE,-2.064954,53.39495
7.519999999999999,STORTHFIELD HOUSE,-1.332746,53.097559
257.34,CLOVER CITY PRACTICE,-1.46659,53.38187
679.5600000000002,ASPATRIA MEDICAL GROUP,-3.337992,54.762123
3279.610000000001,WILLIAM BROWN CENTRE,-1.33142,54.757994
552.1100000000001,WELLSPRING MEDICAL PRACT.,-1.564066,55.037289
520.3800000000001,RED HOUSE MEDICAL CENTRE,-1.424063,54.925457
945.23,COLNE VALLEY GROUP PRACTICE,-1.9282130000000002,53.602096
164.54000000000005,FAMILY DOCTORS,-1.440964,53.798248
964.58,ROYSTON GROUP PRACTICE,-1.451018,53.600005
243.92,SOUTHEY GREEN MEDICAL CTR,-1.477666,53.419051
1325.77,IVRY STREET MEDICAL PRACTICE,1.148624,52.064021
302.19000000000005,NORTH FULHAM SURGERY,-0.199224,51.486415
60.21999999999999,FULHAM CROSS MEDICAL CENTRE,-0.214067,51.482774
47.89,LAI CHUNG FONG QUEENS PARK HEALTH CENTRE,-0.205826,51.530911
682.6700000000002,NEWBURY GROUP PRACTICE,0.085981,51.576435
2358.37,HARDWICKE HOUSE GROUP PRACTICE,0.725792,52.0382
1079.14,WHEATFIELD SURGERY,-0.495144,51.904445
252.91000000000008,BRAMPTON HEALTH CENTRE,-0.277386,51.586099
405.32000000000005,DOCKLANDS MEDICAL CENTRE,-0.021143,51.491152
618.4599999999998,BELMONT SURGERY,0.340829,51.061952
312.7200000000001,LONG CATLIS ROAD SURGERY,0.595579,51.348325
391.8399999999999,ABBEY WOOD SURGERY,0.11653,51.497094
413.25,WOOLSTONE MEDICAL CENTRE,-0.036776,51.438421
481.81,MINET GREEN HEALTH PRACTICE,-0.105204,51.475715
878.3599999999999,SOUTHGATE MEDICAL GROUP,-0.194559,51.102316
513.0600000000001,NEW ADDINGTON GROUP PRACTICE,-0.018557,51.344382
568.7600000000001,BANBURY ROAD MEDICAL CENTRE,-1.263535,51.774771
1374.7499999999998,THE ARMADA FAMILY PRACTICE,-2.571861,51.413438
1068.44,STAFFORD MEDICAL GROUP,-2.914755,51.35259
783.2199999999998,BROCKWORTH SURGERY,-2.156696,51.844575
1724.3399999999995,SEVERN VALLEY MEDICAL PRACTICE,-2.235045,52.190415
1052.0200000000002,DAWLEY MEDICAL PRACTICE,-2.466781,52.664322
981.1500000000003,LEEK HEALTH CENTRE,-2.019347,53.105691
767.5299999999999,CHASE MEADOW HEALTH CENTRE,-1.608604,52.268838
83.91999999999999,HILL TOP PRACTICE,-2.011775,52.537791
453.8500000000001,MAGHULL HEALTH CENTRE (DR SAPRE),-2.943932,53.515597
766.4099999999999,LIME SQUARE MEDICAL CENTRE,-2.164901,53.473649
316.0,WINDERMERE SURGERY,-2.205709,53.55956
1761.2100000000007,BEESTON VILLAGE SURGERY,-1.569152,53.772415
302.95,HATTON MEDICAL PRACTICE,-0.433285,51.457879
339.69000000000005,BLURTON MEDICAL CENTRE,-2.156565,52.972002
62.59,GREAT CHAPEL STREET MEDICAL CENTRE,-0.134097,51.51508
1.91,HASTINGS AND ROTHER OOH,0.891514,51.129106
4.95,A&E GPS,-2.629091,53.55774
1076.4499999999996,BIRBECK MEDICAL GROUP,-2.742581,54.656125
566.4100000000002,BEWICK ROAD SURGERY,-1.601653,54.956398
452.98,WENLOCK ROAD SURGERY,-1.455226,54.972635
1418.95,WINTERTON MEDICAL PRACTICE,-0.606876,53.652511
775.6700000000003,THE OLD SCHOOL MEDICAL PRACTICE,-1.1424040000000002,53.916163
1119.9899999999998,KEIGHLEY ROAD SURGERY,-1.893907,53.754239
855.33,MULBERRY STREET MEDICAL PRACTICE,-1.66397,53.794738
888.6,CHATSWORTH ROAD MEDICAL CENTRE,-1.467337,53.231374
1137.06,CRICH MEDICAL PRACTICE,-1.482573,53.084327
698.12,MEXBOROUGH HEALTH CENTRE,-1.279795,53.494237
1732.5500000000006,ST VINCENT MEDICAL CENTRE,-1.124029,53.525476
730.3800000000001,LUDHAM AND STALHAM GREEN SURGERIES,1.534423,52.709131
1.27,HAVEN COURT,-1.428468,54.971208
901.1499999999999,BENTHAM ROAD HEALTH CENTRE,-2.50627,53.73058399999999
0.86,HMP EASTWOOD PARK,-2.467383,51.634454
0.15,ROTHERHAM HOSPICE,-1.340784,53.424046
770.9699999999997,CRESWELL AND LANGWITH MEDICAL CENTRE,-1.215835,53.262654
7.45,UHMB COMMUNITY NMP,-2.799232,54.042726
1718.0200000000002,NORWOOD MEDICAL CENTRE,-3.222974,54.119201
565.1100000000001,BEECHWOOD GROUP PRACTICE,-3.545472,54.642376
1409.5500000000004,DENMARK STREET SURGERY,-1.552252,54.538825
1103.83,WELL CLOSE MEDICAL GROUP,-2.006127,55.77245799999999
1104.9,PALLION FAMILY PRACTICE,-1.414195,54.908604
535.48,PICTON MEDICAL CENTRE,-1.77624,53.807296
1222.61,PARKSIDE MEDICAL CENTRE,-0.021998,52.981526
2372.99,ORCHARD MEDICAL PRACTICE,-1.206764,53.141121
1352.4299999999996,THE BURNS PRACTICE,-1.12309,53.520707
620.0799999999998,WINCOBANK MEDICAL CENTRE,-1.416316,53.419405
531.18,UEA MEDICAL CENTRE,1.241391,52.622369
317.2800000000001,THE VILLAGE SURGERY,-0.168135,51.648069
111.69,THE STREATFIELD MEDICAL CENTRE,-0.30083,51.595343
203.96000000000006,THE CHELSEA PRACTICE,-0.166915,51.486814
551.0,ST. BARTHOLOMEWS SURGERY,0.051755,51.532409
853.7,RYDAL,0.020102,51.608432
1223.77,GROSVENOR & ST JAMES MEDICAL CENTRE,0.264349,51.137424
412.29,KING GEORGE ROAD SURGERY,0.518518,51.348911
126.12,THE THREE ZERO SIX MEDICAL CENTRE,-0.076403,51.450741
265.87,VIRGINIA WATER MEDICAL PRACTICE,-0.568235,51.403367
625.75,NEW OTTERSHAW SURGERY,-0.526005,51.361938
179.11,THE ALTON PRACTICE,-0.239471,51.44914
4450.740000000002,THE WILLOW GROUP,-1.143034,50.800579
857.25,ALEXANDER HOUSE SURGERY,-0.7520019999999998,51.293749
1231.4400000000005,RIDGEWAY VIEW FAMILY PRACTICE,-1.7915709999999998,51.524175
761.0499999999998,GREEN MEADOWS SURGERY,-0.677163,51.426939
633.3800000000001,PORT VIEW SURGERY,-4.214351,50.40735
1132.65,CHURCHDOWN SURGERY,-2.171559,51.882487
1034.45,STANMORE HOUSE SURGERY,-2.231468,52.391138
826.4499999999998,WARGRAVE HOUSE SURGERY,-2.712261,52.055418
697.53,VENTNOR MEDICAL CENTRE,-1.203791,50.594548
810.83,THE HALL PRACTICE,-0.561016,51.606986
602.64,WEST VIEW SURGERY,-2.50212,51.411923
200.30000000000004,HARTLAND SURGERY,-4.482549,50.992721
883.32,STATION DRIVE SURGERY,-2.715141,52.370132
2420.94,SOLIHULL HEALTHCARE PARTNERSHIP,-1.775235,52.419642
814.6,CONCEPT HOUSE SURGERY,-2.98492,53.449136
1602.1999999999996,ADELAIDE STREET SURGERY,-3.048397,53.817351
923.68,LOCKWOOD GP SURGERY,-2.989833,53.850947
209.48,CAVENDISH HEALTH CENTRE,-0.148092,51.519331
1241.42,BROWNLOW GROUP PRACTICE,-2.96585,53.405021
266.85,HEATHROW MEDICAL CENTRE,-0.433924,51.49302
270.22,THE ENTERPRISE PRACTICE,-0.320613,51.601113
586.02,ODDFELLOWS HALL & ST CLEMENTS,0.327906,51.480703
0.59,COMMUNITY GERIATRICIAN SERVICE,-1.568473,53.81497099999999
1.72,ADHD CLINIC,-3.04853,53.805489
297.85,CHAUCER SURGERY,-1.45237,52.515151
742.4,THE ENDEAVOUR PRACTICE,-1.235397,54.575047
863.5699999999998,THE LAKES MEDICAL PRACTICE,-2.742581,54.656125
593.0200000000002,EAST PARADE SURGERY,-1.529793,53.996354
447.57,FIELDHEAD SURGERY,-1.639379,53.831787
379.07,BASLOW HEALTH CENTRE,-1.617823,53.246144
2477.2000000000007,OSMASTON SURGERY,-1.467954,52.911084
286.65,ASQUITH SURGERY,-1.117116,52.601489
833.1800000000003,HOLBEACH MEDICAL CENTRE,0.014430000000000002,52.804778
298.56999999999994,YEADING MEDICAL CENTRE,-0.397019,51.533634
247.69,MAYFAIR MEDICAL CENTRE,-0.150172,51.513536
730.2500000000001,SUN LANE,1.087469,51.071536
514.41,LYDDEN SURGERY,1.23991,51.163193
450.97,THE CHURCH VIEW PRACTICE,0.609995,51.363412
224.43,TRIANGLE GROUP PRACTICE,-0.011071,51.457798
944.56,SELSDON PARK MEDICAL PRACTICE,-0.06457300000000002,51.342409
494.02000000000015,LAMBOURN SURGERY,-1.526933,51.504696
808.62,BICESTER HEALTH CENTRE,-1.157239,51.896742
924.2699999999999,FOWEY RIVER PRACTICE,-4.635394,50.337915
1325.16,KNOWLE HOUSE SURGERY,-4.134098,50.40863
1299.6999999999996,HOLTS HEALTH CENTRE,-2.406966,51.931555
968.1,CUMBERLAND HOUSE,-2.145844,52.901549
608.69,BILBROOK MEDICAL CENTRE,-2.181749,52.624775
559.1899999999998,VALE OF RED HORSE,-1.510351,52.15797
1239.7600000000002,BALSALL COMMON & MERIDEN GROUP PRACTICE,-1.643862,52.394956
654.6299999999999,LANCE LANE MEDICAL CENTRE,-2.911916,53.396196
340.33,DR A GUPTA BENIM MEDICAL CENTRE,-2.947804,53.419395
989.08,DINAS LANE MEDICAL CENTRE,-2.861513,53.417388
4624.55,LANCASTER MEDICAL PRACTICE,-2.797202,54.047583
113.03,DR GWD BHIMA,-2.154239,53.611617
1738.9299999999994,RIVERSIDE MEDICAL CENTRE,-2.672299,53.748112
325.38999999999993,LITTLETOWN FAMILY MED PRACT,-2.134298,53.529137
686.5200000000002,NEW COURT SURGERY,-2.30878,52.113538
380.59,THE BARHAM & CLAYDON SURGERY,1.109866,52.110175
551.1500000000001,SWANWOOD PARTNERSHIP,0.519034,51.613356
26.51,NIGHTINGALE HOUSE,-0.159747,51.449354
279.75,CROWN WOOD MEDICAL CENTRE,-0.736934,51.395919
53.36,CITY REACH HEALTH SERVICES,1.288137,52.633042
640.5400000000002,THE JUNCTION SURGERY,-1.759212,53.643662
22.11,DORKING HEALTHCARE LLP,-0.333421,51.225985
9.18,BADGER GROUP OOH,-1.8778259999999998,52.477589
261.29,GREAT BRIDGE HEALTH CENTRE,-2.02775,52.527792
11.79,PELC REDBRIDGE OOH,0.066648,51.55684
4.05,NON MEDICAL PRESCRIBING SOUTHEND CCG,0.702782,51.583955
31.11,COMMUNITY NURSING (SOUTH TEES),-1.215564,54.570237
15.85,WEST HERTS RESPIRATORY SERVICE,-0.468578,51.750846
523.16,GREENWOOD SURGERY,0.605168,51.653143
1.1800000000000002,EN HERTS ACUTE IN-HOURS VISITING SERVICE,-0.191727,51.782567
3.17,MERTON CCG-CLCH (NMP),-0.199155,51.47377
1.92,GP SERVICES - GP HUBS,-0.175734,51.240416
1222.67,MIDDLE CHARE MEDICAL GROUP,-1.573113,54.855636
440.67,I J HEALTHCARE,-1.531354,54.88104
393.74,OAK GLEN SURGERY,-1.816352,53.854799
1115.63,WELLINGTON HOUSE,-1.634561,53.714775
1197.61,SKELMANTHORPE FAMILY DOCTORS,-1.650686,53.591604
2013.67,LEIGH VIEW MEDICAL PRACTICE,-1.558358,53.728574
352.38000000000005,OAKWOOD SURGERY,-1.4290459999999998,52.941386
584.99,THE KAKOTY PRACTICE,-1.473444,53.5464
457.74,PHOENIX PRIMARY CARE (SOUTH) LTD,-0.435422,51.918016
5.16,NEWCASTLE GP IN MOLINEUX WIC,-1.583491,54.977507
4.22,NORTH NORFOLK HUB 2 (BIRCHWOOD),1.38334,52.820065
467.47,GILDERSOME HEALTH CENTRE,-1.6293,53.756554
640.5500000000002,HAZELMERE MEDICAL CENTRE,-1.16453,52.57337
616.68,BURNGREAVE SURGERY,-1.459815,53.393327
740.3499999999998,FELTWELL SURGERY,0.527056,52.48268
931.25,QUEENS PARK HEALTH CENTRE,-0.493075,52.133151
375.56,ALBANY PRACTICE,-0.310054,51.48676
225.42000000000004,CASSIDY ROAD MEDICAL CENTRE,-0.199015,51.479154
3290.3099999999995,COLCHESTER MEDICAL PRACTICE,0.909325,51.890029
651.24,ROWHEDGE SURGERY,0.945058,51.85767
298.6600000000001,DR VM PATEL,0.228776,51.561113
127.18,THE HEATHCOTE PRIMARY CARE CENTRE,0.062768,51.593832
1060.22,ESHER GREEN SURGERY,-0.370196,51.375782
284.1000000000001,CHILDS (THAMESIDE),-0.326599,51.427449
486.52,THE CHESSER SURGERY,-0.177303,51.374927
724.52,MOREDON MEDICAL CENTRE,-1.8070689999999998,51.582197
664.9900000000001,ASHFIELD MEDICAL CENTRE,-0.7382729999999998,52.019666
980.48,BUGBROOKE MEDICAL PRACTICE,-1.005426,52.211409
1541.5000000000007,TRESCOBEAS SURGERY,-5.085333,50.15531
758.7799999999999,BUDSHEAD MEDICAL PRACTICE,-4.150289,50.417443
550.39,TEIGN ESTUARY MEDICAL GROUP,-3.496462,50.5456
805.0,MITCHELDEAN SURGERY,-2.488369,51.865935
638.7000000000002,LUSON,-3.229566,50.977398
1864.98,HARESFIELD HOUSE SURGERY,-2.202996,52.194829
150.38,HEDNESFORD MEDICAL PRACTICE,-2.000697,52.71233
1510.34,LAUREL HOUSE SURGERY,-1.692825,52.636563
1055.4499999999996,HANDSWORTH WOOD MED.CTR.,-1.928196,52.51303299999999
231.54,ROTTON PARK MEDICAL CENTRE,-1.947079,52.482162
704.49,LONGFORD PRIMARY CARE CENTRE,-1.48555,52.449933
1773.2699999999993,TETTENHALL MEDICAL PRACTICE,-2.159502,52.600723
1700.71,READESMOOR MEDICAL GROUP PRACTICE,-2.216792,53.163762
775.14,NEWTOWN SURGERY,-2.735705,53.362158
2243.32,ROPE GREEN MEDICAL CENTRE,-2.453958,53.06655
566.1400000000001,PENNY LANE SURGERY,-2.915004,53.389404
445.81,ABINGDON FAMILY HEALTH CARE CENTRE,-2.943503,53.440571
1931.36,WINGATE MEDICAL CENTRE,-2.874647,53.488385
1822.79,AINSDALE MEDICAL CENTRE,-3.03882,53.602403
656.7000000000002,CORNERSTONE SURGERY,-2.457402,53.58815500000001
737.97,BARLBOROUGH MEDICAL PRACTICE,-1.284471,53.289528
457.5799999999999,VICTORIA PARK HEALTH CENTRE,-1.1192,52.619071
517.77,THE WRAGBY SURGERY,-0.301337,53.287948
2244.4500000000007,SOUTH GRANGE MEDICAL GROUP PRACTICE,-1.166506,54.56995500000001
438.7100000000001,QUEEN STREET MEDICAL PRACTICE,-3.589063,54.546567
466.4,OLD FORGE SURGERY,-2.079758,54.623041
398.58,EGTON SURGERY,-0.7552379999999999,54.445555
797.7399999999999,VESPER ROAD,-1.615337,53.827318
472.32000000000005,GLADSTONE HOUSE SURGERY,-1.307927,52.968816
233.05,THE PRACTICE-SAYEED,-1.106589,52.63081700000001
849.6899999999998,GLEADLESS MEDICAL CENTRE,-1.451325,53.356551
1153.74,TRAMWAYS AND MIDDLEWOOD MEDICAL CENTRES,-1.515268,53.418958
448.25999999999993,LANGSTONE WAY SURGERY,-0.210815,51.606981
190.64000000000004,ELMTREES SURGERY,-0.335968,51.550787
1290.6900000000005,TULASI MEDICAL CENTRE,0.12448900000000002,51.561005
450.6,THE MILLER PRACTICE,-0.092165,51.551419
884.27,WARRIOR SQUARE SURGERY,0.562007,50.852963
978.45,SNODLAND MEDICAL PRACTICE,0.441488,51.326053
352.9500000000001,SUTTON VALENCE GROUP PRACTICE,0.59403,51.211195
693.36,LEITH HILL PRACTICE,-0.322969,51.150452
1281.8300000000004,THE GROVES MEDICAL CENTRE,-0.26224,51.410048
1073.32,THE MARINE & OAKRIDGE PARTNERSHIP,-1.806532,50.722838
324.5500000000001,MALTHOUSE MEADOWS SURGERY,-2.568038,50.668698
875.5999999999997,THE STAUNTON SURGERY,-0.978019,50.851067
1019.8299999999997,PORT ISAAC SURGERY,-4.824594,50.589808
637.9699999999998,THE CORINTHIAN SURGERY,-2.0815,51.906706
1459.2900000000006,ST JOHNS HOUSE SURGERY,-2.25911,52.18874
724.3400000000001,CASTLEFIELDS,-2.129518,52.801013
434.51,ADDERLEY GREEN SURGERY,-2.135511,52.991714
519.7500000000001,HARBURY SURGERY,-1.458027,52.236759
330.92,DR BILAS,-2.063063,52.612824
0.59,HOSP.OF THE GOOD SHEPHERD,-2.901692,53.242544
956.93,BLUNDELLSANDS SURGERY,-3.041273,53.484452
1780.9799999999993,QUEEN SQUARE MEDICAL PRACTICE,-2.800994,54.046219
224.22000000000003,DILL HALL SURGERY,-2.390844,53.754996
1087.6799999999996,WEST TIMPERLEY MEDICAL CENTRE,-2.353117,53.402699
517.26,MARUS BRIDGE PRACTICE,-2.643772,53.529393
150.96,SUMMERLEE MEDICAL CENTRE,-0.652145,52.337022
96.2,HEALTH E1,-0.07152500000000002,51.518304
394.79,SLAG LANE MC,-2.575634,53.47856899999999
360.4599999999999,THE GRANGE MEDICAL CENTRE,-0.262039,52.57839
104.56,CAXTON HOUSE SURGERY,-1.382415,53.575347
0.68,ALEX CENTRE UNREGISTERED WIC,-0.369696,51.568372
429.32000000000005,WESTCOTES MEDICAL CENTRE,-1.153587,52.63133199999999
10.18,PRIMARY HEALTHCARE DARLINGTON,-1.561958,54.528141
5.76,WEST MERTON ACCESS HUB,-0.210281,51.409967
2.94,DERBY CITY SOUTH HEALTHCARE LTD,-1.531656,52.891817
427.34,REDGATE MEDICAL CENTRE,-2.987659,51.126385
600.35,GREAT WITLEY SURGERY,-2.361004,52.291152
861.17,MADELEY PRACTICE,-2.345126,52.999856
1042.4599999999996,GREEN RIDGE SURGERY,-1.8710349999999998,52.428433
550.6500000000001,RIVER BROOK MEDICAL CENTRE,-1.913809,52.43303
632.33,BUNBURY MEDICAL PRACTICE,-2.649377,53.116827
613.8900000000003,MURDISHAW,-2.662128,53.323997
701.2000000000002,ROCK COURT SURGERY,-2.916187,53.411597
1013.78,POPLAR HOUSE SURGERY,-3.03076,53.754721
1438.1899999999996,QUEENSWAY MEDICAL CENTRE,-2.995384,53.846569
1176.96,CASTLETON HEALTH CENTRE,-2.18229,53.597034
507.19,HAVEN HEALTH,1.327039,51.96536
1279.61,DR KK CHAN & PARTNERS,-2.489022,53.524185
239.34,DANEHOUSE MEDICAL PRACTICE,-2.238948,53.791326
798.1599999999999,SWANSWELL MEDICAL CENTRE,-1.816529,52.432515
260.0,DR MALIK - KENT ELMS HC,0.664114,51.563831
278.97,CITY ROAD MEDICAL CENTRE,-0.091116,51.527895
6.9,SALFORD GP OUT OF HOURS,-2.323424,53.487545
63.11,LEICESTER CITY ASSIST PRACTICE,-1.136115,52.637338
376.08,BOTOLPH BRIDGE COMMUNITY HEALTH CENTRE,-0.261557,52.562595
200.27,SHORTSTOWN MEDICAL CENTRE,-0.432463,52.110853
68.95,MK URGENT CARE SERVICES OOH,-0.7357599999999997,52.026384
3.77,NOTTINGHAM CITYCARE,-1.155769,52.951832
6.37,ASHTON PCC SEVEN DAY ACCESS OOH,-2.099981,53.485827
1126.1999999999996,THE HAWTHORNS SURGERY,-1.825965,52.538746
951.4599999999997,PARK HOUSE MEDICAL CENTRE,-2.805295,53.42670699999999
760.5300000000002,SOUTH KING STREET MEDICAL CENTRE,-3.047855,53.816775
629.5399999999998,DR A CALOW'S PRACTICE,-2.503837,53.742584
616.88,GUTTERIDGE MEDICAL CENTRE,-2.691248,53.769881
956.85,ST MARY'S MEDICAL CENTRE,-2.108554,53.543625
1869.02,CHEADLE MEDICAL PRACTICE,-2.213539,53.393745
475.24999999999994,GREEN STREET GREEN MED CT,0.089996,51.354366
486.2899999999999,3/ST ANDREWS MEDICAL CENTRE,-2.339619,53.484875
752.0399999999998,HORIZON HEALTH CENTRE,-2.965121,51.331294
4.8500000000000005,ANN MARIE HOWES CENTRE,-1.7785380000000002,52.464805
459.64,BLACKFRIARS,-2.254244,53.484135
12.48,FIRST COMMUNITY HEALTH & CARE,-0.170767,51.235608
7.19,BEDSER HUB,-0.556304,51.315132
1.04,AIREBOROUGH COMMUNITY CARE,-1.684881,53.866663
336.35,CALDBECK SURGERY,-3.050622,54.749864
671.05,OXFORD STREET SURGERY,-3.5505760000000004,54.64373
74.91000000000003,WRAYSDALE HOUSE SURGERY,-3.076077,54.367247
1753.7,SAVILLE MEDICAL GROUP,-1.609598,54.976095
734.4799999999998,COOK BF,-0.357512,53.780969
362.65,PEELER HOUSE SURGERY,-0.438756,53.72252
755.8199999999998,DR INGRAM & PTRS,-1.526892,54.136451
1668.56,LINGWELL CROFT SURGERY,-1.535053,53.749986
427.8700000000002,HOUNSFIELD SURGERY,-0.811033,53.183702
462.2900000000001,LENSFIELD MEDICAL PRACTICE,0.124449,52.198365
575.7300000000001,CEDAR BROOK PRACTICE,-0.41413199999999994,51.534092
1.36,THE ROYAL MEWS SURGERY,-0.145223,51.498764
476.11,ROSE VILLA SURGERY,0.506616,51.566232
1196.36,ADELAIDE MEDICAL CENTRE,-0.161257,51.543548
279.85,DR DHITAL PRACTICE,-0.003074,51.587786
237.0,HOLLINGTON SURGERY,0.872487,51.151423
1122.2799999999997,WOODLANDS HEALTH CENTRE,0.38485,51.18077
219.32,NORHEADS LANE SURGERY,0.026739,51.314542
365.77,HARTLAND WAY SURGERY,-0.045782,51.374372
552.1299999999999,BOYATT WOOD SURGERY,-1.36001,50.977856
352.7600000000001,GREEN PRACTICE,-0.371755,51.468263
398.75999999999993,THE ABBOTSBURY PRACTICE,-0.397406,51.579266
1027.61,NUFFIELD HOUSE HEALTH CENTRE,0.112828,51.774439
1014.96,MARTINS OAK SURGERY,0.483675,50.91716
401.7600000000001,THE GLEBE FAMILY PRACTICE,0.544473,51.383164
498.44000000000017,MALLING HEALTH BLUE SUITE,0.609995,51.363412
813.17,KNOLL MEDICAL PRACTICE,0.101068,51.375411
196.7,CLIFTON RISE FAMILY PRACTICE,-0.03143300000000001,51.476334
283.73,BLACKFRIARS MEDICAL PRACTICE,-0.105775,51.505364
1523.7699999999998,HASLEMERE HEALTH CENTRE,-0.707586,51.092107
1016.91,FARNHAM DENE MEDICAL PRACTICE,-0.777405,51.200549
519.14,THE DORCHESTER RD SURGERY,-2.457512,50.625193
337.19,CRONDALL NEW SURGERY,-0.858386,51.237211
578.2599999999999,ST.JAMES SURGERY,-1.989956,51.352926
238.49999999999997,CORDWALLIS ROAD SURGERY,-0.7240259999999998,51.528097
929.0300000000002,BOTLEY MEDICAL CENTRE,-1.299442,51.753753
458.56,ST. MARY'S SURGERY,-2.479869,51.326082
1023.04,QUEEN'S MEDICAL CENTRE,-4.057196,51.080161
1773.9200000000005,BRUNEL MEDICAL PRACTICE,-3.516948,50.479349
417.28,EXMOOR MEDICAL CENTRE,-3.544825,51.038507
326.1600000000001,CHADDESLEY SURGERY,-2.158038,52.361961
1820.46,THE MANOR PRACTICE,-1.8236169999999998,52.55816
269.81000000000006,CHARLES ROAD SURGERY,-1.850621,52.4722
640.93,DUNCAN STREET PRIMARY CARE PARTNERSHIP,-2.126602,52.57346999999999
891.3499999999997,DR JUDE'S PRACTICE - RIVERSIDE,-2.943016,53.398876
782.7400000000001,WESTOVER SURGERY,-5.07501,50.148927
186.04,LANGTHORNE SHARMA FAMILY PRACTICE,0.0021,51.555415
126.58,THE MANOR PARK PRACTICE,0.057339,51.55393
1329.56,WEST MEADS SURGERY,-0.701481,50.788299
542.58,TRENTHAM MEWS MEDICAL CENTRE,-2.189898,52.970452
353.79,WILLESDEN GREEN SURGERY,-0.216091,51.553773
85.21999999999998,THE SUMMITT PRACTICE,0.04536,51.539588
8.01,SELDOC HEALTHCARE,-0.283378,51.412517
2.17,PRUH URGENT CARE CENTRE,0.059146,51.366243
32.980000000000004,WIDNES GP EXTRA SERVICE,-2.735705,53.362158
1.92,MALLING CLUSTER,0.277462,51.194717
696.5600000000002,DR THORNILEY-WALKER & PARTNERS,-1.460703,54.949762
98.24000000000002,DR U AKBAR,-1.777945,53.803569
1322.2500000000007,BROOKROYD HOUSE,-1.67818,53.707224
461.01,AIREBOROUGH FAMILY PRACTICE,-1.684881,53.866663
1279.3000000000004,BUSHLOE SURGERY,-1.116921,52.583283
1376.44,THE BURBAGE SURGERY,-1.361645,52.53009599999999
187.81000000000003,PASLEY ROAD HEALTH CENTRE (TK KHONG),-1.146741,52.591287
1411.8200000000004,NETTLEHAM MEDICAL PRACTICE,-0.476253,53.262865
175.53000000000003,HAROLD STREET MEDICAL CENTRE,-1.492871,53.393121
293.78,UNIVERSITY HEALTH SERVICE HEALTH CENTRE,-1.482709,53.380323
746.11,LEISTON SURGERY,1.575953,52.207708
457.79,HEATHFIELDE MEDICAL CENTRE,-0.179797,51.585238
365.73,BRENTFIELD MEDICAL CENTRE,-0.260251,51.550588
461.5300000000001,DR NAVIN KUMAR,0.70187,51.544989
160.19000000000003,RUSTON STREET CLINIC,-0.027306,51.536264
812.3299999999998,SCHOOL HILL MEDICAL PRACTICE,0.012064,50.873469
1418.8099999999995,MOTE,0.545625,51.246876
977.72,SHEPPERTON MEDICAL PRACTICE,-0.453153,51.396402
1314.02,GRAYSHOTT SURGERY,-0.745626,51.110093
899.81,THE MANOR PRACTICE,-0.234983,50.835138
441.7899999999999,HAMPTON HILL MEDICAL CENTRE,-0.354892,51.427508
170.51999999999995,CLAPHAM JUNCTION MEDICAL PRACTICE,-0.173908,51.465969
247.5,OLD SCHOOL HOUSE SURGERY,-1.604408,51.376032
1112.27,WINSCOMBE SURGERY,-2.830537,51.315196
1845.39,PEMBROKE MEDICAL GROUP,-3.560246,50.445527
337.47,PRIORY ROAD SURGERY,0.589253,50.860828
1714.2099999999994,SWANSCOMBE HEALTH CENTRE,0.28731,51.424657
410.0299999999999,ELTHAM PARK SURGERY,0.061023,51.4547
430.16,JAMES O'RIORDAN MEDICAL CENTRE,-0.212686,51.385157
1892.3600000000006,WISTARIA & MILFORD SURGERIES,-1.547285,50.760041
299.9,27 BEAUMONT STREET,-1.26216,51.755081
522.65,WIDCOMBE SURGERY,-2.354321,51.376371
1043.35,ST LUKES MEDICAL CENTRE,-3.517636,50.394313
500.25,FRITHWOOD SURGERY,-2.162379,51.729707
1267.6799999999996,HILLVIEW MEDICAL CENTRE,-1.951153,52.305568
822.21,GORDON STREET SURGERY,-1.644613,52.810998
511.00000000000006,LONGTON MEDICAL CENTRE,-2.770123,53.417492
934.8799999999997,PRIMROSE SURGERY,-2.357311,53.456159
1325.17,DR AHMAD & PTNRS,-2.595925,53.522279
464.91,THE OLD DAIRY HEALTH CENTRE,-0.091201,51.436586
744.9199999999998,THE ISLAND SURGERY,0.591014,51.520226
586.8499999999998,JS MEDICAL PRACTICE,-0.078706,51.589103
1117.6900000000003,GATEWAY PRIMARY CARE,-1.352431,53.429997
193.67,ESSINGTON MEDICAL CENTRE,-2.056915,52.63194
179.60000000000005,SUMMERFIELD GP SURG & URGENT CARE CENTRE,-1.937353,52.487686
463.1,THE WILLASTON SURGERY,-3.011643,53.292908
6.6000000000000005,SOUTH KENT GROUP,1.118942,51.075872
1.29,SUTTON COMMUNITY SERVICES,-0.183642,51.380313
2.41,WHITTINGTON HEALTH (ISLINGTON),-0.139066,51.566482
17.03,URGENT CARE CENTRE NORTHWICK PARK HOSP,-0.322037,51.575407
6.88,SLEAFORD EXTENDED ACCESS K2,-0.406507,52.997784
861.99,STONELEIGH SURGERY,-2.770704,54.227277
393.01,BROWNEY HOUSE SURGERY,-1.670679,54.800313
1072.0,TOWNHEAD SURGERY,-2.276903,54.070534
302.38000000000005,HORNE STREET SURGERY,-1.871717,53.725678
676.1000000000001,HONLEY SURGERY,-1.791936,53.602386
799.5900000000001,GOSBERTON MEDICAL CENTRE,-0.159263,52.869915
1509.85,THE MANOR SURGERY,-1.216371,52.925036
496.63,PROSPECT MEDICAL PRACTICE,1.285656,52.643921
865.4000000000002,THE GARDEN CITY PRACTICE,-0.209287,51.797151
411.32000000000005,MAPESBURY MEDICAL GROUP,-0.209473,51.551496
775.1300000000001,RIVERMEAD GATE MED.CTR.,0.472887,51.740849
457.32,ROMAN WAY MEDICAL CENTRE,-0.10550599999999999,51.544561
324.62,CHOLMLEY GARDENS SURGERY,-0.195423,51.552261
635.12,ESSEX LODGE,0.026685000000000004,51.527915
697.92,GROVELANDS MEDICAL CENTRE,-0.112028,51.620685
1927.56,HIGH GLADES MEDICAL CENTRE,0.551301,50.878354
936.7899999999998,ST JAMES' SURGERY,1.315702,51.128516
426.63,OXSHOTT MEDICAL PRACTICE,-0.360843,51.333099
785.6699999999998,BRIDGE MEDICAL CENTRE,-0.166439,51.117364
370.36,LAVENDER HILL GROUP PRACTICE,-0.15683,51.466044
1177.52,THE CRANBORNE PRACTICE,-1.9192779999999998,50.919773
1192.9700000000005,ST.MARY'S SURGERY,-1.397475,50.905746
707.7200000000001,NEW FOREST MEDICAL GROUP,-1.576665,50.81471
1030.9,SWALLOWFIELD MEDICAL PRACTICE,-0.958531,51.378289
937.5399999999998,CHERRYMEAD SURGERY,-0.700228,51.608271
1163.6,HORFIELD HC,-2.576275,51.489998
715.3899999999999,CARNON DOWNS SURGERY,-5.091905,50.22345
594.9699999999998,WHITE HOUSE SURGERY,-1.705957,51.983554
458.0400000000001,SPRINGMEAD SURGERY  CHARD,-2.967972,50.869562
685.2800000000002,CHURCH STRETTON MEDICAL CENTRE,-2.806169,52.537286
833.5299999999999,DR KS UPTON'S PRACTICE,-1.986582,52.988358
1318.59,KINGSWAY MEDICAL CENTRE,-1.289009,54.606459
551.3000000000001,WARWICK ROAD SURGERY,-2.928541,54.893858
644.4099999999999,PRUDHOE MEDICAL GROUP,-1.853822,54.96186
930.35,TALBOT MEDICAL CENTRE,-1.440661,54.973054
954.2900000000002,NOVA SCOTIA MEDICAL CNTR,-1.373051,53.747561
796.55,ARTHUR MEDICAL CENTRE,-1.422636,53.001503
1356.1899999999996,WOODVILLE SURGERY,-1.5365030000000002,52.770685
1334.05,NEWBOLD VERDON MED.PRACT.,-1.34334,52.634612
800.6799999999998,PORTLAND MEDICAL PRACTICE,-0.539074,53.22371999999999
1161.11,TORKARD HILL MEDICAL CTRE,-1.207389,53.029901
459.23,BAKERSFIELD MEDICAL CENTRE,-1.104957,52.960219
787.1799999999998,HIGH STREET PRACTICE,-1.458313,53.597926
1007.78,VILLAGE SURGERY,-1.251934,53.39421
187.06,ALLENBY CLINIC,-0.376261,51.531514
2025.1,DR PUZEY DR KOTHARI AND DR NANDA,0.705992,51.582107
588.1300000000001,DR BAKER & PARTNERS,0.548167,51.570733
265.57000000000005,INGREBOURNE MEDICAL CENTRE,0.210579,51.600308
450.89,THE ORDNANCE UNITY CENTRE FOR HEALTH,-0.039073,51.672653
374.75999999999993,CROUCH HALL ROAD SURGERY,-0.127301,51.579178
1120.1799999999996,CENTRAL SURGERY,-0.299929,51.390825
953.52,ST PAUL'S SURGERY,-1.32139,51.065963
710.58,SHEET STREET SURGERY,-0.605507,51.479648
940.2199999999998,HEDENA HEALTH,-1.204547,51.76203
747.05,BLOXHAM SURGERY,-1.372977,52.018108
845.2299999999997,KINGTON MEDICAL PRACTICE,-3.022556,52.199361
1231.8400000000004,SEVERN FIELDS MEDICAL PRACTICE,-2.721619,52.728047
254.36,SELLY OAK HEALTH CENTRE,-1.939144,52.438251
1813.85,PEELHOUSE MEDICAL PLAZA,-2.72256,53.372135
1273.6,CUMBERLAND HOUSE SURGERY,-2.990437,53.638743
683.4900000000001,LANE ENDS SURGERY,-2.727014,53.770173
164.74,HOLLINS GROVE SURGERY,-2.477472,53.705346
663.3800000000001,WHITTAKER LANE MED CENTRE,-2.268645,53.528488
980.16,WEST GORTON MEDICAL PRACTICE,-2.203859,53.46720500000001
249.11000000000004,OLDHAM FAMILY PRACTICE,-2.116945,53.543824
366.36000000000007,SHAY LANE MEDICAL CENTRE (PATEL),-2.31556,53.372189
4.63,AT HOME SERVICE,-0.10603,51.438104
6.37,GP HUBS - GP HEALTH PARTNERS LTD,-0.266331,51.334184
5.16,EXTENDED ACCESS PCD TICKHILL SURGERY,-1.110773,53.43304499999999
1541.57,BIRTLEY MEDICAL GROUP,-1.576441,54.891881
1039.81,THE LEEDS ROAD PRACTICE,-1.535156,53.980466
759.6399999999999,APOLLO COURT MEDICAL CENTRE,-1.524816,53.542364
943.31,THE LAKESIDE PRACTICE,-1.148909,53.61549599999999
643.52,FOXHILL MEDICAL CENTRE,-1.501327,53.429911
416.41,WESTWOOD CLINIC,-0.269054,52.591395
790.9099999999999,THEOBALD MEDICAL CENTRE,-0.285584,51.661381
553.1,SUDBURY & ALPERTON MEDICAL CENTRE,-0.298046,51.536916
309.34,THE SURGERY,-0.184519,51.497627
1555.64,CHURCHILL MEDICAL CENTRE,-0.018466,51.618226
1164.4599999999996,THE CHESTERFIELD DRIVE PRACTICE,1.132012,52.07623
871.63,COMBS FORD SURGERY,0.995999,52.180181
718.7099999999998,CAULDWELL MEDICAL CENTRE,-0.472495,52.128265
919.95,PRIORY MEDICAL CENTRE,-0.50567,52.167181
641.1400000000001,HILLVIEW SURGERY,-0.318331,51.540536
191.52,DR HAFFIZ,-0.119262,51.539321
169.67,SANDRINGHAM PRACTICE,-0.067207,51.547773
34.22,ESK ROAD MEDICAL CENTRE,0.024266,51.522454
422.13999999999993,MONTPELIER SURGERY,-0.149079,50.827148
649.4200000000002,THE AVENUE SURGERY,-0.113425,50.844357
1886.23,REACH HEALTHCARE,0.52408,51.337756
513.6,SELLINDGE SURGERY,1.002785,51.103536
1016.41,LAKESIDE MEDICAL,0.122454,51.496518
575.7500000000001,CAMBERLEY HEALTH CENTRE,-0.754069,51.324435
1487.5200000000002,HARBOUR VIEW HEALTHCARE,-0.27437,50.833817
948.44,NEW POND ROW SURGERY,-0.322292,50.824911
308.1600000000001,FLOOD (ESSEX HOUSE),-0.247469,51.472541
1098.32,WILSON PRACTICE,-0.966958,51.153736
459.39,WOLLASTON AND BOZEAT SURGERIES,-0.674311,52.252471
1207.03,LEAP VALLEY MEDICAL CENTRE,-2.487852,51.496541
1142.6399999999996,KINGSTEIGNTON MEDICAL PRACTICE,-3.597395,50.54898
795.2799999999999,ST.LEVAN SURGERY,-4.177328,50.383921
1139.43,STIRCHLEY MEDICAL PRACTICE,-2.433777,52.655188
977.1399999999999,LUDLOW - PORTCULLIS,-2.715958,52.368905
753.0100000000001,BARTON,-1.725223,52.761751
533.3899999999999,RED LION SURGERY,-2.030614,52.693241
122.3,DADHANIA SURGERY,-1.491047,52.405815
273.93,ST JAMES MEDICAL PRACTICE1,-2.097323,52.514234
217.54,HAWTHORNS MEDICAL CENTRE,-1.967268,52.501507
332.07,BROWNLOW AT MARYBONE,-2.987806,53.411269
451.07,MORETON MEDICAL CENTRE,-3.110005,53.39886
553.04,LITTLE LEVER HEALTH CENTRE 1,-2.370624,53.55981800000001
487.09,WOODBANK SURGERY,-2.308802,53.60507
771.5100000000001,DRS HANIF &  BANNURU,-2.184157,53.484308
111.25,4/LOWER BROUGHTON MEDICAL PRACTICE,-2.258808,53.49359
1194.64,BRINNINGTON SURGERY,-2.132367,53.427651
919.49,CONWAY ROAD MEDICAL PRACTICE,-2.303561,53.417873
432.1,DESFORD MEDICAL CENTRE,-1.296116,52.627473
110.83,DR VIJE'S SURGERY,-1.650877,52.617569
304.82,HIGHFIELD HEALTH,-1.395746,50.932777
70.34,DR R SHARMA'S PRACTICE,-0.096482,51.499125
98.55,HALF PENNY STEPS HEALTH CENTRE,-0.206044,51.526213
1951.28,NORTON MEDICAL CENTRE,-1.308737,54.588737
3710.44,CARLISLE HEALTHCARE,-2.930647,54.893714
229.69,PEEL PARK SURGERY,-1.731903,53.806791
932.59,MAYBUSH MEDICAL CENTRE,-1.489249,53.670273
1291.2900000000004,THE GOLDEN BROOK PRACTICE,-1.272531,52.901553
902.75,IBSTOCK HOUSE SURGERY,-1.401818,52.684869
982.3699999999997,RUSKINGTON SURGERY,-0.400977,53.048226
1824.59,BARNBY GATE SURGERY,-0.8049699999999999,53.074931
1061.5000000000002,DUKE MEDICAL CENTRE,-1.455657,53.378576
446.21,FALKLAND HOUSE SURGERY,-1.514423,53.359728
1120.06,PRIORY FIELDS SURGERY,-0.179856,52.332272
431.09,BOURN SURGERY,-0.063404,52.193155
757.9599999999998,COACHMANS MEDICAL PRACTICE,-0.203875,51.096335
721.12,MILTON KEYNES VILLAGE SURG,-0.697865,52.043891
537.4200000000001,DRS DE ROSA & WILLIAMS,-2.167857,52.569265
24.85,COMMUNITY CARDIOLOGY SERVICE,0.15356,51.455555
0.95,INTERMEDIATE CARE-GP SERVICE,-2.130253,53.548188
18.55,BASSETLAW HEALTH PARTNERSHIP,-0.950634,53.325451
1491.38,FIELDHOUSE MEDICAL GROUP,-0.112579,53.564436
1545.4200000000005,HEREWARD MEDICAL CENTRE,-0.380913,52.768626
991.88,SAXON CROSS SURGERY,-1.273642,52.931099
1859.55,PENISTONE GROUP PMS PRACTICE,-1.630732,53.523565
390.9000000000001,THE NAYAR PRACTICE,-1.1933790000000002,53.480824
492.01,DR RAOLU'S PRACTICE,-1.204348,53.423549
1477.0500000000004,THE PARK SURGERY,1.7292759999999998,52.606218
324.56,EAST BARNET HEALTH CENTRE,-0.166424,51.646339
561.6200000000001,LANFRANC MEDICAL CENTRE,-0.332746,51.561586
242.92,THE TUDOR HOUSE MEDICAL CENTRE,-0.266689,51.564495
582.1399999999999,LABURNUM HEALTH CENTRE,0.151208,51.560662
111.78,NEW NORTH HEALTH CENTRE,-0.091592,51.537534
1147.5299999999995,HOVE MEDICAL CENTRE,-0.19539,50.845024
405.81000000000006,PRIMECARE PMS (SOUTH STREET),-0.012448,51.476194
340.5800000000001,THE GARDENS SURGERY,-0.066803,51.46061
1202.27,FORT HOUSE SURGERY,-0.412578,51.37881
1430.1099999999994,OXTED HEALTH CENTRE,9.9e-05,51.257686
934.78,THE WRYTHE GREEN SURGERY,-0.171312,51.371749
883.2400000000001,THE LAWN MEDICAL CENTRE,-1.7619029999999998,51.547821
738.6900000000002,NORDEN HOUSE SURGERY,-0.882727,51.944924
171.71,ST MARY'S HEALTH CENTRE,-6.308668,49.911605
1123.34,TOPSHAM SURGERY,-3.462097,50.683825
611.15,BAMPTON SURGERY,-1.55034,51.729032
811.88,WOODLANDS MEDICAL CENTRE,-1.258898,51.603637
1829.86,PETROC GROUP PRACTICE,-4.943163,50.430739
1498.67,TAVYSIDE HEALTH CENTRE,-4.145976,50.545824
1420.2999999999995,EAST QUAY MEDICAL CENTRE,-3.000471,51.135669
344.15,BREDON HILL SURGERY,-2.104857,52.030166
583.28,HAGLEY SURGERY,-2.144103,52.420783
307.01,KNOCKIN MEDICAL CENTRE,-2.993042,52.79343
99.59,YARDLEY MEDICAL CENTRE,-1.828397,52.463189
481.8700000000002,PHOENIX FAMILY CARE,-1.51543,52.390005
3422.0600000000004,ASHTON MEDICAL GROUP,-2.089184,53.489361
1227.1799999999996,BRADSHAW MEDICAL CENTRE,-2.688594,53.537889
232.61,SAVILE TOWN MEDICAL CTR.,-1.625804,53.68222900000001
102.62,LIMEFIELD ROAD MEDICAL PRACTICE,-2.26047,53.506995
599.5300000000002,THE ORCHARD SURGERY,-0.324352,50.828062
128.61,THE MATTHEWMAN PRACTICE,-0.149281,51.545823
1.99,RICHARDSON COMMUNITY HOSPITAL,-1.9161529999999998,54.545708
224.17,LAKESIDE SURGERY,-1.310932,53.52812
284.35,THE DANBY PRACTICE,-0.907874,54.468317
424.66,VALLEY VIEW SURGERY,-1.731903,53.806791
1232.2099999999996,THE NORTH LEEDS MEDICAL PRACTICE,-1.534037,53.843332
1390.65,IVY GROVE SURGERY,-1.402822,53.042198
470.52,FRIAR GATE SURGERY,-1.485624,52.924816
928.25,NAVENBY CLIFF VILLAGES SURGERY,-0.526297,53.103518
908.37,THE LINDEN MEDICAL GROUP,-1.273642,52.931099
793.7799999999999,ASKERN MEDICAL PRACTICE,-1.148909,53.61549599999999
435.19,BUTE HOUSE MEDICAL CENTRE,-0.423966,51.880162
599.4400000000002,LICHFIELD GROVE SURGERY,-0.19329,51.599604
654.0099999999999,GURU NANAK MEDICAL CENTRE,-0.387151,51.511774
306.37,SOUTH GREEN SURGERY,0.430504,51.613411
280.67,RICHMOND ROAD MEDICAL CENTRE,-0.065532,51.543051
541.5099999999999,THE LAWSON PRACTICE,-0.079465,51.533775
811.5799999999998,LEYTON HEALTHCARE 4TH FLOOR,-0.013313,51.559894
259.06000000000006,FRANCIS ROAD MEDICAL CENTRE,-0.003831,51.561975
1470.97,OLD SCHOOL SURGERY,0.100722,50.772062
344.7000000000001,UNIVERSITY MEDICAL CENTRE,1.062127,51.296198
389.72,ST STEPHENS HOUSE SURGERY,-0.305726,51.31772
526.9699999999999,PARK VIEW HEALTH PARTNERSHIP,-0.137252,50.961825
669.8800000000001,LAMBTON ROAD MEDICAL PRACTICE,-0.231169,51.411219
853.8300000000002,LORDSHILL HEALTH CENTRE,-1.448733,50.940999
977.16,BYFIELD MEDICAL CENTRE,-1.242893,52.174071
248.43,CAMBRIDGE HOUSE,-2.144827,53.024433
1030.9299999999996,ARBURY MEDICAL CENTRE,-1.497961,52.51662
298.4500000000001,CHURCH LANE - KHAN,-1.793962,52.487056
409.81,SOHO ROAD PRIMARY CARE CENTRE,-1.934945,52.503094
164.14,PARK HOUSE SURGERY,-1.942965,52.54446
168.9,BEECHDALE CENTRE,-2.007339,52.600867
1283.6899999999996,HOLES LANE MEDICAL CENTRE,-2.545107,53.399828
933.63,LACHE HEALTH CENTRE,-2.914326,53.173615
958.32,DINGLE PARK PRACTICE,-2.972885,53.38633
1783.56,RAINBOW MEDICAL CENTRE,-2.705931,53.435389
535.06,BEECHWOOD SURGERY,-3.009057,53.871568
1466.4199999999994,HEYWOOD HEALTH,-2.239335,53.58736999999999
860.7299999999998,THE GILL MEDICAL PRACTICE,-2.398384,53.524288
730.69,GLOUCESTER HOUSE MEDICAL CENTRE,-2.352599,53.447337
167.79999999999995,PAK HEALTH CENTRE,-1.856091,52.490749
126.98,WALFORD STREET  TIVIDALE,-2.059752,52.513192
861.5099999999996,LITTLE LONDON SURGERY,-1.979284,52.574984
629.9199999999998,STRETTON MEDICAL CENTRE,-2.577017,53.339489
110.69,THE DALE MEDICAL PRACTICE,-2.154239,53.611617
271.9,WALNUT ST MED CTR (LEICESTER MED GROUP),-1.138855,52.624601
401.77,FIR TREE,-2.878691,53.44930600000001
32.87,CAMBRIDGE ACCESS SURGERY,0.138701,52.20875
0.28,NELPCT OUT OF HOURS SERVICE,-0.096229,53.544858
2.89,ANGEL LODGE,-1.50929,53.683308
523.0000000000001,ETTINGSHALL MEDICAL CENTRE,-2.092879,52.570364
0.65,WALK IN CENTRE (WIC),-1.784934,51.563016
0.96,HP NMP'S NN & E CCG,-1.143101,53.130244
343.54,RUSHEY MEAD HEALTH CENTRE,-1.103823,52.663187
603.08,ST ANN'S ROAD SURGERY,-0.08783399999999998,51.581428
1178.4,LEIGH FAMILY PRACTICE,-2.511927,53.493519
378.36,THE PRACTICE FELTHAM,-0.411086,51.446367
509.0399999999999,HENDON WAY SURGERY,-0.241873,51.579182
34.3,SPECIALIST NURSE,-1.517573,53.993807
31.64,TAURUS HEALTHCARE LTD,-2.71099,52.05708
65.83,NC GPA PLUS,-1.152649,52.954624
0.96,THE FLOWERS HUB,-1.438061,53.418053
376.91,CARTMEL SURGERY,-2.946985,54.199165
1972.6500000000005,ALNWICK MEDICAL GROUP,-1.6967470000000002,55.410086
579.1499999999999,NETHERFIELD HOUSE,-1.548435,55.063632
1718.53,PRACTICE 3  MEDICAL CENTRE  BRIDLINGTON,-0.201064,54.084715
917.89,THE ALMONDBURY SURGERY,-1.751311,53.631868
341.96,NEWLAND SURGERY,-1.424247,53.695146
3282.0000000000005,BEACON MEDICAL PRACTICE,0.331219,53.157472
138.0,GREENFIELDS MEDICAL CENTRE (YVS RAO),-1.168583,52.966506
746.3099999999998,TREETON MEDICAL CENTRE,-1.354708,53.384994
1273.27,MEADOWGREEN HEALTH CENTRE,-1.480804,53.326831
3466.31,BOROUGHBURY MEDICAL CENTRE,-0.245486,52.577858
1187.9700000000005,THE ROOKERY MEDICAL CENTRE,0.405573,52.245158
0.64,IC24-THANET CCG OOH,0.891514,51.129106
5.3,MID CLUSTER IAGPS,-1.9731169999999998,50.721987
42.42999999999999,SJUH GPS IN A+E,-1.520359,53.806869
991.87,CRUDDAS PARK SURGERY,-1.630965,54.968173
573.2500000000001,THE CHESTNUTS & HALLGATE SURGERY,-0.403621,53.778985
1016.1,HAWORTH MEDICAL PRACTICE,-1.954883,53.831322
890.1399999999999,FIELDHEAD SURGERY,-1.854229,53.641358
1006.37,CROFTON AND SHARLSTON MED PRAC,-1.427042,53.656573
1650.4199999999994,SHIRES HEALTHCARE,-1.215692,53.202513
672.87,ORCHARD SURGERY,-1.278154,52.836522
976.2600000000001,ST GEORGES MED PRACTICE,-1.132346,52.930754
219.04,WELBECK SURGERY,-1.147823,52.979645
1031.6699999999996,WICKHAM MARKET MEDICAL CENTRE,1.363674,52.151842
608.28,TODDINGTON MEDICAL CENTRE,-0.530482,51.945856
240.8,THE RANDOLPH SURGERY,-0.186852,51.529819
278.62000000000006,DR YADAVA N PRACTICE,0.334586,51.476703
440.89,ST.PAUL'S WAY MEDICAL CTR,-0.024483,51.517862
1645.34,THORNHILLS MEDICAL PRACTICE,0.440958,51.300117
1363.5500000000004,OAKLANDS HEALTH CENTRE,1.08253,51.069106
281.34000000000003,HEXTABLE SURGERY,0.182972,51.409182
799.8600000000001,LONGCROFT CLINIC,-0.192332,51.325314
416.93000000000006,THE ROEHAMPTON SURGERY,-0.242431,51.451154
1111.85,WYKE REGIS & LANEHOUSE MEDICAL PRACTICE,-2.475127,50.594634
366.57,WHITCHURCH SURGERY,-0.8426209999999998,51.882174
546.0,CRICK MEDICAL PRACTICE,-1.135861,52.343212
1042.2800000000002,KINGSWOOD HEALTH CENTRE,-2.499974,51.462895
1068.5000000000002,THE VILLAGE SURGERY,-2.219972,53.033945
2044.5100000000007,BIDDULPH VALLEY SURGERY,-2.178498,53.116111
198.49,RIVERSIDE SURGERY,-1.699518,52.632337
1146.2899999999995,THREE VILLAGES MEDICAL PRACTICE,-2.146398,52.465406
585.8600000000001,STONE CROSS MEDICAL CENTRE,-1.982689,52.545444
1708.0400000000006,STOCKTON HEATH MED.CENTRE,-2.582161,53.37195
767.9000000000002,THE VILLAGE SURGERIES GROUP,-2.771265,53.124246
829.0799999999997,ILEX VIEW MEDICAL PRACTICE,-2.280663,53.70081
671.86,SHIFA SURGERY,-2.475999,53.757295
2764.9500000000007,CHORLTON FAMILY PRACTICE,-2.279717,53.443773
580.1099999999999,OLDHAM MEDICAL SERVICES,-2.111235,53.52535699999999
558.6800000000001,MELROSE SURGERY,-0.9598620000000002,51.451692
126.21999999999998,DR R KAPUR & PARTNERS,-1.119092,52.631036
870.3999999999999,LEADGATE SURGERY,-1.805988,54.860562
1247.7,ACLE MEDICAL PARTNERSHIP,1.548667,52.640969
433.73,PEEL CROFT,-1.6339549999999998,52.799271
1007.2800000000003,MARTONSIDE MEDICAL CENTRE,-1.220329,54.553175
566.08,ROCKLIFFE COURT SURGERY,-1.544074,54.483444
1879.26,BEDLINGTONSHIRE MED.GROUP,-1.598682,55.1322
351.7099999999999,WESTBOURNE SURGERY,-1.8061,53.650937
863.7400000000004,MIDDLESTOWN,-1.600562,53.650545
475.91,DR WEBB AND PARTNERS,-1.308041,52.968251
1224.9300000000005,GOYT VALLEY MEDICAL PRACTICE,-1.983113,53.3305
303.93,CASTLE STREET MEDICAL CENTRE,-1.293753,53.229627
681.39,SILVERDALE MEDICAL CENTRE,-1.090548,52.672318
2058.890000000001,HOLT MEDICAL PRACTICE,1.116042,52.914476
884.4400000000002,HOWARD HOUSE SURGERY,1.349626,51.96149
1100.8100000000004,PARKBURY HOUSE SURGERY,-0.334063,51.756766
390.7699999999999,UXENDON CRESCENT SURGERY,-0.292809,51.572063
220.47,STERNDALE SURGERY,-0.221441,51.498326
712.3399999999998,AEGIS MEDICAL CENTRE,0.467525,51.57556
487.77,AMWELL GROUP PRACTICE,-0.11081700000000001,51.528043
898.5199999999996,MEOPHAM MEDICAL CENTRE,0.359744,51.368901
643.4800000000001,WESTERHAM PRACTICE,0.070437,51.266465
483.4800000000001,FORGE CLOSE SURGERY,0.016555,51.377137
918.0200000000002,STEYNING HEALTH CENTRE,-0.329972,50.890666
1430.8099999999995,LAVANT ROAD SURGERY,-0.781051,50.853385
330.49999999999994,THORNTON & VALLEY PARK SURGERY,-0.120709,51.388871
488.11,JOHNSON (SHEEN LANE),-0.267239,51.465848
157.7,BEGG PRACTICE,-0.179391,51.459968
667.2299999999998,MOORDOWN MEDICAL CENTRE,-1.874485,50.756212
378.36000000000007,LITTLEDOWN SURGERY,-1.833439,50.741638
785.67,EMMER GREEN SURGERY,-0.972861,51.483584
1140.6600000000005,WOLVERTON HEALTH CENTRE,-0.814934,52.054197
2356.92,ST THOMAS MEDICAL GROUP,-3.54518,50.714472
526.42,YOXALL,-1.7931740000000003,52.767984
149.01,GREET MEDICAL PRACTICE,-1.857778,52.453195
403.99000000000007,PEDMORE MEDICAL PRACTICE,-2.118211,52.457029
783.6699999999998,BOSWORTH MEDICAL CENTRE,-1.7536330000000002,52.480569
1841.7100000000007,THE PARK MEDICAL PRACTICE,-2.739045,53.77018
170.95999999999995,CROSSWAYS PRACTICE,-3.023992,53.484655
434.0899999999999,THE OLD DISPENSARY,-1.987226,50.803427
399.44,STROUD GREEN MEDICAL CENTRE,-0.114328,51.570059
0.02,CBS OOH,-1.233579,53.134573
0.73,INTERMEDIATE CARE (THE PEELE),-2.259671,53.385779
0.27,LCW HOUNSLOW CCG OOH,-0.217218,51.522362
1292.5499999999995,WEST SOMERSET HEALTHCARE,-3.3186760000000004,51.161419
1035.5700000000004,WEM AND PREES MEDICAL PRACTICE,-2.722566,52.859338
527.55,ALL SAINTS SURGERY,-1.644121,52.794285
1582.0699999999995,CENTRAL SURGERY,-1.265473,52.371743
914.86,OMNIA PRACTICE,-1.839082,52.475709
289.86000000000007,SCHOOLACRE ROAD SURGERY,-1.785797,52.497659
1156.14,DORRIDGE SURGERY,-1.752074,52.372757
671.9400000000002,MORETON CROSS GROUP PRACTICE,-3.111975,53.403551
1416.36,WITTON MEDICAL CENTRE,-2.507553,53.740232
259.34000000000003,WALMERSLEY ROAD MEDICAL PRACTICE,-2.289525,53.599849
611.0500000000002,WEST COMMON LANE TEACHING PRACTICE,-0.682441,53.57473100000001
235.82,QUEENS ROAD SURGERY,-1.474524,52.522119
241.01000000000005,BEVAN HEALTHCARE CIC,-1.753352,53.795581
701.7599999999996,RIVERSIDE MEDICAL PRACTICE,-1.315584,54.56887
68.02000000000001,MEDICUS HEALTH PARTNERS-ENFIELD ISLAND,-0.016992,51.668586
12.53,MERSEYCARE NHS TRUST,-2.826417,53.424035
752.1900000000002,RISING BROOK,-2.118782,52.787133
66.57,BLOOMSBURY SURGERY,-1.871892,52.49324300000001
368.6,ST JAMES MEDICAL PRACTICE2,-2.097323,52.514234
145.9,KHAN MEDICAL PRACTICE,-2.000799,52.613174
428.84,LINGHOLME HEALTH CENTRE,-2.744752,53.457769
1961.41,PEEL HOUSE MEDICAL PRACTICE,-2.365995,53.75089200000001
541.97,ASHURST PRIMARY CARE,-2.772723,53.563208
1404.2800000000002,RED BANK GROUP PRACTICE,-2.323706,53.560143
957.6300000000001,MARPLE BRIDGE SURGERY,-2.053323,53.400594
1436.24,GRASMERE SURGERY,-2.511455,53.503236
593.7000000000002,GRAVESEND MEDICAL CENTRE,0.369986,51.443932
1515.7200000000007,PEASE WAY MEDICAL CENTRE,-1.576495,54.618581
481.80000000000007,ELSDON AVENUE SURGERY,-1.525885,55.07062
357.72,DR WICKREMESINGHE SSG,-0.123521,51.469491
3399.850000000001,TELDOC,-2.435206,52.672614
2.26,HAROLD WOOD WIC,0.225699,51.593184
1.72,LEARNING DISABILITIES SERVICE,-1.904396,52.412409
291.56000000000006,CROSLAND MOOR SURGERY,-1.809637,53.63841
723.3200000000002,THE ROSEBERRY PRACTICE,-1.292215,54.611726
1543.0299999999993,ST ANDREW'S MEDICAL PRACTICE,-1.598213,54.699634
1757.6899999999994,TANFIELD VIEW MEDICAL GROUP,-1.701373,54.869939
471.81000000000006,DR MITCHELL,-0.503581,53.72075
814.46,BEECH HOUSE SURGERY,-1.465892,54.010836
1740.12,MANOR PARK SURGERY,-1.628914,53.814076
1085.36,PARKSIDE SURGERY,-1.391868,53.097732
1329.89,SPINNEY HILL MEDICAL CENTRE,-1.109212,52.637381
221.32,SPRINGFIELD MEDICAL CENTRE,-1.195502,53.003599
940.42,PARKGATE MEDICAL CENTRE,-1.342798,53.455454
567.5700000000002,BURWELL SURGERY,0.331841,52.273327
797.4800000000001,MARTLESHAM SURGERY,1.272068,52.061314
363.85,THE AVENUE SURGERY,-0.319031,51.518389
570.41,THE LILYVILLE SURGERY,-0.199155,51.47377
278.3900000000001,WEST LONDON MEDICAL CENTRE,-0.454699,51.525731
2269.6600000000008,ST.JAMES SURGERY,1.147433,51.787326
594.9300000000002,WITHAM HEALTH CENTRE,0.642876,51.800559
372.4,QUEENS AVENUE PRACTICE,-0.147916,51.591852
726.5900000000001,SANDWICH MEDICAL PRACTICE,1.337364,51.274071
154.98,DR RHK SINHA'S PRACTICE,-0.103058,51.482668
218.24,THE ADDISCOMBE SURGERY,-0.061851,51.376293
856.35,ADELAIDE MEDICAL CENTRE,-1.475274,51.208539
2133.7000000000007,THE CAMBRIDGE PRACTICE,-0.76565,51.254364
588.9000000000002,COLVILLE HEALTH CENTRE,-0.206231,51.515837
717.0,BRICKFIELDS SURGERY,0.605168,51.653143
376.01,TYNEMOUTH MEDICAL PRACTICE,-0.068331,51.586253
1806.75,TRINITY MEDICAL CENTRE,-0.172008,50.831228
1248.6799999999996,THE CEDARS SURGERY,1.403174,51.217619
486.11000000000007,THE KINGS FAMILY PRACTICE,0.534548,51.377821
862.8299999999998,FOUNTAIN PRACTICE,-0.252307,51.350378
397.21,ST ALBANS MEDICAL CENTRE,-0.302479,51.42195
1641.92,ORCHID HOUSE SURGERY,-1.894499,50.801788
2312.65,THE HADLEIGH PRACTICE,-1.993525,50.761018
2570.3499999999995,THREE CHEQUERS MEDICAL PRACTICE,-1.794625,51.071924
1691.11,WEAVERS MEDICAL,-0.733538,52.401531
929.09,NUFFIELD HEALTH CENTRE,-1.486793,51.786441
1842.01,BARTON SURGERY,-3.473818,50.579848
1819.82,BIDEFORD MEDICAL CENTRE,-4.211785,51.017201
1034.8900000000003,CORBETT MEDICAL PRACTICE,-2.148792,52.263269
3037.360000000001,THE WESTGATE PRACTICE,-1.821176,52.683537
487.72,COBRIDGE SURGERY,-2.187008,53.035377
118.31,BURBURY MEDICAL CENTRE,-1.9103740000000002,52.502215
734.4300000000003,PLECK HEALTH CENTRE,-1.9980380000000002,52.574248
502.13000000000005,CORNERSTONE SURGERY,-2.724149,53.454211
316.08,HIGHER HEYS SURGERY,-2.394094,53.740865
1664.37,ALBION MEDICAL PRACTICE,-2.088476,53.48960400000001
1645.6999999999996,DELAMERE MEDICAL PRACTICE,-2.307365,53.450887
233.92,240 WEXHAM ROAD,-0.57838,51.516902
652.92,LONGFIELD MEDICAL PRACTICE,-2.28357,53.533828
1206.5600000000004,THISTLEMOOR MEDICAL CENTRE,-0.254566,52.595274
249.33,PALACCI (CASTELNAU),-0.238274,51.476873
490.8,CANTERBURY HEALTH CENTRE,1.082981,51.274249
3.84,GP EXTENDED HOURS,-2.597522,53.389256
204.03,BANBURY HEALTH CENTRE,-1.334014,52.062032
498.45000000000016,BRERETON SURGERY,-1.924317,52.747482
558.67,THE LAWNS SURGERY,-0.502907,50.807746
251.89000000000004,OAK TREE HEALTH CENTRE,-1.2409629999999998,51.614986
492.38,THE TRINITY MEDICAL PRACTICE,0.760305,51.684982
322.29,SOHO HEALTH CENTRE,-1.934945,52.503094
2.86,ST CLAIRE'S HOSPICE,-1.485721,54.967655
1.5699999999999998,BECKENHAM BEACON URGENT CARE CENTRE,-0.033209,51.405232
420.27,BRIERLEY MEDICAL CENTRE,-1.382484,53.594188
0.68,NORWICH IMPROVED ACCESS HUB,1.319958,52.632405
553.25,METRO INTERCHANGE SURGERY,-1.602943,54.961848
1538.5500000000004,BRIDGE VIEW MEDICAL GROUP,-1.401824,54.919455
807.8299999999998,QUAKERS LANE SURGERY,-1.741713,54.406363
1657.97,HOLLYNS HEALTH & WELLBEING - CLAYTON,-1.81454,53.779166
858.1500000000002,BRIDGE STREET MEDICAL PRACTICE,-1.20716,52.774841
1008.7599999999996,CAYTHORPE & ANCASTER MEDICAL PRACTICE,-0.536327,52.981851
800.8899999999999,PARSON DROVE SURGERY,0.050459,52.660947
524.5,PRIORS FIELD SURGERY,0.124169,52.388951
821.1699999999997,DAVENPORT HOUSE SURGERY,-0.354549,51.816177
1175.02,MILLWAY MEDICAL PRACTICE,-0.24359099999999997,51.614985
339.86,TEMPLE FORTUNE MEDICAL GROUP,-0.197845,51.581101
54.23,MOULSHAM LODGE SURGERY,0.475137,51.716565
118.25,WARRIOR SQUARE SURGERY,0.716503,51.539534
126.55,BRAYFORD SQUARE SURGERY,-0.050404,51.514375
289.21,YORK ROAD SURGERY,0.065859,51.559165
1317.5700000000004,WEST MALLING GROUP PRACTICE,0.407707,51.293351
865.7400000000001,ELMDENE SURGERY,0.263153,51.446098
787.7399999999999,MOAT HOUSE SURGERY,-0.146361,51.259819
323.79,ALEXANDRA SURGERY,-0.205887,51.422912
514.9900000000001,DENHAM MEDICAL CENTRE,-0.502236,51.584564
670.4200000000002,CHEW MEDICAL PRACTICE,-2.629195,51.35619
878.29,ST.GEORGE'S SURGERY,-2.0815,51.906706
1247.74,CHARING SURGERY,0.791374,51.20971
383.37000000000006,THAMES AVE SURGERY,0.603057,51.36344
1737.96,CANTERBURY MEDICAL PRACTICE,1.128982,51.245539
207.5,TRAFALGAR SURGERY,-0.074414,51.485672
436.0,THE ORCHARD PRACTICE,-0.303542,51.369116
996.47,BALHAM PARK SURGERY,-0.155715,51.440487
229.02,UNIVERSITY HEALTH SERVICE,-1.395714,50.934099
645.33,LINDEN MEDICAL CENTRE,-0.737415,51.530813
644.93,OBSERVATORY MEDICAL PRACTICE,-1.265958,51.760293
392.73999999999984,CROPREDY SURGERY,-1.320027,52.116731
2409.1700000000005,HEART OF BATH,-2.373947,51.376364
510.83000000000015,BIRCHWOOD MEDICAL PRACTICE,-2.547938,51.446246
576.3499999999998,LOSTWITHIEL SURGERY,-4.668763,50.407892
424.53,ST SAVIOURS SURGERY,-2.308488,52.130324
1063.2300000000002,WERRINGTON VILLAGE SURGERY,-2.098023,53.021659
622.1,WEST HEATH SURGERY,-1.96202,52.401797
270.72,WEST PARK SURGERY,-2.141256,52.587783
447.73999999999984,THE MARSHSIDE SURGERY,-2.963125,53.67143299999999
384.88,MERSEYBANK SURGERY,-2.263012,53.42276
608.5500000000002,THE GROVE ROAD PRACTICE,-0.202341,51.358201
253.87,MOOR PARK MEDICAL PRACTICE,-1.7218490000000002,53.797834
306.1400000000001,UPTON ROCKS PRIMARY CARE,-2.754371,53.373367
343.2300000000001,HANLEY PRIMARY CARE CENTRE,-0.12083699999999999,51.567951
734.8900000000001,LEYLAND SURGERY,-2.709316,53.689645
12.3,YORKSHIRE SMOKEFREE,-1.018306,53.503028
846.1699999999998,WELLSBOURNE HEALTHCARE CIC,-0.107386,50.825445
320.82,CHEVIOT MEDICAL GROUP,-2.01842,55.546525
2198.49,THE CENTRAL SURGERY BARTON,-0.439445,53.684236
360.13,DEARNE VALLEY HEALTH CENTRE,-1.626482,53.588349
1264.83,MICKLEOVER MEDICAL CENTRE,-1.54633,52.907111
318.8,THE UNIV OF NOTTINGHAM HEALTH SERV,-1.195942,52.942177
614.88,LISTER HOUSE SURGERY,-0.4515,51.89192
335.29,THE ELMS SURGERY,-0.404224,51.661642
583.3999999999999,HOUNSLOW MEDICAL CENTRE,-0.37684,51.469395
225.1,P A PATEL SURGERY,0.582273,51.56978
140.19,SANCTA MARIA MEDICAL CENTRE,0.284011,51.507882
2399.2000000000007,SEAFORD MEDICAL PRACTICE,0.099275,50.772678
1508.49,BUXTED MEDICAL CENTRE,0.132095,50.989406
290.1600000000001,NEW INN SURGERY,-0.545657,51.257698
268.74,THE WHITEHORSE PRACTICE,-0.097391,51.385869
632.55,THE HEALTH CENTRE,-0.19711,51.363031
1153.45,WEST END ROAD SURGERY,-1.359281,50.916702
523.2599999999999,TOWER HOUSE SURGERY,-0.770004,51.636372
966.36,CHURCH STREET PRACTICE,-1.425847,51.598763
462.5100000000001,CLINTON ROAD SURGERY,-5.224966,50.23093
1281.85,PINHOE SURGERY,-3.469622,50.737528
1727.19,ROSEBANK HEALTH,-2.242194,51.852611
862.4399999999998,MAPLE VIEW MEDICAL PRACTICE,-1.905693,52.31659
471.7900000000001,PRESCOTT SURGERY,-2.852689,52.784345
173.95000000000005,BLOOMSBURY HEALTH CENTRE,-1.876618,52.493743
903.55,HEATON ROAD SURGERY,-1.579814,54.978269
766.3399999999998,49 MARINE AVENUE SURGERY,-1.451082,55.046268
855.6700000000003,HOUGHTON MEDICAL GROUP ,-1.469175,54.842322
1257.3300000000004,HOWDEN MEDICAL PRACTICE,-0.8694039999999998,53.744175
379.9000000000001,HANCOCKS ME,-0.41296400000000005,53.782123
852.3899999999996,THE WILSDEN MEDICAL PRACTICE,-1.86138,53.818377
137.30999999999997,COLSTERWORTH SURGERY,-0.619356,52.806388
489.66,LUNDWOOD MEDICAL CENTRE PMS PRACTICE,-1.438538,53.557711
391.53,GREASBROUGH MEDICAL CENTRE,-1.372776,53.452893
555.29,WELLSIDE SURGERY,-0.28478,52.440324
836.7200000000001,CLARE GUILDHALL SURGERY,0.580469,52.078259
601.3499999999998,LATTIMORE & VILLAGE SURGERY,-0.298547,51.726244
90.06999999999998,SOMERSET MEDICAL CENTRE,-0.371127,51.522244
1337.98,CENTRAL UXBRIDGE SURGERY,-0.475739,51.546229
828.8300000000002,WEST MERSEA SURGERY,0.9193420000000002,51.778349
1223.39,HIGHLANDS SURGERY,0.637339,51.548005
1048.9800000000002,BALLARDS WALK SURGERY,0.441841,51.573232
1354.24,DOWNLANDS MEDICAL CENTRE,0.244085,50.822919
955.17,OTFORD MEDICAL PRACTICE,0.191446,51.31358
289.2100000000001,THE HALFWAY SURGERY,0.524157,51.380429
477.4500000000001,BURNEY STREET PMS,-0.009168,51.479034
564.02,ELIZABETH HOUSE MEDICAL PRACTICE,-0.050005,51.308093
191.46,ADDINGTON MEDICAL PRACTICE,-0.018557,51.344382
144.51,SARAJLIC (STAINES ROAD),-0.357923,51.439672
2548.9500000000007,ROYAL CRESCENT SURGERY,-2.452679,50.616587
1252.9,TWYFORD SURGERY,-1.314229,51.019421
80.81999999999998,ABBEY MEDICAL CENTRE,-0.982406,51.453949
464.4700000000001,ST.BARTHOLOMEWS MEDICAL CENTRE,-1.232108,51.747668
2710.3099999999995,THE DOWNEND HEALTH GROUP,-2.505301,51.485109
847.91,IDE LANE SURGERY,-3.534972,50.699471
538.5500000000002,THE ARROW SURGERY,-1.861382,52.218546
1261.18,DR SN CLAY AND PARTNERS,-1.832005,52.528641
428.96,WILLENHAL OAK MEDICAL CENTRE,-1.463131,52.388988
1210.45,WORDSLEY GREEN HEALTH CENTRE,-2.164692,52.480602
1826.76,THE OVER-WYRE MED.CTR.,-2.976492,53.928203
641.23,FISHERGATE HILL SURGERY,-2.714363,53.75445500000001
278.21000000000004,THE SINGH MEDICAL PRACTICE,-2.213622,53.512042
1269.22,PARK VIEW GROUP PRACTICE,-2.160577,53.445476
250.23,FAMILY SURGERY,-2.346055,53.396194
6.91,STROKE PATHWAY AND REHABILITATION CENTRE,-1.461102,53.37116700000001
12.64,COMMUNITY PAEDIATRICS (SILCS),-1.612399,53.799904
0.61,NWR COMMUNITY SERVICES,-1.014748,51.449145
2.59,URGENT CARE,0.475497,50.850706
75.89,CRANBROOK MEDICAL PRACTICE,-3.416198,50.746596
15.66,PCOC DVT SERVICE,-0.7662759999999998,52.000308
0.65,GOSPORT PRIMARY CARE ACCESS CENTRE,-1.148081,50.793062
1619.9599999999996,WHITLEY BAY HEALTH CENTRE,-1.43996,55.04141
1439.41,BLACKBURN RD.MEDICAL CTR.,-1.664718,53.731348
2545.1900000000005,MARKET HARBOROUGH MED.CTR,-0.924843,52.477084
601.02,COMMUNITY HEALTH CENTRE (ZS OSAMA),-1.113421,52.632387
1275.4599999999996,TRAMWAYS MEDICAL CENTRE (O'CONNELL),-1.503023,53.402044
1431.36,SAFFRON HEALTH PARTNERSHIP,-0.264459,52.084232
684.7000000000002,GLADSTONE MEDICAL CENTRE,-0.24612,51.558731
429.34,ST MARTINS MEDICAL CENTRE,-0.424566,51.577646
353.5900000000001,ABRIDGE SURGERY,0.12458,51.653631
219.66000000000003,ELSDALE STREET SURGERY,-0.049094,51.543033
837.1,STOPSLEY VILLAGE PRACTICE,-0.394147,51.901132
2389.7000000000007,SHEFFORD HEALTH CENTRE,-0.321643,52.034788
429.35,VALE DRIVE MEDICAL PRACTICE,-0.194727,51.648828
530.1,THE FRYENT WAY SURGERY,-0.280565,51.582963
496.63000000000005,BELMONT MEDICAL CENTRE,-0.478036,51.548264
398.48,PORTLAND ROAD PRACTICE,-0.208019,51.507366
2143.58,AUDLEY MILLS SURGERY,0.607129,51.584978
336.0800000000001,STRATFORD HEALTH CENTRE,0.004714,51.544651
143.76,THE STROUDLEY WLK HTH CTR,-0.017533,51.527214
464.34,ST JOHN'S MEDICAL PRACTICE,0.195249,51.285009
727.1,BEXLEY GROUP PRACTICE,0.10965599999999999,51.465832
656.3800000000001,DERRY DOWNS SURGERY,0.116651,51.385174
614.2000000000002,UPPER NORWOOD GROUP PRACTICE,-0.08482,51.413308
508.5,THE MOORINGS MEDICAL PRACTICE,-0.095892,51.322229
626.38,THE TOLLERFORD PRACTICE,-2.571586,50.778924
1075.21,BLACKTHORN HEALTH CENTRE,-1.327194,50.876037
334.42999999999995,JUBILEE FIELD SURGERY,-2.191875,51.484091
603.2600000000001,DANES CAMP MEDICAL CENTRE,-0.904374,52.205152
898.62,THORNBURY HEALTH CENTRE - BURNEY,-2.517723,51.612861
805.3700000000001,ELM HAYES SURGERY,-2.492756,51.300546
551.41,CULVERHAY SURGERY,-2.348649,51.638921
1123.3399999999997,SHAWBIRCH MEDICAL CENTRE,-2.531858,52.718121
676.5300000000002,THE DOVE MEDICAL PRACTICE,-1.864605,52.535155
2142.16,MOSS GROVE SURGERY,-2.1699,52.498674
1080.0599999999997,WARLEY MEDICAL CENTRE,-2.006757,52.468122
830.6099999999999,SPRINGFIELDS MEDICAL CENTRE,-2.597522,53.389256
946.32,WEAVER VALE PRACTICE,-2.696866,53.325561
1045.78,GLOVERS LANE SURGERY,-2.971961,53.488314
503.99,OLIVE MEDICAL CENTRE,-2.484193,53.752309
420.86000000000007,HALLIWELL SURGERY 1,-2.431738,53.588322
700.7299999999998,HEATON MERSEY MED.PRACT.,-2.205118,53.412519
420.27,VILLAGE SURGERY,-0.255874,51.399503
166.87,SOMERS TOWN MEDICAL CENTRE,-0.130607,51.529916
171.88,FITZMAURICE (KEW),-0.283117,51.475875
525.3100000000001,WOOTTON VALE HEALTHY LIVING CENTRE,-0.527951,52.093688
489.96,ST LUKE'S HEALTH CENTRE,0.7293039999999998,51.551
3146.2300000000005,THE MEDICAL GROUP,-1.628911,54.748296
823.5200000000002,GLENPARK MEDICAL CENTRE,-1.640096,54.953229
161.08,DR KHALIQ,-1.799612,53.663276
1190.7800000000002,ROBIN LANE HEALTH AND WELLBEING CENTRE,-1.661311,53.79500899999999
370.53,LAUREL BANK SURGERY,-1.587333,53.816942
768.2400000000001,HUGGLESCOTE SURGERY,-1.365684,52.71103
563.5200000000002,HEALTH CARE COMPLEX  KIRKBY,-1.244634,53.100062
556.79,RED HOUSE SURGERY,0.129161,52.214906
321.77,KINGS HEAD MEDICAL PRACTICE,-0.011448,51.635688
412.63,BRIMPTON HOUSE,0.699534,51.835776
473.8500000000001,THE AZAD PRACTICE,0.044868,51.531234
394.07,NEWHOLME SURGERY,-2.74261,53.456686
0.6200000000000001,BRIGHTON STATION WALK-IN,-0.141323,50.827937
604.89,LUNESDALE SURGERY,-2.602213,54.200573
1268.27,COQUET MEDICAL GROUP,-1.580504,55.332599
264.33000000000004,THE GLENDALE SURGERY,-2.01842,55.546525
516.64,ALLERTON MEDICAL CENTRE,-1.533879,53.826921
1043.22,SPILSBY SURGERY,0.098963,53.173049
337.05000000000007,BRIDGEWAY PRACTICE,-1.147343,52.943574
1071.04,THORNE MOOR MEDICAL PRACTICE,-0.966348,53.613648
875.1699999999997,MANOR AND PARK GROUP PRACTICE,-1.42716,53.373705
385.48,SOLE BAY H/C,1.6664740000000002,52.336325
421.19,DR PS BATH'S PRACTICE,-0.394147,51.901132
296.6,WATERSIDE MEDICAL CENTRE,-0.363984,51.502165
528.05,MELBOURNE HOUSE SURGERY,0.451756,51.749214
1665.2499999999998,LITTLE WALTHAM & GT NOTLEY SURGERY,0.477622,51.787396
431.55,AMPTHILL PRACTICE,-0.137293,51.5346
538.24,THE NORTH LONDON HEALTH CENTRE,-0.11243199999999999,51.617571
541.15,THE WILLOWS PRACTICE,0.104416,51.60776
1167.36,ST.PETER'S MEDICAL CENTRE,-0.135237,50.831002
1393.89,HIGHPARKS MEDICAL PRACTICE,0.496762,51.434213
551.5600000000002,YALDING,0.429804,51.221188
810.69,CRAWLEY DOWN HEALTH CENTRE,-0.07762099999999998,51.122557
326.30000000000007,BIRDHURST MEDICAL PRACTICE,-0.092613,51.365279
979.8,FORESTSIDE MEDICAL PRACTICE,-1.416173,50.851823
218.74,BENTLEY VILLAGE SURGERY,-0.87992,51.189933
597.85,DR KUMAR & PARTNER STUDFALL MEDICAL CTR,-0.704816,52.495882
1794.8100000000006,CASTLE PLACE PRACTICE,-3.492865,50.908884
1021.19,COTSWOLD MEDICAL PRACTICE,-1.75678,51.886317
909.92,GLASTONBURY SURGERY,-2.721853,51.148462
854.6999999999998,NUNWELL SURGERY,-2.507177,52.187931
576.6299999999999,CLEOBURY MORTIMER SURGERY,-2.485608,52.377502
1137.0300000000002,MEDINA HEALTHCARE,-1.298686,50.697239
1416.0400000000004,BEDFORD STREET SURGERY,-0.729782,51.995784
1148.59,ALCHESTER MEDICAL GROUP,-1.138371,51.891398
616.1500000000002,GREENWAY COMMUNITY PRACTICE,-2.611274,51.499595
1828.03,THREE SPIRES MEDICAL PRACTICE,-5.055864,50.259982
1286.08,DEAN CROSS SURGERY,-4.095355,50.358939
685.1,SOUTHOVER MEDICAL PRACTICE,-3.528075,50.474733
1156.67,NEW VALLEY PRACTICE,-3.654492,50.792383
999.78,THE STOKE ROAD SURGERY ,-2.068173,51.94667
1243.9299999999996,HIGHBRIDGE MEDICAL CENTRE,-2.979117,51.227372
996.43,CANTILUPE SURGERY,-2.712261,52.055418
840.6999999999998,MYTTON OAK MEDICAL PRACT.,-2.797762,52.707667
655.5200000000002,DRS SHAH & TALPUR,-2.194635,52.974032
636.89,DR VSR CHADALAVADA,-2.139143,53.0416
508.4599999999999,HAWKESLEY MEDICAL PRACTICE,-1.937498,52.39544
164.97000000000003,KEYNELL COVERT,-1.911857,52.408441
1121.0400000000004,PARK MEDICAL CENTRE,-2.873099,53.202665
975.7199999999998,NORWOOD SURGERY,-2.97819,53.65000799999999
1149.4999999999998,WHALLEY MEDICAL CENTRE,-2.406348,53.819793
109.65,SLAIDBURN HEALTH CENTRE,-2.444001,53.967313
879.5,PIKES LANE 1,-2.446348,53.572728
116.71,DR PATHAK ND,-1.9843959999999998,52.51273
259.82000000000005,STRELLEY HEALTH CENTRE (COCKRILL),-1.227726,52.973231
417.71,PHOENIX MEDICAL PRACTICE,0.48126899999999995,51.328805
369.11,NETHERTON SURGERY,-2.97236,53.488626
294.5300000000001,DILSTON MEDICAL CENTRE,-1.640355,54.976621
28.45,INTERGRATED COMMUNITY PAEDIATRIC SERVICE,-2.384279,53.582354
394.06,NORTH CHELMSFORD NHS HCC,0.510815,51.750584
186.87,KIRKHOLT MEDICAL PRACTICE,-2.162243,53.59832
7.7799999999999985,WOKING ALEXANDRA WARD,-0.556304,51.315132
323.12,DR AZIM & PARTNERS,-0.225729,51.579655
413.89,BHF HIGHGATE SURGERY,-1.378978,53.573614
654.0899999999998,SEASCALE HEALTH CENTRE,-3.479998,54.396756
339.68,WIDDRINGTON SURGERY,-1.62051,55.240248
781.15,RIPLEY MEDICAL CENTRE,-1.405723,53.04704
655.8299999999998,DE MONTFORT SURGERY,-1.141192,52.6286
351.13,DENABY MEDICAL PRACTICE,-1.245792,53.490666
860.6599999999999,MENDLESHAM MEDICAL GROUP,1.0816,52.251866
651.7800000000002,UPTON ROAD SURGERY,-0.401058,51.656689
1196.2399999999996,DOLPHIN HOUSE SURGERY,-0.029818,51.810791
514.34,THE EVERGLADE MEDICAL PRACTICE,-0.24421,51.601578
710.1199999999999,FRIERN BARNET MEDICAL CENTRE,-0.155988,51.613267
159.18999999999997,THE CIVIC MEDICAL CENTRE,-0.337497,51.587155
1123.89,THE GOLD STREET SURGERY,0.240471,52.021716
1211.45,THE HOLLIES,0.610574,51.555461
255.24,THE LEIGH SURGERY,0.656153,51.555504
620.8200000000002,WEST HAMPSTEAD MEDICAL CENTRE,-0.196578,51.55004
846.81,STAUNTON GROUP PRACTICE,-0.112926,51.599388
922.11,SOUTHBROOM SURGERY,-1.989037,51.352288
874.1899999999998,THE DOWNLAND PRACTICE,-1.312402,51.463442
451.23,BLAKENEY SURGERY,-2.476364,51.759117
814.9400000000002,WELLS HEALTH CENTRE,-2.655326,51.203403
790.2300000000001,RIVERSIDE MED.PRACTICE,-2.755278,52.709209
808.42,CHANCERY LANE SURGERY,-1.521755,52.536173
324.92,NECHELLS PRACTICE,-1.876618,52.493743
926.6099999999999,THE LIMES MEDICAL CENTRE,-1.974677,52.58065500000001
876.51,TOWNFIELD HEALTH CENTRE,-3.064248,53.378798
116.89,PRINGLE STREET SURGERY,-2.467594,53.742039
694.2800000000002,HOPWOOD MEDICAL CENTRE,-2.212052,53.587143
1690.1600000000005,THE KILTEARN MEDICAL CTR.,-2.518506,53.068155
1315.66,BROADWAY MEDICAL CENTRE,-3.033843,53.912667
638.2399999999999,EGERTON/DUNSCAR HEALTH CENTRE,-2.426383,53.617589
1386.9699999999998,SADDLEWORTH MEDICAL PRACTICE,-2.004957,53.548331
445.52,VILLAGE MEDICAL PRACTICE,-2.095994,53.574817
245.2,EASTGATE SURGERY,-0.519836,51.886145
176.36,SUMMERFIELD GROUP PRACTICE,-1.937353,52.487686
495.48999999999984,PHOENIX PRIMARY CARE (SOUTH) LTD,-0.441597,51.88973
639.14,THURROCK HEALTH CENTRE,0.323317,51.477404
10.22,CWP (WEST) PHYSICAL HEALTH,-2.897884,53.2088
4.95,REDDITCH CMHT,-1.940229,52.303594
1.92,CARE UK COVENTRY OOH,-1.5080049999999998,52.413401
8.24,NSC BOSWORTH HUB,-1.7536330000000002,52.480569
1.59,SKEGNESS & COAST GP EXTENDED ACCESS HUB,0.342219,53.188059
140.38,THE OM SURGERY,-1.2057,53.034978
713.57,THE NEW SPRINGWELLS PRACTICE,-0.340804,52.893623
4.43,SAME DAY HEALTH CNTRE COASTAL HEALTHCARE,-2.859565,54.072841
273.91,CAMP HILL GP LED HEALTH CENTRE,-1.507061,52.533074
10.92,DONCASTER URGENT CARE & OUT OF HOURS,-1.109062,53.530806
1.72,EAST CLUSTER IAGPS,-1.82052,50.747482
477.86,THE PATEL PRACTICE,-1.1885709999999998,54.661404
1168.7399999999998,HOLMSIDE MEDICAL GROUP,-1.66023,54.969004
551.98,FARROW MEDICAL CENTRE,-1.74312,53.802511
651.51,PADDOCK AND LONGWOOD FAMILY PRACTICE,-1.80546,53.642119
851.23,BRAMLEY VILLAGE HEALTH & WELLBEING CTR,-1.623032,53.80781999999999
275.18,SEVERN SURGERY,-1.065583,52.598801
3834.83,BEACHES MEDICAL CENTRE,1.727734,52.577124
731.47,LINDEN ROAD SURGERY,-0.479248,52.14361
1079.13,CUFFLEY AND GOFFS OAK MEDICAL PRACTICE,-0.113106,51.708171
1.72,GP SERVICES-CRAWLEY HUB,-0.175734,51.240416
14.06,PROCARE HEALTH SERVICES,-0.708282,51.091746
13.920000000000002,GLOUCESTER (CARE UK) OOH,-2.30608,51.879263
1467.7100000000007,THE GARTH,-1.055444,54.532597
723.2899999999998,THE GABLES MEDICAL GROUP,-1.564429,55.140811
459.9,HAYDON BRIDGE & ALLENDALE MEDICAL PRACT,-2.250059,54.975681
916.07,SPRING TERRACE HEALTH CENTRE,-1.450673,55.010941
903.1399999999996,PRACTICE ONE,-0.201064,54.084715
1409.39,CHURCH STREET SURGERY,-1.583343,53.681523
1081.2899999999997,SOUTH WIGSTON HEALTH CTR.,-1.129183,52.580452
266.22,BRAMCOTE SURGERY,-1.244985,52.935604
1075.9499999999996,CAMPINGLAND SURGERY,0.690978,52.645997
1465.2099999999996,LEIGHTON ROAD SURGERY,-0.66795,51.915779
902.83,WILLOW TREE FAMILY DOCTORS,-0.265224,51.589337
547.74,QUEENS WALK PRACTICE,-0.312985,51.524803
808.6499999999999,HIGH STREET SURGERY  EPPING,0.113402,51.700812
1631.61,OLD ROAD SURGERY,1.148421,51.795466
243.73,HIGH STREET SURGERY,0.223589,51.561554
380.35,THE LIMEHOUSE PRACTICE,-0.028747,51.511253
52.54999999999999,MEDICUS HEALTH PARTNERS-WILLOW HOUSE,-0.07659,51.654209
439.03,MAIDSTONE RD RAINHAM SURGERY,0.600379,51.36233
283.64,BANK HOUSE SURGERY,0.069949,51.359218
1005.71,FORDBRIDGE MEDICAL CENTRE,-0.46301,51.431269
508.5399999999999,EVERSLEY MEDICAL CENTRE,-0.11191300000000001,51.388514
566.62,YORK MEDICAL PRACTICE,-0.325697,51.449369
247.28,BERRYLANDS SURGERY,-0.299929,51.390825
975.0800000000002,CRICKET GREEN MEDICAL PRACTICE,-0.174025,51.404579
457.51,CARRINGTON HOUSE SURGERY,-0.749217,51.632299
196.02,PROSPECT HOUSE SURGERY,-0.705258,51.701136
212.79000000000005,WEMBURY SURGERY,-4.072566,50.32186
652.4700000000003,HOLLYOAKS MEDICAL CENTRE,-1.869052,52.377979
835.63,WOODSETTON MEDICAL CENTRE,-2.10089,52.537994
989.7299999999998,SHERWOOD HOUSE MEDICAL PRACTICE,-1.959426,52.473851
369.81,GARSTON FAMILY HEALTH CENTRE,-2.89683,53.353909
833.0699999999998,COMMONFIELD RD SURGERY,-3.086369,53.370187
840.9899999999999,THE BORCHARDT MEDICAL CENTRE,-2.237795,53.434307
120.98999999999998,WERNETH MEDICAL PRACTICE,-2.126938,53.53497
182.95,CHAPEL MEDICAL CENTRE,-2.418293,53.449094
384.00999999999993,DR VICTORIA MUIR'S PRACTICE,-0.151358,51.490651
632.2399999999999,WELLFIELD MEDICAL CENTRE,-2.242019,53.512545
1482.13,NEWLANDS MEDICAL CENTRE,-1.226035,54.571931
837.8499999999998,WIGTON GROUP MEDICAL PRACTICE,-3.159002,54.820303
534.87,THE FAMILY PRACTICE,-3.229282,54.116755
1709.3700000000006,SKERNE MEDICAL GROUP,-1.4488,54.654032
1260.65,ST ANDREWS SURGERY,-0.361958,53.735566
449.2900000000001,COWGILL SURGERY,-1.814543,53.781952
1639.1,VILLAGE SURGERY,-1.485797,52.896347
486.53,THE GLENSIDE COUNTRY PRACTICE,-0.537958,52.75451
350.93000000000006,PLEASLEY SURGERY,-1.250873,53.175809
632.8200000000002,BACON LANE SURGERY,-0.275903,51.605078
526.99,THE MEDICAL CENTRE  DR JEFFERIES & PARTN,-0.212607,51.481206
249.11,MEANWHILE GARDEN MEDICAL CENTRE,-0.203126,51.522228
1739.39,THE LIMES MEDICAL CENTRE,0.123958,51.706179
726.36,CHIGWELL MEDICAL CENTRE,0.083876,51.60551
262.46000000000004,NORTH AVENUE SURGERY,0.735187,51.546618
223.87000000000003,ROSERTON STREET SURGERY,-0.010049,51.498482
128.64,MEDICUS HEALTH PARTNERS- BUSH HILL PARK,-0.066545,51.63953
1152.75,ALBION PLACE MEDICAL PRACTICE,0.529542,51.274206
228.25,OLD PARSONAGE SURGERY,0.460418,51.112785
457.93000000000006,TRIVENI PMS,0.058438,51.490321
883.87,HAWTHORNS SURGERY,-0.175174,51.241163
571.9800000000001,TRINITY MEDICAL CENTRE,-0.158437,51.437554
145.10000000000005,MITCHAM FAMILY PRACTICE,-0.167118,51.410109
504.94,THE WELLBRIDGE PRACTICE,-2.225354,50.679039
1310.8,THE HARVEY PRACTICE,-1.993525,50.761018
1780.4399999999996,HOMEWELL.CURLEW PRACTICE,-0.978019,50.851067
1014.98,SPA MEDICAL CENTRE,-2.126012,51.366868
436.36,COOKHAM MEDICAL CENTRE,-0.725805,51.558356
1047.4700000000003,THE MISBOURNE SURGERY,-0.558045,51.607786
1140.41,ORCHARD MEDICAL CENTRE,-2.510659,51.462087
400.24,LYNGFORD PARK,-3.090916,51.036442
1219.3500000000004,STAFFORD HEALTH AND WELLBEING,-2.123291,52.817722
235.87,BOURNBROOK VARSITY MEDICAL CENTRE,-1.929903,52.445713
211.69,CAUSEWAY GREEN ROAD SURGERY,-2.014697,52.484564
1330.0500000000004,PATTERDALE LODGE MED CTRE,-2.64461,53.452446
935.06,SUNLIGHT GROUP PRACTICE,-3.00005,53.363076
667.2999999999998,SHAY LANE MEDICAL CENTRE (KELMAN),-2.31556,53.372189
502.7000000000001,BLYTH ROAD MEDICAL CENTRE,-1.20365,53.422231
582.06,CENTRAL MEDICAL CENTRE,-0.245977,52.587
747.6699999999998,HARBOUR MEDICAL PRACTICE,0.324489,50.797353
1.93,URGENT CARE CTR (FCMS) OOH,-3.015863,53.820616
1401.4300000000005,MORRAB SURGERY,-5.538987,50.116924
1212.38,WILLOW BANK SURGERY,-2.102853,52.97847
1021.89,EVERGREEN PRIMARY CARE CENTRE,-0.059836,51.623784
12.29,BARDOC GP OOH,-2.427769,53.590447
9.86,BANES ENHANCED MEDICAL SERVICE (BEMS+),-2.372621,51.358169
0.61,BROOMFIELD DOCTOR IN ED,0.465993,51.774654
4.2,LGI GPS IN A+E,-1.551744,53.801445
