total_cost,name,longitude,latitude
508.01,GREEN PRACTICE,-0.371755,51.468263
334.0900000000001,BLACKFRIARS MEDICAL PRACTICE,-0.105775,51.505364
337.38000000000005,CRONDALL NEW SURGERY,-0.858386,51.237211
348.68,CHADDESLEY SURGERY,-2.158038,52.361961
759.5100000000001,DR JUDE'S PRACTICE - RIVERSIDE,-2.943016,53.398876
165.29,THE MANOR PARK PRACTICE,0.057339,51.55393
622.38,TRENTHAM MEWS MEDICAL CENTRE,-2.189898,52.970452
33.760000000000005,WIDNES GP EXTRA SERVICE,-2.735705,53.362158
718.36,DR THORNILEY-WALKER & PARTNERS,-1.460703,54.949762
121.78,DR U AKBAR,-1.777945,53.803569
648.8600000000001,AIREBOROUGH FAMILY PRACTICE,-1.684881,53.866663
1613.1799999999994,THE BURBAGE SURGERY,-1.361645,52.53009599999999
885.8099999999998,SCHOOL HILL MEDICAL PRACTICE,0.012064,50.873469
1791.75,GRAYSHOTT SURGERY,-0.745626,51.110093
232.19,OLD SCHOOL HOUSE SURGERY,-1.604408,51.376032
766.6999999999998,THE ARDLEIGH SURGERY,0.985096,51.927073
2140.7200000000007,STONE CROSS SURGERY,0.289944,50.816757
426.88,MARSHALLS ROAD SURGERY,-0.539225,52.344743
1787.3200000000006,DARWIN MEDICAL CENTRE,-1.831505,52.694061
794.2399999999999,SOUTH HERMITAGE SURGERY,-2.752497,52.699728
12.35,GPSI CARDIOLOGY - WESTCLIFFE,-1.781103,53.830481
38.66,EAST KENT HEADACHE SERVICE,1.414787,51.390277
92.8,AR-RAZI MEDICAL CENTRE,-1.101204,52.623926
819.1699999999998,OAKENHALL MEDICAL PRACT,-1.199437,53.03661700000001
1056.16,LAWNS PRACTICE,1.109092,52.378889
364.27,CHURCH END MEDICAL CENTRE,-0.253241,51.54757
467.23,THE DEVONSHIRE LODGE PRACTICE,-0.397406,51.579266
654.8,STANWELL ROAD SURGERY,-0.470567,51.438013
612.8,WIDCOMBE SURGERY,-2.354321,51.376371
1547.84,HILLVIEW MEDICAL CENTRE,-1.951153,52.305568
681.9100000000002,LONGTON MEDICAL CENTRE,-2.770123,53.417492
1294.8100000000004,DR AHMAD & PTNRS,-2.595925,53.522279
690.6800000000002,JS MEDICAL PRACTICE,-0.078706,51.589103
10.96,SUMMERFIELD GP SURG & URGENT CARE CENTRE,-1.937353,52.487686
543.3599999999999,THE WILLASTON SURGERY,-3.011643,53.292908
3.27,WHITTINGTON HEALTH (ISLINGTON),-0.139066,51.566482
1142.2599999999998,TOWNHEAD SURGERY,-2.276903,54.070534
319.3300000000001,HORNE STREET SURGERY,-1.871717,53.725678
983.38,THE GARDEN CITY PRACTICE,-0.209287,51.797151
823.8199999999998,RIVERMEAD GATE MED.CTR.,0.472887,51.740849
502.73,ROMAN WAY MEDICAL CENTRE,-0.10550599999999999,51.544561
829.3000000000003,CARNON DOWNS SURGERY,-5.091905,50.22345
836.5399999999998,DR KS UPTON'S PRACTICE,-1.986582,52.988358
1266.9900000000005,KINGSWAY MEDICAL CENTRE,-1.289009,54.606459
699.79,PRUDHOE MEDICAL GROUP,-1.853822,54.96186
1004.5499999999997,ARTHUR MEDICAL CENTRE,-1.422636,53.001503
829.54,PORTLAND MEDICAL PRACTICE,-0.539074,53.22371999999999
1849.86,THE WALL HOUSE SURGERY,-0.208192,51.241304
290.33,THE HALING PARK PARTNERSHIP,-0.098109,51.357113
765.9700000000001,THE PRINCE OF WALES SURGERY,-2.457579,50.713502
486.68,THE GROVE SURGERY,-0.735114,52.023651
1203.24,PROBUS SURGERY,-4.948542,50.290121
290.1,DR PAL,-2.595495,53.47988
618.52,CHAPEL ROW SURGERY,-1.17086,51.425877
0.61,HEALTHBRIDGE DIRECT,0.020102,51.608432
967.84,GRANGE STREET SURGERY,-0.335878,51.757298
432.58,ST PETER'S SURGERY,1.41893,51.362936
206.52,SIBFORD SURGERY,-1.479244,52.037614
1967.39,AXMINSTER MEDICAL PRACTICE,-2.999226,50.780899
795.5300000000002,PRICES MILL SURGERY,-2.224938,51.693801
873.2799999999999,MARSH MEDICAL PRACTICE,0.143689,53.445069
1593.4699999999993,KNEBWORTH & MARYMEAD MEDICAL PRACTICE,-0.184972,51.866323
248.03,THE HODFORD ROAD PRACTICE,-0.199318,51.569038
498.72999999999985,ABBEY ROAD MEDICAL PRACTICE,0.005881,51.534784
2393.36,BETHESDA MEDICAL CENTRE,1.414787,51.390277
1069.6299999999997,WOODLANDS SURGERY,0.088913,51.439755
383.24,ALVELEY MEDICAL PRACTICE,-2.353309,52.454738
389.36,KNOWSLEY MEDICAL CENTRE,-2.300551,53.588497
906.76,CHURCHSIDE MEDICAL PRACTICE,-1.203539,53.146592
360.64,SOUTHEND MEDICAL CENTRE,0.708516,51.540069
200.58,THE MITCHISON ROAD SURGERY,-0.087357,51.544992
1388.39,FRAMLINGHAM SURGERY,1.334192,52.227216
267.54,CHOWDHURY,0.233898,51.592339
958.0299999999999,JENNER HOUSE SURGERY,-0.7745189999999998,51.294302
1009.98,NORFOLK STREET SURGERY,-2.182794,53.01602
1523.2199999999998,TORKARD HILL MEDICAL CTRE,-1.207389,53.029901
1139.05,VILLAGE SURGERY,-1.251934,53.39421
311.33,ALLENBY CLINIC,-0.376261,51.531514
1971.75,DR PUZEY DR KOTHARI AND DR NANDA,0.705992,51.582107
1603.2499999999998,SEVERN FIELDS MEDICAL PRACTICE,-2.721619,52.728047
1431.23,CUMBERLAND HOUSE SURGERY,-2.990437,53.638743
322.62999999999994,HOLLINS GROVE SURGERY,-2.477472,53.705346
224.52,OLDHAM FAMILY PRACTICE,-2.116945,53.543824
540.8499999999999,SHAY LANE MEDICAL CENTRE (PATEL),-2.31556,53.372189
2.46,AT HOME SERVICE,-0.10603,51.438104
1528.65,CHURCHILL MEDICAL CENTRE,-0.018466,51.618226
947.4,PRIORY MEDICAL CENTRE,-0.50567,52.167181
63.25,ESK ROAD MEDICAL CENTRE,0.024266,51.522454
2058.1600000000008,REACH HEALTHCARE,0.52408,51.337756
719.74,CAMBERLEY HEALTH CENTRE,-0.754069,51.324435
466.05000000000007,FLOOD (ESSEX HOUSE),-0.247469,51.472541
634.2900000000002,WOLLASTON AND BOZEAT SURGERIES,-0.674311,52.252471
917.4199999999998,ST.LEVAN SURGERY,-4.177328,50.383921
971.83,BARTON,-1.725223,52.761751
193.21,HAWTHORNS MEDICAL CENTRE,-1.967268,52.501507
389.97,BROWNLOW AT MARYBONE,-2.987806,53.411269
784.8199999999998,LITTLE LEVER HEALTH CENTRE 1,-2.370624,53.55981800000001
1092.4599999999996,CONWAY ROAD MEDICAL PRACTICE,-2.303561,53.417873
1047.2199999999998,MAYBUSH MEDICAL CENTRE,-1.489249,53.670273
564.0100000000001,FALKLAND HOUSE SURGERY,-1.514423,53.359728
875.45,MILTON KEYNES VILLAGE SURG,-0.697865,52.043891
7.99,GPSI PALLIATIVE CARE,-3.007792,53.502483
1560.77,FIELDHOUSE MEDICAL GROUP,-0.112579,53.564436
784.9699999999998,SAXON CROSS SURGERY,-1.273642,52.931099
453.61,THE NAYAR PRACTICE,-1.1933790000000002,53.480824
153.29000000000005,NEW NORTH HEALTH CENTRE,-0.091592,51.537534
1237.6399999999996,HOVE MEDICAL CENTRE,-0.19539,50.845024
1005.8000000000003,FORT HOUSE SURGERY,-0.412578,51.37881
684.5299999999999,THE LAWN MEDICAL CENTRE,-1.7619029999999998,51.547821
272.28000000000003,ST MARY'S HEALTH CENTRE,-6.308668,49.911605
1860.41,TAVYSIDE HEALTH CENTRE,-4.145976,50.545824
622.7399999999999,HAGLEY SURGERY,-2.144103,52.420783
131.85,YARDLEY MEDICAL CENTRE,-1.828397,52.463189
4012.179999999999,ASHTON MEDICAL GROUP,-2.089184,53.489361
626.7399999999999,THE WILLESDEN MEDICAL CENTRE,-0.233873,51.547532
260.79,SELHURST MEDICAL PRACTICE,-0.088969,51.390012
736.7,PONTESBURY MEDICAL PRAC,-2.887922,52.650521
736.9499999999998,BRAITHWAITE RD SURGERY,-2.574985,53.477412
781.1300000000001,WOODGRANGE MEDICAL PRACTICE,0.025253,51.548596
244.32,JARVIS MEDICAL PRACTICE,-2.095095,53.537786
9.229999999999999,IC24 LTD (NORFOLK & WISBECH OOH),0.891514,51.129106
436.19,THE MANSELL ROAD PRACTICE,-0.358969,51.525654
67.5,FOUNDATIONS,-1.257899,54.563441
238.92,READING WALK-IN HEALTH CENTRE,-0.9758960000000002,51.454809
22.87,NORTH TYNESIDE CARE PLUS,-1.456596,55.011193
9.9,8 TO 8 TOP-UP HUB QMH,0.101687,51.419041
2492.32,MUNRO MEDICAL CENTRE,-0.147427,52.794037
670.4200000000002,MOSBOROUGH HEALTH CENTRE,-1.364873,53.325238
803.8600000000001,PUCKERIDGE & STANDON SURGERY,0.019374,51.888296
623.53,COMMONWEALTH HEALTH CENTRE,0.36308,51.463166
596.9200000000002,TAMWORTH HOUSE MEDICAL CENTRE.,-0.146254,51.40122
907.31,PARKSIDE PRACTICE,-1.353169,50.970948
862.0600000000002,DARTMOUTH MEDICAL PRACTICE,-3.580811,50.351157
349.48999999999984,BLACKHEATH MED CTR,-3.104694,53.412239
249.93000000000004,GOLDINGTON ROAD SURGERY,-0.456174,52.140172
337.68000000000006,POPLAR PRIMARY CARE CENTRE,-1.890326,52.43631
1490.83,THE SUTTON MANOR SURGERY,-0.315294,53.785759
2702.93,JESSOP MEDICAL PRACTICE,-1.372226,53.074348
951.69,THE MAYFLOWER MEDICAL PRACTICE,-1.01945,53.431872
778.8099999999998,ST.ANTHONY'S HEALTH CENTRE,-1.55655,54.966674
9.29,WESTCALL OOH,-0.8315749999999998,51.410524
410.93,WHITWICK HEALTH CENTRE,-1.3606790000000002,52.742576
1703.9399999999994,MARKET SURGERY,-1.345958,53.502635
547.9599999999999,DERWENT CRESCENT MEDICAL CENTRE,-0.175285,51.622908
2238.9300000000007,ABBEY FIELD MEDICAL CENTRE,0.898575,51.877487
2510.1199999999994,ABBEY HOUSE MEDICAL PRACTICE,-1.160725,52.260319
1175.44,NORTON BROOK MEDICAL CENTRE,-3.782122,50.288739
1364.4199999999996,MARTON MEDICAL PRACTICE,-3.034524,53.812843
1351.66,THE NORTH LEEDS MEDICAL PRACTICE,-1.534037,53.843332
351.5,FRIAR GATE SURGERY,-1.485624,52.924816
904.9499999999997,NAVENBY CLIFF VILLAGES SURGERY,-0.526297,53.103518
866.7899999999998,ASKERN MEDICAL PRACTICE,-1.148909,53.61549599999999
972.5100000000001,LEYTON HEALTHCARE 4TH FLOOR,-0.013313,51.559894
347.49,CAMBRIDGE HOUSE,-2.144827,53.024433
223.71,PARK HOUSE SURGERY,-1.942965,52.54446
2130.22,RAINBOW MEDICAL CENTRE,-2.705931,53.435389
718.35,LITTLE LONDON SURGERY,-1.979284,52.574984
801.7700000000002,STRETTON MEDICAL CENTRE,-2.577017,53.339489
126.94,THE DALE MEDICAL PRACTICE,-2.154239,53.611617
41.21,CAMBRIDGE ACCESS SURGERY,0.138701,52.20875
7.09,ANGEL LODGE,-1.50929,53.683308
3.0,HP NMP'S NN & E CCG,-1.143101,53.130244
1407.8899999999994,LEIGH FAMILY PRACTICE,-2.511927,53.493519
626.36,THE GREYSWOOD PRACTICE,-0.144853,51.419489
410.3299999999999,CHATHAM STREET SURGERY,-0.981895,51.455924
1027.9699999999998,DEVON SQUARE SURGERY,-3.60508,50.529985
724.6099999999999,THE ROYAL WELL SURGERY,-2.0815,51.906706
886.6599999999999,THE LIMES SURGERY MEDICAL CENTRE,-2.114052,52.456884
1361.9,LAYTON MEDICAL CENTRE,-3.027291,53.827425
3.8,CAMDEN COMMUNITY NURSING,-0.131658,51.53665
1272.72,WILLINGTON SURGERY,-1.566835,52.850285
1060.38,MANOR FARM MEDICAL CENTRE,0.690513,52.648544
1351.0500000000004,REGAL CHAMBERS SURGERY,-0.275959,51.952843
317.8400000000001,THE GARWAY MEDICAL PRACTICE,-0.185494,51.515392
4147.039999999999,ACORN HEALTH PARTNERSHIP,-1.114058,51.245047
4.02,UNIV HOSP NORTH DURHAM OOH,-1.593834,54.788497
337.64,BOWLING GREEN STREET SURGERY,-1.133096,52.63304599999999
981.05,BURTON CROFT SURGERY,-1.57692,53.820807
398.15,HARTINGTON SURGERY,-1.810816,53.142488
371.5400000000001,FIVE ELMS MEDICAL PRACTICE,0.14235,51.553315
1581.1,SOUTH VIEW PARTNERSHIP,0.026125,51.405111
524.56,CORNERWAYS SURGERY,-0.404519,50.81566
125.39,WALLINGTON MEDICAL CENTRE,-0.129285,51.357345
710.6499999999999,COMBE DOWN SURGERY,-2.345599,51.361003
558.24,NORTH PETHERTON SURGERY,-3.013922,51.09139
286.7800000000001,QUEENS MEDICAL CENTRE,-2.235847,53.50081899999999
1890.75,THE PENDLE MEDICAL PARTNERSHIP,-2.144307,53.915882
1653.0599999999995,3/SPRINGFIELD HOUSE MEDICAL PRACTICE,-2.362019,53.480252
215.14,THE KINGSWAY PRACTICE,-2.135588,53.612168
436.23,THE PRACTICE FELTHAM,-0.411086,51.446367
1.76,NHS FYLDE & WYRE CCG,-2.881037,53.789498
3413.0400000000004,BEACON MEDICAL PRACTICE,0.331219,53.157472
347.45999999999987,GREENFIELDS MEDICAL CENTRE (YVS RAO),-1.168583,52.966506
2.14,IC24-THANET CCG OOH,0.891514,51.129106
879.0699999999998,TODDINGTON MEDICAL CENTRE,-0.530482,51.945856
1573.4599999999996,OAKLANDS HEALTH CENTRE,1.08253,51.069106
1056.58,LONGCROFT CLINIC,-0.192332,51.325314
406.13,WHITCHURCH SURGERY,-0.8426209999999998,51.882174
287.36,RIVERSIDE SURGERY,-1.699518,52.632337
955.08,THE VILLAGE SURGERIES GROUP,-2.771265,53.124246
802.85,SHIFA SURGERY,-2.475999,53.757295
620.25,OLDHAM MEDICAL SERVICES,-2.111235,53.52535699999999
750.2999999999998,LEADGATE SURGERY,-1.805988,54.860562
1323.5899999999995,GOYT VALLEY MEDICAL PRACTICE,-1.983113,53.3305
712.87,CONCORD MEDICAL PRACTICE,-1.524864,54.913411
1029.36,COUNTESTHORPE HEALTH CENTRE,-1.136767,52.554536
778.3199999999998,ANNANDALE MEDICAL CENTRE,-0.17421099999999998,51.698571
969.02,DR SINHA & PARTNERS,0.100204,53.030138
408.8400000000001,THE HEALTH CARE SURGERY,-1.487911,53.42172
792.44,THE LIMES SURGERY,-0.010842,51.759413
565.61,SEVEN DIALS MEDICAL CENTRE,-0.147743,50.829681
1099.12,BARCROFT MEDICAL CENTRE,-1.780526,51.172939
1807.21,PIONEER MEDICAL GROUP,-2.617628,51.510306
625.7600000000001,WITHNELL HEALTH CENTRE,-2.556663,53.692491
526.1,DR ABBAS,-0.841253,52.26834
451.68000000000006,DR GS KALKAT'S PRACTICE,0.103861,51.527941
172.86,THE LYNWOOD SURGERY,-0.29964,51.528594
2307.9,FERRYHILL AND CHILTON MEDICAL PRACTICE,-1.556828,54.689838
932.06,COLLIERY COURT MEDICAL GROUP,-1.460703,54.949762
181.98,WINDSOR MEDICAL CENTRE,-1.622157,53.693875
802.25,LOWMOOR ROAD SURGERY,-1.244634,53.100062
404.44,SUNRISE MEDICAL CENTRE,-0.382255,51.51087
701.7800000000003,SONNING COMMON HEALTH CTR,-0.982114,51.515603
1780.1200000000006,LANDER MEDICAL PRACTICE,-5.055864,50.259982
696.24,ALUM ROCK MEDICAL CENTRE,-1.850664,52.489901
2671.17,HARDWICKE HOUSE GROUP PRACTICE,0.725792,52.0382
425.27,WOOLSTONE MEDICAL CENTRE,-0.036776,51.438421
817.89,SOUTHGATE MEDICAL GROUP,-0.194559,51.102316
733.8899999999999,BROCKWORTH SURGERY,-2.156696,51.844575
1260.46,DAWLEY MEDICAL PRACTICE,-2.466781,52.664322
1131.1,HOWARD HOUSE SURGERY,1.349626,51.96149
388.93,AMWELL GROUP PRACTICE,-0.11081700000000001,51.528043
1300.4999999999998,MEOPHAM MEDICAL CENTRE,0.359744,51.368901
577.7700000000002,FORGE CLOSE SURGERY,0.016555,51.377137
692.1800000000002,JOHNSON (SHEEN LANE),-0.267239,51.465848
434.33,LITTLEDOWN SURGERY,-1.833439,50.741638
447.36000000000007,PEDMORE MEDICAL PRACTICE,-2.118211,52.457029
365.64,THE OLD DISPENSARY,-1.987226,50.803427
251.63,STROUD GREEN MEDICAL CENTRE,-0.114328,51.570059
1700.9500000000005,WEST SOMERSET HEALTHCARE,-3.3186760000000004,51.161419
1038.8100000000004,OMNIA PRACTICE,-1.839082,52.475709
1024.29,MORETON CROSS GROUP PRACTICE,-3.111975,53.403551
859.4199999999998,WEST COMMON LANE TEACHING PRACTICE,-0.682441,53.57473100000001
759.7,RIVERSIDE MEDICAL PRACTICE,-1.315584,54.56887
19.97,MEDICUS HEALTH PARTNERS-ENFIELD ISLAND,-0.016992,51.668586
781.8700000000001,THE OAKWOOD SURGERY,-1.073937,53.506609
943.2799999999999,PAPWORTH SURGERY,-0.11749200000000001,52.252071
1441.9799999999998,CAMBRIAN MEDICAL PRACTICE,-3.047774,52.86281
1082.0199999999998,FIRDALE MEDICAL CENTRE,-2.537387,53.253804
511.43000000000006,KIRKSTALL LANE MEDICAL CENTRE,-1.587333,53.816942
3.22,SOUTH EAST HUB 1,-0.10851199999999998,51.477558
1158.3399999999995,BELLE VALE HEALTH CENTRE,-2.859752,53.392035
792.08,ELIZABETH STREET SURGERY,-3.043658,53.820839
1099.4,RAMSBOTTOM MEDICAL PRACTICE,-2.319287,53.64878
524.5600000000001,BROOK HOUSE SURGERY,-1.445882,50.921794
1.26,HMR BARDOC OOH,-2.288591,53.59553
2.48,7 DAY ACCESS ROCHDALE INFIRMARY HUB,-2.160152,53.624282
455.38999999999993,MAGHULL HEALTH CENTRE (DR SAPRE),-2.943932,53.515597
373.51,WINDERMERE SURGERY,-2.205709,53.55956
1807.88,ST VINCENT MEDICAL CENTRE,-1.124029,53.525476
1.68,CASH SERVICES,-1.152629,53.207243
717.31,CRESWELL AND LANGWITH MEDICAL CENTRE,-1.215835,53.262654
688.37,BEECHWOOD GROUP PRACTICE,-3.545472,54.642376
1817.42,PARKSIDE MEDICAL CENTRE,-0.021998,52.981526
869.74,WINCOBANK MEDICAL CENTRE,-1.416316,53.419405
301.71,VIRGINIA WATER MEDICAL PRACTICE,-0.568235,51.403367
182.66000000000003,THE ALTON PRACTICE,-0.239471,51.44914
981.07,ALEXANDER HOUSE SURGERY,-0.7520019999999998,51.293749
941.9499999999998,GREEN MEADOWS SURGERY,-0.677163,51.426939
1061.31,WARGRAVE HOUSE SURGERY,-2.712261,52.055418
1172.04,STATION DRIVE SURGERY,-2.715141,52.370132
898.98,MARPLE BRIDGE SURGERY,-2.053323,53.400594
681.4600000000002,THE ROSEBERRY PRACTICE,-1.292215,54.611726
1971.36,TANFIELD VIEW MEDICAL GROUP,-1.701373,54.869939
654.9899999999999,DR MITCHELL,-0.503581,53.72075
245.33,SPRINGFIELD MEDICAL CENTRE,-1.195502,53.003599
712.7099999999998,THE LILYVILLE SURGERY,-0.199155,51.47377
598.7399999999999,WITHAM HEALTH CENTRE,0.642876,51.800559
2101.17,PRIORY MEDICAL CENTRE,-1.588641,52.285051
247.92,BALDWINS LANE SURGERY,-1.846405,52.414514
486.47,MONARCH MEDICAL CENTRE,-2.316823,53.564198
332.74,LINCOLN GREEN MEDICAL CENTRE,-1.525196,53.802098
3.29,HARROGATE OOH,-1.517573,53.993807
745.9900000000001,CHERRY HINTON MEDICAL CENTRE,0.177635,52.187459
584.77,FIELDHEAD SURGERY,-1.639379,53.831787
443.5899999999999,YEADING MEDICAL CENTRE,-0.397019,51.533634
750.87,LYDDEN SURGERY,1.23991,51.163193
1067.32,SELSDON PARK MEDICAL PRACTICE,-0.06457300000000002,51.342409
711.62,LANCE LANE MEDICAL CENTRE,-2.911916,53.396196
155.92,DR GWD BHIMA,-2.154239,53.611617
295.29,THE BARHAM & CLAYDON SURGERY,1.109866,52.110175
38.01,NIGHTINGALE HOUSE,-0.159747,51.449354
448.35,I J HEALTHCARE,-1.531354,54.88104
1040.9299999999996,WELLINGTON HOUSE,-1.634561,53.714775
898.67,FELTWELL SURGERY,0.527056,52.48268
358.6600000000001,ALBANY PRACTICE,-0.310054,51.48676
340.61,DR VM PATEL,0.228776,51.561113
341.45,CHILDS (THAMESIDE),-0.326599,51.427449
866.7,MOREDON MEDICAL CENTRE,-1.8070689999999998,51.582197
770.9399999999998,BUDSHEAD MEDICAL PRACTICE,-4.150289,50.417443
249.38,HANDSWORTH WOOD MED.CTR.,-1.928196,52.51303299999999
1892.83,READESMOOR MEDICAL GROUP PRACTICE,-2.216792,53.163762
477.1500000000001,ABINGDON FAMILY HEALTH CARE CENTRE,-2.943503,53.440571
816.6699999999998,BARLBOROUGH MEDICAL PRACTICE,-1.284471,53.289528
671.6900000000002,THE WRAGBY SURGERY,-0.301337,53.287948
2094.17,SOUTH GRANGE MEDICAL GROUP PRACTICE,-1.166506,54.56995500000001
1318.4499999999996,GLEADLESS MEDICAL CENTRE,-1.451325,53.356551
946.6699999999998,WARRIOR SQUARE SURGERY,0.562007,50.852963
779.8499999999998,THE CORINTHIAN SURGERY,-2.0815,51.906706
604.47,CASTLEFIELDS,-2.129518,52.801013
530.5899999999999,REDGATE MEDICAL CENTRE,-2.987659,51.126385
627.9100000000002,RIVER BROOK MEDICAL CENTRE,-1.913809,52.43303
757.3499999999997,MURDISHAW,-2.662128,53.323997
1132.5700000000004,POPLAR HOUSE SURGERY,-3.03076,53.754721
756.12,SWANSWELL MEDICAL CENTRE,-1.816529,52.432515
389.6600000000001,DR MALIK - KENT ELMS HC,0.664114,51.563831
41.0,LEICESTER CITY ASSIST PRACTICE,-1.136115,52.637338
1.34,VC SKELMERSDALE UCC,-2.773401,53.549935
1282.0000000000002,THE HAWTHORNS SURGERY,-1.825965,52.538746
969.1300000000001,HORIZON HEALTH CENTRE,-2.965121,51.331294
784.63,OXFORD STREET SURGERY,-3.5505760000000004,54.64373
1868.76,LINGWELL CROFT SURGERY,-1.535053,53.749986
4.949999999999999,THE ROYAL MEWS SURGERY,-0.145223,51.498764
268.4599999999999,NORHEADS LANE SURGERY,0.026739,51.314542
451.62,TYNEMOUTH MEDICAL PRACTICE,-0.068331,51.586253
1845.4300000000005,TRINITY MEDICAL CENTRE,-0.172008,50.831228
1024.49,ST ALBANS MEDICAL CENTRE,-0.302479,51.42195
2434.2200000000007,BARTON SURGERY,-3.473818,50.579848
3301.67,THE WESTGATE PRACTICE,-1.821176,52.683537
129.82999999999998,BURBURY MEDICAL CENTRE,-1.9103740000000002,52.502215
1143.65,PLECK HEALTH CENTRE,-1.9980380000000002,52.574248
715.3499999999998,METRO INTERCHANGE SURGERY,-1.602943,54.961848
843.1500000000003,QUAKERS LANE SURGERY,-1.741713,54.406363
954.1400000000001,PARSON DROVE SURGERY,0.050459,52.660947
913.11,DAVENPORT HOUSE SURGERY,-0.354549,51.816177
194.40000000000006,WARRIOR SQUARE SURGERY,0.716503,51.539534
323.82000000000005,ALEXANDRA SURGERY,-0.205887,51.422912
1916.53,CANTERBURY MEDICAL PRACTICE,1.128982,51.245539
670.29,BALHAM PARK SURGERY,-0.155715,51.440487
577.1400000000001,OBSERVATORY MEDICAL PRACTICE,-1.265958,51.760293
1440.11,WERRINGTON VILLAGE SURGERY,-2.098023,53.021659
492.4,THE MARSHSIDE SURGERY,-2.963125,53.67143299999999
512.4300000000001,MERSEYBANK SURGERY,-2.263012,53.42276
2.65,COMMUNITY NURSING,-2.372621,51.358169
297.7399999999999,CHEVIOT MEDICAL GROUP,-2.01842,55.546525
318.82,THE UNIV OF NOTTINGHAM HEALTH SERV,-1.195942,52.942177
414.38,LISTER HOUSE SURGERY,-0.4515,51.89192
967.38,HOUNSLOW MEDICAL CENTRE,-0.37684,51.469395
164.37999999999997,SANCTA MARIA MEDICAL CENTRE,0.284011,51.507882
228.31,NEW INN SURGERY,-0.545657,51.257698
802.2999999999998,THE HEALTH CENTRE,-0.19711,51.363031
855.7800000000002,49 MARINE AVENUE SURGERY,-1.451082,55.046268
631.1699999999998,WELLSIDE SURGERY,-0.28478,52.440324
751.5,CLARE GUILDHALL SURGERY,0.580469,52.078259
645.87,LATTIMORE & VILLAGE SURGERY,-0.298547,51.726244
1441.35,CENTRAL UXBRIDGE SURGERY,-0.475739,51.546229
1254.5800000000004,HIGHLANDS SURGERY,0.637339,51.548005
246.07,ADDINGTON MEDICAL PRACTICE,-0.018557,51.344382
822.2800000000002,FISHERGATE HILL SURGERY,-2.714363,53.75445500000001
1296.6299999999997,PARK VIEW GROUP PRACTICE,-2.160577,53.445476
1871.45,WHITLEY BAY HEALTH CENTRE,-1.43996,55.04141
255.04000000000005,ELSDALE STREET SURGERY,-0.049094,51.543033
834.36,STOPSLEY VILLAGE PRACTICE,-0.394147,51.901132
487.45,VALE DRIVE MEDICAL PRACTICE,-0.194727,51.648828
2637.5600000000004,AUDLEY MILLS SURGERY,0.607129,51.584978
345.05,STRATFORD HEALTH CENTRE,0.004714,51.544651
653.1500000000002,UPPER NORWOOD GROUP PRACTICE,-0.08482,51.413308
727.27,THE TOLLERFORD PRACTICE,-2.571586,50.778924
386.5,JUBILEE FIELD SURGERY,-2.191875,51.484091
903.87,THORNBURY HEALTH CENTRE - BURNEY,-2.517723,51.612861
1314.15,SHAWBIRCH MEDICAL CENTRE,-2.531858,52.718121
2377.280000000001,MOSS GROVE SURGERY,-2.1699,52.498674
738.3800000000001,HEATON MERSEY MED.PRACT.,-2.205118,53.412519
621.41,WOOTTON VALE HEALTHY LIVING CENTRE,-0.527951,52.093688
553.52,ST LUKE'S HEALTH CENTRE,0.7293039999999998,51.551
815.2499999999997,GLENPARK MEDICAL CENTRE,-1.640096,54.953229
1322.4699999999998,ROBIN LANE HEALTH AND WELLBEING CENTRE,-1.661311,53.79500899999999
895.2399999999997,HUGGLESCOTE SURGERY,-1.365684,52.71103
697.0500000000002,RED HOUSE SURGERY,0.129161,52.214906
3.33,BRIMPTON HOUSE,0.699534,51.835776
945.66,MANOR AND PARK GROUP PRACTICE,-1.42716,53.373705
455.61999999999995,DR PS BATH'S PRACTICE,-0.394147,51.901132
644.0999999999998,THE NORTH LONDON HEALTH CENTRE,-0.11243199999999999,51.617571
225.32,BENTLEY VILLAGE SURGERY,-0.87992,51.189933
725.4199999999998,CLEOBURY MORTIMER SURGERY,-2.485608,52.377502
1273.78,ALCHESTER MEDICAL GROUP,-1.138371,51.891398
1564.44,DEAN CROSS SURGERY,-4.095355,50.358939
1456.8799999999994,NEW VALLEY PRACTICE,-3.654492,50.792383
283.48,NETHERTON SURGERY,-2.97236,53.488626
0.46,WOKING ALEXANDRA WARD,-0.556304,51.315132
453.37000000000006,WIDDRINGTON SURGERY,-1.62051,55.240248
573.6299999999999,DE MONTFORT SURGERY,-1.141192,52.6286
890.8099999999998,MENDLESHAM MEDICAL GROUP,1.0816,52.251866
459.9200000000001,THE EVERGLADE MEDICAL PRACTICE,-0.24421,51.601578
720.3399999999998,WEST HAMPSTEAD MEDICAL CENTRE,-0.196578,51.55004
902.73,STAUNTON GROUP PRACTICE,-0.112926,51.599388
1062.1,SOUTHBROOM SURGERY,-1.989037,51.352288
466.08,BLAKENEY SURGERY,-2.476364,51.759117
935.44,RIVERSIDE MED.PRACTICE,-2.755278,52.709209
929.82,TOWNFIELD HEALTH CENTRE,-3.064248,53.378798
781.56,HOPWOOD MEDICAL CENTRE,-2.212052,53.587143
1835.0600000000006,THE KILTEARN MEDICAL CTR.,-2.518506,53.068155
1593.9699999999998,SADDLEWORTH MEDICAL PRACTICE,-2.004957,53.548331
103.48,SUMMERFIELD GROUP PRACTICE,-1.937353,52.487686
742.7299999999998,THURROCK HEALTH CENTRE,0.323317,51.477404
7.26,SOTON COMMUNITY ENT SERVICE RSH,-1.397076,50.912389
14.41,SKEGNESS & COAST GP EXTENDED ACCESS HUB,0.342219,53.188059
0.23,LINCOLN OOH,-0.519635,53.233575
274.48999999999995,CAMP HILL GP LED HEALTH CENTRE,-1.507061,52.533074
515.6999999999999,THE PATEL PRACTICE,-1.1885709999999998,54.661404
700.2000000000002,PADDOCK AND LONGWOOD FAMILY PRACTICE,-1.80546,53.642119
3759.91,BEACHES MEDICAL CENTRE,1.727734,52.577124
784.04,LINDEN ROAD SURGERY,-0.479248,52.14361
2.01,PRIMARY CARE ACCESS HUB (SOUTH STOKE),-2.102853,52.97847
9.57,PROCARE HEALTH SERVICES,-0.708282,51.091746
43.27,GLOUCESTER (CARE UK) OOH,-2.30608,51.879263
409.43,HAYDON BRIDGE & ALLENDALE MEDICAL PRACT,-2.250059,54.975681
288.37999999999994,BRAMCOTE SURGERY,-1.244985,52.935604
1.76,MEDICUS HEALTH PARTNERS-WILLOW HOUSE,-0.07659,51.654209
311.19,WEMBURY SURGERY,-4.072566,50.32186
1070.27,SHERWOOD HOUSE MEDICAL PRACTICE,-1.959426,52.473851
1531.1,ST ANDREWS SURGERY,-0.361958,53.735566
435.49,PLEASLEY SURGERY,-1.250873,53.175809
761.4099999999999,CHIGWELL MEDICAL CENTRE,0.083876,51.60551
234.42,OLD PARSONAGE SURGERY,0.460418,51.112785
685.1,THE WELLBRIDGE PRACTICE,-2.225354,50.679039
508.21,COOKHAM MEDICAL CENTRE,-0.725805,51.558356
1054.0799999999997,ORCHARD MEDICAL CENTRE,-2.510659,51.462087
468.11,LYNGFORD PARK,-3.090916,51.036442
1266.96,STAFFORD HEALTH AND WELLBEING,-2.123291,52.817722
473.0900000000001,THE ABBOTSBURY PRACTICE,-0.397406,51.579266
1106.6899999999996,NUFFIELD HOUSE HEALTH CENTRE,0.112828,51.774439
295.8,CLIFTON RISE FAMILY PRACTICE,-0.03143300000000001,51.476334
1750.2799999999993,HASLEMERE HEALTH CENTRE,-0.707586,51.092107
773.0700000000003,THE DORCHESTER RD SURGERY,-2.457512,50.625193
643.7399999999999,ST.JAMES SURGERY,-1.989956,51.352926
1158.6300000000006,BOTLEY MEDICAL CENTRE,-1.299442,51.753753
1111.75,QUEEN'S MEDICAL CENTRE,-4.057196,51.080161
481.52000000000015,EXMOOR MEDICAL CENTRE,-3.544825,51.038507
226.3,CHARLES ROAD SURGERY,-1.850621,52.4722
432.07000000000005,WILLESDEN GREEN SURGERY,-0.216091,51.553773
7.17,PRUH URGENT CARE CENTRE,0.059146,51.366243
1407.7000000000005,BROOKROYD HOUSE,-1.67818,53.707224
1627.0400000000006,NETTLEHAM MEDICAL PRACTICE,-0.476253,53.262865
304.2100000000001,UNIVERSITY HEALTH SERVICE HEALTH CENTRE,-1.482709,53.380323
1059.81,SHEPPERTON MEDICAL PRACTICE,-0.453153,51.396402
1239.77,THE MANOR PRACTICE,-0.234983,50.835138
201.02,CLAPHAM JUNCTION MEDICAL PRACTICE,-0.173908,51.465969
3289.24,PEMBROKE MEDICAL GROUP,-3.560246,50.445527
553.4,GREENFORD ROAD MED.CTR.,-0.345702,51.537697
338.12000000000006,QUEENS WALK MEDICAL CENTRE,-0.393155,51.562716
1217.8200000000004,ADDISON HOUSE - HAQUE PRACTICE,0.088979,51.770891
654.65,ST PETER'S STREET MEDICAL PRACTICE,-0.100772,51.535597
623.8000000000002,STOKENCHURCH MEDICAL CTRE,-0.904033,51.660479
466.55999999999995,ABBOTS BROMLEY SURGERY,-1.880966,52.819974
737.98,TOWNSIDE SURGERY,-2.29898,53.59031
455.74000000000007,GOODMAYES MEDICAL CENTRE,0.10990599999999999,51.567626
224.05000000000004,EAST PARADE MEDICAL PRACTICE,-1.061835,53.965993
2848.8,SHAFTESBURY MEDICAL CTR.,-1.497858,53.800234
794.08,GROBY ROAD MEDICAL CENTRE (ID PATCHETT),-1.150468,52.644337
1597.65,FOUNTAIN MEDICAL CENTRE,-0.8043829999999998,53.07286
966.4800000000001,SCAWSBY HEALTH CENTRE PRACTICE,-1.167843,53.53678299999999
1142.0699999999995,ST. GEORGE'S MEDICAL CENTRE,0.298817,52.458085
997.3900000000001,CENTRAL SURGERY,0.147747,51.812546
233.34,THE HOXTON SURGERY,-0.086829,51.533527
433.05,LL MEDICAL CARE LTD,0.0021,51.555415
4565.879999999999,THE ADAM PRACTICE,-2.07822,50.757881
344.35,PRIORY ROAD SURGERY,0.589253,50.860828
2199.13,WISTARIA & MILFORD SURGERIES,-1.547285,50.760041
879.4699999999998,GORDON STREET SURGERY,-1.644613,52.810998
3.1100000000000003,HAVERING CCG,0.179796,51.579247
0.91,SOUTH KENT GROUP,1.118942,51.075872
1.68,URGENT CARE CENTRE NORTHWICK PARK HOSP,-0.322037,51.575407
563.6600000000002,PROSPECT MEDICAL PRACTICE,1.285656,52.643921
975.6500000000002,GROVELANDS MEDICAL CENTRE,-0.112028,51.620685
1227.95,ST JAMES' SURGERY,1.315702,51.128516
393.44000000000005,OXSHOTT MEDICAL PRACTICE,-0.360843,51.333099
605.98,LAVENDER HILL GROUP PRACTICE,-0.15683,51.466044
1034.6,ST.MARY'S SURGERY,-1.397475,50.905746
512.49,SPRINGMEAD SURGERY  CHARD,-2.967972,50.869562
756.5200000000002,POND TAIL SURGERY,-0.066728,51.246436
1003.0,LYME VALLEY MEDICAL CENTRE,-2.22375,53.006305
309.67,WOODLANDS MEDICAL PRACTICE,-2.31213,53.406624
510.51,BATH ROAD SURGERY,-0.37684,51.469395
1426.9200000000005,THE ALDERGATE MED.PRACT.,-1.695644,52.639079
1762.62,EASTGATE MEDICAL GROUP,-1.462815,54.006795
1304.2400000000002,NEWBOLD VERDON MED.PRACT.,-1.34334,52.634612
449.46,BAKERSFIELD MEDICAL CENTRE,-1.104957,52.960219
437.42,THE ORDNANCE UNITY CENTRE FOR HEALTH,-0.039073,51.672653
712.7200000000001,BLOXHAM SURGERY,-1.372977,52.018108
23.85,GP HUBS - GP HEALTH PARTNERS LTD,-0.266331,51.334184
958.23,THE LAKESIDE PRACTICE,-1.148909,53.61549599999999
473.07,WESTWOOD CLINIC,-0.269054,52.591395
885.5999999999998,THEOBALD MEDICAL CENTRE,-0.285584,51.661381
97.74000000000002,THE SURGERY,-0.184519,51.497627
1212.32,COMBS FORD SURGERY,0.995999,52.180181
681.2799999999999,HILLVIEW SURGERY,-0.318331,51.540536
211.22000000000003,DR HAFFIZ,-0.119262,51.539321
714.8099999999998,THE AVENUE SURGERY,-0.113425,50.844357
1128.3599999999994,NEW POND ROW SURGERY,-0.322292,50.824911
954.6500000000002,LUDLOW - PORTCULLIS,-2.715958,52.368905
155.69,DADHANIA SURGERY,-1.491047,52.405815
2621.92,HUDDERSFIELD ROAD SURGERY,-1.485631,53.558165
1231.0500000000004,SHERINGHAM MEDICAL PRACTICE,1.214777,52.939688
1181.15,CHURCH LANE HEALTH CENTRE,0.941162,50.984187
1016.4500000000003,BARN CLOSE SURGERY,-1.859248,52.03627
527.4200000000001,LOSTOCK HALL MEDICAL CTR.,-2.688037,53.727502
56.08,SUMMERFIELD URGENT CARE CENTRE WIC,-1.937353,52.487686
450.75000000000006,PENINSULA MEDICAL PRACTICE,-2.915665,54.18795600000001
1950.1800000000005,HEBDEN BRIDGE GROUP PRACTICE,-2.010942,53.744036
970.36,STOCKWELL LODGE MED.CTR.,-0.055287,51.713792
302.7,DR PM PATEL,0.219281,51.55632
188.64,CHISWICK FAMILY DRS PRACTICE,-0.259879,51.493563
738.2299999999998,ILFORD MEDICAL CENTRE,0.07431899999999998,51.556823
1403.43,WITLEY SURGERY,-0.650163,51.156457
1740.9100000000005,FURLONG MEDICAL CENTRE,-2.208139,53.063325
866.5400000000003,THE WATERFIELD PRACTICE,-0.733923,51.409204
383.74,JERICHO HEALTH CENTRE,-1.265958,51.760293
1036.48,TEAN SURGERY,-1.988036,52.954415
490.42,THORNLEY STREET MEDICAL CENTRE,-2.125789,52.58843
449.0299999999999,MILE LANE HEALTH CENTRE,-2.335248,53.587814
593.14,BOLTON MEDICAL CENTRE,-2.431399,53.56543
646.78,WESTCROFT HEALTH CENTRE,-0.795699,52.006367
1285.99,LOWTHER MEDICAL CENTRE,-3.586392,54.545056
904.03,ANDAMAN SURGERY,1.715485,52.45691600000001
425.92,BURNT ASH SURGERY,0.009913000000000002,51.452782
1003.1000000000003,HILLVIEW MEDICAL CENTRE,-0.557727,51.315501
477.6,BATHEASTON MEDICAL CENTRE,-2.317387,51.406032
865.5200000000002,HEALD GREEN HEALTH CENTRE 2,-2.229276,53.369878
296.28,SMITH (RICHMOND LOCK),-0.322897,51.464517
522.7300000000001,JUBILEE GARDENS MEDICAL CENTRE,-0.368739,51.521097
1700.42,BRAMPTON MEDICAL PRACTICE,-2.734846,54.94237
1127.15,PLANE TREES GROUP PRACTICE,-1.894437,53.730448
1323.41,THORNTON MEDICAL CENTRE,-1.576209,53.791908
651.5099999999999,BRAILSFORD & HULLAND MEDICAL PRACTICE,-1.624927,52.96943
2.42,SMS COMMUNITY DERMATOLOGY CLINIC,-1.398499,50.913503
3.63,AQP ANTICOAG LEY HILL SURGERY,-1.827841,52.583302
1111.4999999999998,BISHOPS CLOSE MEDICAL PRACTICE,-1.599142,54.699817
2018.43,CLEE MEDICAL CENTRE,-0.041433,53.566223
425.96,BALDWINS LANE SURGERY,-0.448705,51.654076
669.4299999999998,NEASDEN MEDICAL CENTRE,-0.247382,51.559667
138.28999999999996,JOHN SMITH MEDICAL CENTRE,0.112125,51.538899
636.99,FAIRFIELD PMS,0.038949,51.483908
1568.24,BURNHAM HEALTH CENTRE,-0.662137,51.5349
3116.83,ASPEN MEDICAL PRACTICE,-2.225797,51.865969
1498.9,TRENT VALE MEDICAL PRACTICE,-2.201785,52.987386
410.19000000000005,BROOKSIDE SURGERY,-1.399088,52.35048
109.43,4/LOWER BROUGHTON MEDICAL PRACTICE,-2.258808,53.49359
573.16,DESFORD MEDICAL CENTRE,-1.296116,52.627473
112.51000000000002,DR VIJE'S SURGERY,-1.650877,52.617569
54.040000000000006,DR R SHARMA'S PRACTICE,-0.096482,51.499125
2251.94,NORTON MEDICAL CENTRE,-1.308737,54.588737
242.02999999999997,PEEL PARK SURGERY,-1.731903,53.806791
503.3999999999999,BOURN SURGERY,-0.063404,52.193155
758.5699999999998,COACHMANS MEDICAL PRACTICE,-0.203875,51.096335
2079.9600000000005,HEREWARD MEDICAL CENTRE,-0.380913,52.768626
2137.42,PENISTONE GROUP PMS PRACTICE,-1.630732,53.523565
1697.3,THE PARK SURGERY,1.7292759999999998,52.606218
691.0999999999997,LANFRANC MEDICAL CENTRE,-0.332746,51.561586
1022.6100000000004,WOODLANDS MEDICAL CENTRE,-1.258898,51.603637
347.2600000000001,KNOCKIN MEDICAL CENTRE,-2.993042,52.79343
1540.9399999999994,THE CROSS KEYS PRACTICE,-0.830848,51.723655
575.8200000000002,HILLCREST SURGERY,-2.431687,51.311982
614.2899999999998,APSLEY SURGERY,-2.187008,53.035377
499.38000000000005,ASHFIELD ROAD SURGERY,-2.132841,52.62604399999999
58.29,NT&H COMM CARDIAC N,-1.227837,54.702398
0.8399999999999997,CHELTENHAM LOCALITY NURSE PRESCRIBER,-2.176389,51.847073
953.0300000000002,BLACKETTS MEDICAL PRACTICE,-1.559007,54.527221
811.4099999999999,DR A SINHA,-0.108523,53.567689
449.39,STANHOPE SURGERY,-0.032073,51.688002
738.38,THE GRAHAM PRACTICE,0.048721,51.541534
1717.63,MID SUSSEX HEALTH CARE,-0.175279,50.933719
6240.87,PORTSDOWN GROUP PRACTICE,-1.080952,50.812876
0.16,URGENT CARE CTR (FCMS) OOH,-3.015863,53.820616
1050.65,EVERGREEN PRIMARY CARE CENTRE,-0.059836,51.623784
19.8,BARDOC GP OOH,-2.427769,53.590447
17.31,SHAKESPEARE WIC,-1.525196,53.802098
676.36,CRAVEN ARMS SURGERY,-2.835416,52.442323
553.86,ARRAN MEDICAL CENTRE,-1.748679,52.50386700000001
1097.36,CHAPEL LANE SURGERY,-3.061428,53.557075
508.2,TOWN HALL SURGERY,-2.092973,53.478374
1.57,LCW WLCCG OOH,-0.217218,51.522362
501.72999999999985,DENMARK ROAD SURGERY,-0.06725100000000002,51.393136
1.34,HOME VISITING SERVICE,-2.165957,53.412542
718.83,HAMSTEAD ROAD SURGERY,-1.919012,52.504474
156.72,SURGERY AUBERY ROAD,-1.846411,52.46633
277.27,MOXLEY MEDICAL CENTRE,-2.051113,52.560033
400.42,MEDICARE UNIT SURGERY,-2.69241,53.725239
906.94,LOSTOCK MEDICAL CENTRE,-2.328128,53.45458000000001
526.76,LANGLEY MEDICAL PRACTICE,-0.299929,51.390825
1837.85,ASHBY TURN PRIMARY CARE PARTNERS,-0.6542,53.566147
277.0299999999999,BRADFORD MOOR PRACTICE,-1.7218490000000002,53.797834
1025.3000000000004,LONG STRATTON MEDICAL PARTNERSHIP,1.229088,52.491027
422.63,HIGHFIELD SURGERY,-0.459233,51.766434
1431.6899999999994,ABBEY MEDICAL GROUP,-1.119194,53.100674
249.59,HOLBORN MEDICAL CENTRE,-0.118539,51.522233
341.09,BRICK LANE SURGERY,-0.048612,51.657327
434.37,ELM LODGE SURGERY,-0.096232,51.451506
1722.7,THE LIGHTHOUSE GROUP PRACTICE,-1.0805049999999998,50.796551
1329.94,THE ORCHARD PARTNERSHIP,-1.865867,51.077878
962.97,PARKGATE SURGERY,-2.882743,53.564772
5.19,WLCCG EXTENDED HOURS HUBS,-0.217218,51.522362
3629.52,WILLIAM BROWN CENTRE,-1.33142,54.757994
720.1299999999999,RED HOUSE MEDICAL CENTRE,-1.424063,54.925457
1164.2,COLNE VALLEY GROUP PRACTICE,-1.9282130000000002,53.602096
333.08,SOUTHEY GREEN MEDICAL CTR,-1.477666,53.419051
1437.9599999999994,IVRY STREET MEDICAL PRACTICE,1.148624,52.064021
870.06,NEWBURY GROUP PRACTICE,0.085981,51.576435
295.15,BRAMPTON HEALTH CENTRE,-0.277386,51.586099
440.25000000000006,DOCKLANDS MEDICAL CENTRE,-0.021143,51.491152
445.7000000000001,ABBEY WOOD SURGERY,0.11653,51.497094
1163.24,STAFFORD MEDICAL GROUP,-2.914755,51.35259
1848.3,SEVERN VALLEY MEDICAL PRACTICE,-2.235045,52.190415
804.4800000000001,LIME SQUARE MEDICAL CENTRE,-2.164901,53.473649
229.71,HATTON MEDICAL PRACTICE,-0.433285,51.457879
1399.7400000000002,BIRBECK MEDICAL GROUP,-2.742581,54.656125
451.5199999999999,WENLOCK ROAD SURGERY,-1.455226,54.972635
1134.34,CRICH MEDICAL PRACTICE,-1.482573,53.084327
831.45,LUDHAM AND STALHAM GREEN SURGERIES,1.534423,52.709131
1262.09,WELL CLOSE MEDICAL GROUP,-2.006127,55.77245799999999
1489.5099999999998,THE BURNS PRACTICE,-1.12309,53.520707
487.66,KING GEORGE ROAD SURGERY,0.518518,51.348911
1097.38,CHURCHDOWN SURGERY,-2.171559,51.882487
716.8299999999998,VENTNOR MEDICAL CENTRE,-1.203791,50.594548
538.26,WEST VIEW SURGERY,-2.50212,51.411923
947.07,CONCEPT HOUSE SURGERY,-2.98492,53.449136
307.65,HEATHROW MEDICAL CENTRE,-0.433924,51.49302
0.46,COMMUNITY GERIATRICIAN SERVICE,-1.568473,53.81497099999999
777.1599999999999,EAST PARADE SURGERY,-1.529793,53.996354
443.07,BASLOW HEALTH CENTRE,-1.617823,53.246144
332.75,ASQUITH SURGERY,-1.117116,52.601489
706.19,SUN LANE,1.087469,51.071536
622.5,THE CHURCH VIEW PRACTICE,0.609995,51.363412
319.2000000000001,TRIANGLE GROUP PRACTICE,-0.011071,51.457798
1176.21,BICESTER HEALTH CENTRE,-1.157239,51.896742
807.8500000000001,BILBROOK MEDICAL CENTRE,-2.181749,52.624775
5927.0300000000025,LANCASTER MEDICAL PRACTICE,-2.797202,54.047583
863.0300000000003,NEW COURT SURGERY,-2.30878,52.113538
754.65,SWANWOOD PARTNERSHIP,0.519034,51.613356
751.0300000000002,THE JUNCTION SURGERY,-1.759212,53.643662
6.18,BADGER GROUP OOH,-1.8778259999999998,52.477589
51.68,COMMUNITY NURSING (SOUTH TEES),-1.215564,54.570237
1363.2299999999998,MIDDLE CHARE MEDICAL GROUP,-1.573113,54.855636
2239.72,LEIGH VIEW MEDICAL PRACTICE,-1.558358,53.728574
3.01,NORTH NORFOLK HUB 2 (BIRCHWOOD),1.38334,52.820065
572.77,GILDERSOME HEALTH CENTRE,-1.6293,53.756554
628.51,HAZELMERE MEDICAL CENTRE,-1.16453,52.57337
934.47,QUEENS PARK HEALTH CENTRE,-0.493075,52.133151
207.62000000000003,THE HEATHCOTE PRIMARY CARE CENTRE,0.062768,51.593832
1868.4000000000005,TRESCOBEAS SURGERY,-5.085333,50.15531
905.2899999999998,MITCHELDEAN SURGERY,-2.488369,51.865935
2048.35,HARESFIELD HOUSE SURGERY,-2.202996,52.194829
1580.3699999999994,LAUREL HOUSE SURGERY,-1.692825,52.636563
841.1099999999999,LONGFORD PRIMARY CARE CENTRE,-1.48555,52.449933
2467.03,ROPE GREEN MEDICAL CENTRE,-2.453958,53.06655
1986.52,AINSDALE MEDICAL CENTRE,-3.03882,53.602403
545.0400000000001,QUEEN STREET MEDICAL PRACTICE,-3.589063,54.546567
551.94,THE MILLER PRACTICE,-0.092165,51.551419
1285.18,THE GROVES MEDICAL CENTRE,-0.26224,51.410048
1210.13,THE MARINE & OAKRIDGE PARTNERSHIP,-1.806532,50.722838
1219.3499999999995,PORT ISAAC SURGERY,-4.824594,50.589808
1443.27,ST JOHNS HOUSE SURGERY,-2.25911,52.18874
548.97,ADDERLEY GREEN SURGERY,-2.135511,52.991714
433.26000000000016,DR BILAS,-2.063063,52.612824
330.98,DILL HALL SURGERY,-2.390844,53.754996
1238.85,WEST TIMPERLEY MEDICAL CENTRE,-2.353117,53.402699
163.30999999999997,SUMMERLEE MEDICAL CENTRE,-0.652145,52.337022
343.93,THE GRANGE MEDICAL CENTRE,-0.262039,52.57839
941.35,GREEN RIDGE SURGERY,-1.8710349999999998,52.428433
722.0599999999998,ROCK COURT SURGERY,-2.916187,53.411597
731.8199999999998,HAVEN HEALTH,1.327039,51.96536
7.409999999999998,DANEHOUSE MEDICAL PRACTICE,-2.238948,53.791326
238.5,SHORTSTOWN MEDICAL CENTRE,-0.432463,52.110853
34.68,MK URGENT CARE SERVICES OOH,-0.7357599999999997,52.026384
163.31,LIMEFIELD ROAD MEDICAL PRACTICE,-2.26047,53.506995
243.24,THE MATTHEWMAN PRACTICE,-0.149281,51.545823
248.21,LAKESIDE SURGERY,-1.310932,53.52812
447.97,VALLEY VIEW SURGERY,-1.731903,53.806791
447.7900000000001,LICHFIELD GROVE SURGERY,-0.19329,51.599604
983.8899999999996,ARBURY MEDICAL CENTRE,-1.497961,52.51662
282.30999999999995,CHURCH LANE - KHAN,-1.793962,52.487056
247.43,BEECHDALE CENTRE,-2.007339,52.600867
868.4800000000001,DINGLE PARK PRACTICE,-2.972885,53.38633
480.57,BEECHWOOD SURGERY,-3.009057,53.871568
1404.0700000000004,HEYWOOD HEALTH,-2.239335,53.58736999999999
766.99,GLOUCESTER HOUSE MEDICAL CENTRE,-2.352599,53.447337
401.15,FIR TREE,-2.878691,53.44930600000001
0.46,NELPCT OUT OF HOURS SERVICE,-0.096229,53.544858
2.42,WALK IN CENTRE (WIC),-1.784934,51.563016
713.76,MAYNARD COURT SURGERY,0.020165,51.685605
1700.3900000000006,YARM MEDICAL PRACTICE,-1.355519,54.50530500000001
558.34,BENSHAM FAMILY PRACTICE,-1.617038,54.952781
264.61,EASTMOOR HEALTH CENTRE,-1.476864,53.690004
116.33,SPUR ROAD SURGERY,-0.086621,51.586597
522.2800000000001,ALBION STREET SURGERY,-0.133965,50.827627
1369.91,THE BANKS & BEARWOOD MEDICAL CENTRE,-1.9292169999999997,50.768326
600.05,MERE SURGERY,-2.265342,51.089873
1062.22,THE GROUP PRACTICE ALFRED SQUIRE ROAD,-2.080754,52.599417
1585.1600000000005,LANGWORTHY MEDICAL PRACTICE,-2.294771,53.489371
157.01,LEY HILL SURGERY,-1.983266,52.421346
192.79,CRESCENT SURGERY,0.106446,51.389854
279.84000000000003,GREEN CEDARS MEDICAL CENTRE,-0.073642,51.616071
49.43,WHITE HORSE SURGERY,0.343258,51.435153
909.2600000000001,PARK HOUSE MEDICAL CENTRE,-2.805295,53.42670699999999
1069.67,SOUTH KING STREET MEDICAL CENTRE,-3.047855,53.816775
13.740000000000002,ANN MARIE HOWES CENTRE,-1.7785380000000002,52.464805
7.709999999999998,AIREBOROUGH COMMUNITY CARE,-1.684881,53.866663
583.5300000000002,PEELER HOUSE SURGERY,-0.438756,53.72252
458.72999999999985,DR DHITAL PRACTICE,-0.003074,51.587786
1179.8200000000004,WOODLANDS HEALTH CENTRE,0.38485,51.18077
17.37,WEST KENT GROUP,1.118942,51.075872
901.96,DALTON SURGERY,-3.179816,54.155917
605.0600000000002,RAJ MEDICAL CENTRE,-0.113968,53.550655
1231.1,OAKWOOD LANE MEDICAL PRACTICE,-1.493931,53.819982
583.8000000000002,CADDINGTON SURGERY,-0.458179,51.864502
5.84,GREENWICH CCG GP ACCESS HUB,0.050556,51.457843
464.13,WEST ROAD MEDICAL CENTRE,-1.656263,54.976209
906.76,FOREST PRACTICE,0.07523499999999998,51.654789
235.93,PRASAD,0.210579,51.600308
1701.3,NORTHDOWN SURGERY,1.368001,51.379866
1972.96,DARWEN HEALTHLINK,-2.471427,53.695744
532.3599999999999,DAVID MEDICAL CENTRE,-2.268652,53.43186
688.63,EDLESBOROUGH SURGERY,-0.588625,51.868423
332.9100000000001,CHURCH VIEW MEDICAL CENTRE,-2.960328,50.935622
605.13,HENDON WAY SURGERY,-0.241873,51.579182
11.45,SPECIALIST NURSE,-1.517573,53.993807
30.17,NC GPA PLUS,-1.152649,52.954624
708.0,NETHERFIELD HOUSE,-1.548435,55.063632
1871.8400000000006,PRACTICE 3  MEDICAL CENTRE  BRIDLINGTON,-0.201064,54.084715
852.85,THE ALMONDBURY SURGERY,-1.751311,53.631868
404.41,NEWLAND SURGERY,-1.424247,53.695146
924.33,TREETON MEDICAL CENTRE,-1.354708,53.384994
1.82,AMBER VALLEY HEALTH,-1.3726,53.082351
690.85,THE CHESTNUTS & HALLGATE SURGERY,-0.403621,53.778985
1946.45,SHIRES HEALTHCARE,-1.215692,53.202513
683.64,ORCHARD SURGERY,-1.278154,52.836522
1071.0600000000004,ST GEORGES MED PRACTICE,-1.132346,52.930754
296.13000000000005,THE RANDOLPH SURGERY,-0.186852,51.529819
411.35,HEXTABLE SURGERY,0.182972,51.409182
522.1800000000001,THE ROEHAMPTON SURGERY,-0.242431,51.451154
927.63,CRICK MEDICAL PRACTICE,-1.135861,52.343212
1130.4899999999998,THE VILLAGE SURGERY,-2.219972,53.033945
683.0700000000002,STONE CROSS MEDICAL CENTRE,-1.982689,52.545444
918.58,ILEX VIEW MEDICAL PRACTICE,-2.280663,53.70081
524.64,PEEL CROFT,-1.6339549999999998,52.799271
2064.31,BEDLINGTONSHIRE MED.GROUP,-1.598682,55.1322
1126.9500000000005,MALTINGS SURGERY,-0.337918,51.751851
901.91,RECTORY MEADOW SURGERY,-0.6175,51.669079
7.79,CARE UK OOH,1.210633,52.034014
0.48,IC24 LTD (HWLH OOH),0.891514,51.129106
640.0,KIRKBY COMMUNITY PRIMARY CARE CENTRE (3),-1.248741,53.10176
805.0699999999998,BERKLEY PRACTICE,-2.024533,52.58916
1270.81,WOODLANDS MEDICAL PRACTICE,-2.142182,53.545559
999.1,BROOKS BAR MEDICAL CENTRE,-2.261969,53.461412
485.18000000000006,THE VILLAGE MEDICAL CTR,-0.512653,52.128152
16.25,GP COLLABORATIVE OOH,-1.455965,53.409821
425.78,ST NEOTS HEALTH CENTRE,-0.267116,52.228966
0.21,QUAY HEALTH EAC,-0.069645,51.49696
1057.85,MIDDLESTOWN,-1.600562,53.650545
858.8999999999997,AEGIS MEDICAL CENTRE,0.467525,51.57556
1293.4700000000005,LAVANT ROAD SURGERY,-0.781051,50.853385
179.70000000000005,BEGG PRACTICE,-0.179391,51.459968
787.84,EMMER GREEN SURGERY,-0.972861,51.483584
2495.69,ST THOMAS MEDICAL GROUP,-3.54518,50.714472
938.98,BOSWORTH MEDICAL CENTRE,-1.7536330000000002,52.480569
6.37,EASTBOURNE  HAILSHAM & SEAFORD OOH,0.891514,51.129106
7.079999999999999,INTERMEDIATE CARE (THE PEELE),-2.259671,53.385779
1218.62,WEM AND PREES MEDICAL PRACTICE,-2.722566,52.859338
633.2599999999999,ALL SAINTS SURGERY,-1.644121,52.794285
1293.7,DORRIDGE SURGERY,-1.752074,52.372757
278.83000000000004,QUEENS ROAD SURGERY,-1.474524,52.522119
2467.71,ASH TREES SURGERY,-2.769484,54.129481
456.04,FAMILY PRACTICE,-2.486748,53.750552
1047.42,LEESBROOK SURGERY,-2.07266,53.53879
1152.2299999999998,RADCLIFFE-ON-TRENT. HEALTH CENTRE,-1.03822,52.946139
507.06000000000006,MANCHESTER ROAD SURGERY,-1.521086,53.380573
785.1900000000002,PENSHURST GARDENS SURGERY,-0.272812,51.616129
143.86,ORCHARD END,0.539532,51.091415
70.32000000000001,BLOOMSBURY SURGERY,-1.871892,52.49324300000001
151.82000000000005,KHAN MEDICAL PRACTICE,-2.000799,52.613174
555.65,ASHURST PRIMARY CARE,-2.772723,53.563208
1830.74,PEASE WAY MEDICAL CENTRE,-1.576495,54.618581
355.56,ELSDON AVENUE SURGERY,-1.525885,55.07062
357.81999999999994,CROSLAND MOOR SURGERY,-1.809637,53.63841
1112.6500000000003,PARKGATE MEDICAL CENTRE,-1.342798,53.455454
132.54000000000002,QUEENS AVENUE PRACTICE,-0.147916,51.591852
42.27,DR RHK SINHA'S PRACTICE,-0.103058,51.482668
231.72,THE ADDISCOMBE SURGERY,-0.061851,51.376293
2315.0400000000004,THE CAMBRIDGE PRACTICE,-0.76565,51.254364
794.87,BRICKFIELDS SURGERY,0.605168,51.653143
1739.3400000000006,THE CEDARS SURGERY,1.403174,51.217619
1882.03,ORCHID HOUSE SURGERY,-1.894499,50.801788
1849.46,WEAVERS MEDICAL,-0.733538,52.401531
2099.96,BIDEFORD MEDICAL CENTRE,-4.211785,51.017201
1258.7900000000004,CORBETT MEDICAL PRACTICE,-2.148792,52.263269
479.41,COBRIDGE SURGERY,-2.187008,53.035377
1639.58,ALBION MEDICAL PRACTICE,-2.088476,53.48960400000001
673.2399999999999,LONGFIELD MEDICAL PRACTICE,-2.28357,53.533828
2.01,GP EXTENDED HOURS,-2.597522,53.389256
613.32,BRERETON SURGERY,-1.924317,52.747482
5.57,THE LAWNS SURGERY,-0.502907,50.807746
2.88,BARNET COPD SERVICE,-0.271242,51.606493
439.09,BRIERLEY MEDICAL CENTRE,-1.382484,53.594188
428.5999999999999,TEMPLE FORTUNE MEDICAL GROUP,-0.197845,51.581101
1512.4000000000005,WEST MALLING GROUP PRACTICE,0.407707,51.293351
1074.79,MOAT HOUSE SURGERY,-0.146361,51.259819
893.4000000000002,DENHAM MEDICAL CENTRE,-0.502236,51.584564
856.7000000000002,CHEW MEDICAL PRACTICE,-2.629195,51.35619
1226.16,CHARING SURGERY,0.791374,51.20971
2207.76,HEART OF BATH,-2.373947,51.376364
576.8,LOSTWITHIEL SURGERY,-4.668763,50.407892
750.51,THE GROVE ROAD PRACTICE,-0.202341,51.358201
333.56999999999994,HANLEY PRIMARY CARE CENTRE,-0.12083699999999999,51.567951
651.0899999999998,LEYLAND SURGERY,-2.709316,53.689645
2.2,HP NMP'S RUSH CCG,-1.143101,53.130244
386.64,DEARNE VALLEY HEALTH CENTRE,-1.626482,53.588349
2814.81,SEAFORD MEDICAL PRACTICE,0.099275,50.772678
285.61,THE WHITEHORSE PRACTICE,-0.097391,51.385869
636.6200000000001,TOWER HOUSE SURGERY,-0.770004,51.636372
1050.16,CHURCH STREET PRACTICE,-1.425847,51.598763
2003.81,ROSEBANK HEALTH,-2.242194,51.852611
824.22,MAPLE VIEW MEDICAL PRACTICE,-1.905693,52.31659
1485.39,HOWDEN MEDICAL PRACTICE,-0.8694039999999998,53.744175
1150.2299999999998,THE WILSDEN MEDICAL PRACTICE,-1.86138,53.818377
443.34,GREASBROUGH MEDICAL CENTRE,-1.372776,53.452893
959.08,WEST MERSEA SURGERY,0.9193420000000002,51.778349
1520.9399999999996,TWYFORD SURGERY,-1.314229,51.019421
918.01,IDE LANE SURGERY,-3.534972,50.699471
701.98,THE ARROW SURGERY,-1.861382,52.218546
412.68000000000006,WILLENHAL OAK MEDICAL CENTRE,-1.463131,52.388988
2200.59,THE OVER-WYRE MED.CTR.,-2.976492,53.928203
338.3699999999999,FAMILY SURGERY,-2.346055,53.396194
155.64999999999995,CRANBROOK MEDICAL PRACTICE,-3.416198,50.746596
2922.7300000000005,MARKET HARBOROUGH MED.CTR,-0.924843,52.477084
403.54,PORTLAND ROAD PRACTICE,-0.208019,51.507366
131.33,THE STROUDLEY WLK HTH CTR,-0.017533,51.527214
532.5,ST JOHN'S MEDICAL PRACTICE,0.195249,51.285009
653.8900000000001,DERRY DOWNS SURGERY,0.116651,51.385174
602.0899999999998,DANES CAMP MEDICAL CENTRE,-0.904374,52.205152
624.3,CULVERHAY SURGERY,-2.348649,51.638921
880.8999999999999,SPRINGFIELDS MEDICAL CENTRE,-2.597522,53.389256
426.1600000000001,HALLIWELL SURGERY 1,-2.431738,53.588322
175.17999999999995,FITZMAURICE (KEW),-0.283117,51.475875
3428.9299999999994,THE MEDICAL GROUP,-1.628911,54.748296
311.3,KINGS HEAD MEDICAL PRACTICE,-0.011448,51.635688
304.2000000000001,THE GLENDALE SURGERY,-2.01842,55.546525
1109.49,THORNE MOOR MEDICAL PRACTICE,-0.966348,53.613648
1424.37,ST.PETER'S MEDICAL CENTRE,-0.135237,50.831002
576.8699999999998,YALDING,0.429804,51.221188
454.03,BIRDHURST MEDICAL PRACTICE,-0.092613,51.365279
1092.9500000000003,FORESTSIDE MEDICAL PRACTICE,-1.416173,50.851823
1193.48,GLASTONBURY SURGERY,-2.721853,51.148462
1548.14,MEDINA HEALTHCARE,-1.298686,50.697239
723.3600000000001,GREENWAY COMMUNITY PRACTICE,-2.611274,51.499595
1340.03,HIGHBRIDGE MEDICAL CENTRE,-2.979117,51.227372
1328.7999999999995,CANTILUPE SURGERY,-2.712261,52.055418
837.7099999999998,DRS SHAH & TALPUR,-2.194635,52.974032
1335.2899999999995,WHALLEY MEDICAL CENTRE,-2.406348,53.819793
991.42,PIKES LANE 1,-2.446348,53.572728
2.42,BARTON MOSS SECURE CHILDREN'S HOME,-2.39687,53.468834
676.7899999999998,SEASCALE HEALTH CENTRE,-3.479998,54.396756
719.0600000000002,RIPLEY MEDICAL CENTRE,-1.405723,53.04704
431.19000000000005,DENABY MEDICAL PRACTICE,-1.245792,53.490666
582.86,UPTON ROAD SURGERY,-0.401058,51.656689
1315.34,THE HOLLIES,0.610574,51.555461
316.88,THE LEIGH SURGERY,0.656153,51.555504
887.85,THE DOWNLAND PRACTICE,-1.312402,51.463442
630.76,EGERTON/DUNSCAR HEALTH CENTRE,-2.426383,53.617589
2.27,CARE UK COVENTRY OOH,-1.5080049999999998,52.413401
4.12,COASTAL HEALTH SOUTH,1.715177,52.478072
8.429999999999998,DONCASTER URGENT CARE & OUT OF HOURS,-1.109062,53.530806
685.76,FARROW MEDICAL CENTRE,-1.74312,53.802511
1325.2199999999998,BRAMLEY VILLAGE HEALTH & WELLBEING CTR,-1.623032,53.80781999999999
1415.55,CUFFLEY AND GOFFS OAK MEDICAL PRACTICE,-0.113106,51.708171
2.06,GP SERVICES-CRAWLEY HUB,-0.175734,51.240416
1.34,HMP WYMOTT,-2.749412,53.678372
3.62,MERTON REHAB BEDS,-0.224115,51.437407
1094.6900000000003,CAMPINGLAND SURGERY,0.690978,52.645997
1290.68,LEIGHTON ROAD SURGERY,-0.66795,51.915779
1133.85,WILLOW TREE FAMILY DOCTORS,-0.265224,51.589337
376.4,MAIDSTONE RD RAINHAM SURGERY,0.600379,51.36233
345.23,BANK HOUSE SURGERY,0.069949,51.359218
609.6600000000002,YORK MEDICAL PRACTICE,-0.325697,51.449369
469.58,CARRINGTON HOUSE SURGERY,-0.749217,51.632299
632.12,HOLLYOAKS MEDICAL CENTRE,-1.869052,52.377979
323.11,GARSTON FAMILY HEALTH CENTRE,-2.89683,53.353909
892.69,COMMONFIELD RD SURGERY,-3.086369,53.370187
168.18999999999997,WERNETH MEDICAL PRACTICE,-2.126938,53.53497
336.56999999999994,DR VICTORIA MUIR'S PRACTICE,-0.151358,51.490651
438.0100000000001,THE FAMILY PRACTICE,-3.229282,54.116755
509.27,COWGILL SURGERY,-1.814543,53.781952
472.56,THE GLENSIDE COUNTRY PRACTICE,-0.537958,52.75451
357.89,NORTH AVENUE SURGERY,0.735187,51.546618
21.19,MEDICUS HEALTH PARTNERS- BUSH HILL PARK,-0.066545,51.63953
820.82,HAWTHORNS SURGERY,-0.175174,51.241163
727.5299999999999,TRINITY MEDICAL CENTRE,-0.158437,51.437554
1865.2899999999993,HOMEWELL.CURLEW PRACTICE,-0.978019,50.851067
855.9199999999998,SUNLIGHT GROUP PRACTICE,-3.00005,53.363076
649.1499999999997,BLYTH ROAD MEDICAL CENTRE,-1.20365,53.422231
961.06,HARBOUR MEDICAL PRACTICE,0.324489,50.797353
2006.74,THE HAYMARKET HEALTH CTR,-2.211781,53.060343
459.93000000000006,HEATHERLANDS MED CTR,-3.089543,53.381475
765.1499999999999,CATHEDRAL MEDICAL CENTRE,0.275488,52.413145
4.86,EXTENDED ACCESS PRIMARY CARE HUB,-0.079465,51.533775
331.9899999999999,THE GAMSTON MEDICAL CTR.,-1.100495,52.924252
2.55,ERDINGTON GP HEALTH & WELLBEING WIC,-1.840871,52.522486
21.8,CENTRAL DURHAM GP EXT'D ACCESS SERVICE,-1.56716,54.7787
2734.68,AUCKLAND MEDICAL GROUP,-1.678996,54.648085
4360.0,HAXBY GROUP PRACTICE,-1.081866,54.019329
99.79,VERITAS HEALTH CENTRE,-1.481026,53.354257
1322.05,THE NEVELLS ROAD SURGERY,-0.22942,51.980882
191.86,COLLINGWOOD ROAD SURGERY,0.638271,51.802938
1333.3099999999995,STOCK HILL SURGERY,0.031768,51.312089
358.6400000000001,CLAREMONT MEDICAL CENTRE,-0.306132,51.390808
927.1599999999999,WATERFRONT AND SOLENT SURGERY,-1.403379,50.870013
456.72,THE ABINGDON HEALTH CENTRE,-0.197138,51.496085
600.47,ELTHAM PALACE PMS,0.053714,51.449946
1010.83,CHAWTON PARK SURGERY,-0.989411,51.139814
1541.56,THE OAKS MEDICAL CENTRE,-1.895827,52.552454
622.62,NEWBRIDGE SURGERY,-2.155299,52.5936
174.96999999999997,ST.GEORGES MEDICAL CENTRE,-0.24612,51.558731
687.6099999999997,OAKWOOD MEDICAL CENTRE,-0.134269,51.646534
66.22,SMGPF,-2.237795,53.434307
466.39,REDBURN PARK MEDICAL CENTRE,-1.474775,55.00092
389.37,BARKEREND HC - EL ELIWI,-1.7218490000000002,53.797834
432.73,ROSEMEAD DRIVE SURGERY,-1.083088,52.5934
636.3600000000001,BRENTFORD GROUP PRACTICE,-0.310054,51.48676
1833.96,JUBILEE MEDICAL CENTRE,0.300332,51.3978
408.44,LAMBETH WALK GROUP PRACTICE,-0.11259100000000001,51.495609
496.3299999999999,SOUTHMEAD SURGERY,-0.616953,51.552538
252.26,MALLING HEALTH BLUE SUITE,0.609995,51.363412
832.88,FARNHAM DENE MEDICAL PRACTICE,-0.777405,51.200549
1798.0100000000002,BRUNEL MEDICAL PRACTICE,-3.516948,50.479349
2064.39,THE MANOR PRACTICE,-1.8236169999999998,52.55816
721.7899999999998,DUNCAN STREET PRIMARY CARE PARTNERSHIP,-2.126602,52.57346999999999
811.56,WESTOVER SURGERY,-5.07501,50.148927
175.06,LANGTHORNE SHARMA FAMILY PRACTICE,0.0021,51.555415
1427.0100000000002,WEST MEADS SURGERY,-0.701481,50.788299
11.73,PBORO WEEKEND HOURS GP PILOT,-0.279386,52.583921
1401.87,BUSHLOE SURGERY,-1.116921,52.583283
944.2199999999997,LEISTON SURGERY,1.575953,52.207708
512.22,HEATHFIELDE MEDICAL CENTRE,-0.179797,51.585238
1447.87,MOTE,0.545625,51.246876
1162.03,WINSCOMBE SURGERY,-2.830537,51.315196
609.5900000000001,ELTHAM PARK SURGERY,0.061023,51.4547
589.3599999999999,JAMES O'RIORDAN MEDICAL CENTRE,-0.212686,51.385157
396.92,27 BEAUMONT STREET,-1.26216,51.755081
14.150000000000002,ST LUKES MEDICAL CENTRE,-3.517636,50.394313
1029.01,PRIMROSE SURGERY,-2.357311,53.456159
401.93,THE OLD DAIRY HEALTH CENTRE,-0.091201,51.436586
3.44,SUTTON COMMUNITY SERVICES,-0.183642,51.380313
1592.2100000000007,THE MANOR SURGERY,-1.216371,52.925036
575.48,ESSEX LODGE,0.026685000000000004,51.527915
936.35,BRIDGE MEDICAL CENTRE,-0.166439,51.117364
1393.5099999999998,THE CRANBORNE PRACTICE,-1.9192779999999998,50.919773
790.19,NEW FOREST MEDICAL GROUP,-1.576665,50.81471
1556.6200000000006,SWALLOWFIELD MEDICAL PRACTICE,-0.958531,51.378289
903.66,TALBOT MEDICAL CENTRE,-1.440661,54.973054
1131.1999999999996,NOVA SCOTIA MEDICAL CNTR,-1.373051,53.747561
1719.33,ABBEY SURGERY,-4.150401,50.546904
1311.2900000000004,WHITEACRES MEDICAL CENTRE,-2.300547,52.124716
701.67,AUDLEM MEDICAL PRACTICE,-2.508717,52.989615
588.5900000000001,KENNETH MACRAE MED CENTRE,-2.786435,53.49903
327.71,WOODLANDS MEDICAL PRACTICE,-0.170943,51.592914
970.71,VERNON STREET MEDICAL CTR,-1.49039,52.924019
1506.53,BRIDGE COTTAGE SURGERY,-0.215995,51.830002
810.6800000000003,DR KRISHNAN & PTNR - KENT ELMS HC,0.664114,51.563831
358.55000000000007,CRANHAM HEALTH CENTRE,0.265291,51.568865
484.99,LEWISHAM MEDICAL CENTRE,0.004522,51.458513
835.95,LYDNEY PRACTICE,-2.529867,51.727913
1389.4,ST. JOHNS SURGERY,-2.059728,52.337612
1226.09,MONTAGUE MEDICAL PRACTICE,-0.872899,53.707031
907.3999999999997,HORTON BANK PRACTICE,-1.806018,53.774478
921.85,HIGH STREET PRACTICE,-1.458313,53.597926
797.3499999999998,DR BAKER & PARTNERS,0.548167,51.570733
370.4,INGREBOURNE MEDICAL CENTRE,0.210579,51.600308
463.5199999999999,CROUCH HALL ROAD SURGERY,-0.127301,51.579178
1312.1899999999996,CENTRAL SURGERY,-0.299929,51.390825
1127.32,ST PAUL'S SURGERY,-1.32139,51.065963
1039.9799999999998,KINGTON MEDICAL PRACTICE,-3.022556,52.199361
947.46,WEST GORTON MEDICAL PRACTICE,-2.203859,53.46720500000001
1165.91,THE LEEDS ROAD PRACTICE,-1.535156,53.980466
691.0100000000001,FOXHILL MEDICAL CENTRE,-1.501327,53.429911
544.12,CAULDWELL MEDICAL CENTRE,-0.472495,52.128265
270.23999999999995,SANDRINGHAM PRACTICE,-0.067207,51.547773
965.5,LAKESIDE MEDICAL,0.122454,51.496518
973.3,LEAP VALLEY MEDICAL CENTRE,-2.487852,51.496541
296.38999999999993,ST JAMES MEDICAL PRACTICE1,-2.097323,52.514234
665.77,MORETON MEDICAL CENTRE,-3.110005,53.39886
701.3400000000001,DRS HANIF &  BANNURU,-2.184157,53.484308
1713.01,SWALLOWNEST HEALTH CENTRE,-1.317097,53.362997
278.43000000000006,BOUNDARY HOUSE SURGERY,-0.054245,51.632475
2670.07,WESTBURY GROUP PRACTICE,-2.203558,51.252792
386.91,HIGHLEY MEDICAL CENTRE,-2.392978,52.456165
582.89,WOLSTON SURGERY,-1.392727,52.376806
493.65,BALLIOL ROAD SURGERY,-1.471449,52.415924
709.3200000000002,NEWTON MEDICAL CENTRE,-2.638386,53.457172
480.5999999999999,TIMPERLEY HEALTH CENTRE (WESTWOOD),-2.323566,53.397228
1235.7,LIMES MEDICAL CENTRE,-1.387885,53.098493
646.4699999999998,SELSTON SURGERY,-1.299871,53.070196
850.12,CRYSTAL PEAKS MEDICAL CENTRE,-1.354473,53.342881
461.65,CHURCH LANE SURGERY,-0.262165,51.574931
256.48,ACRE SURGERY,-0.411552,51.604465
525.8100000000001,CUMBERLAND MEDICAL CENTRE,0.026047,51.519716
238.01,MAIDSTONE RD CHATHAM SURGERY,0.516708,51.361226
355.62999999999994,LONG BARN LANE SURGERY,-0.967033,51.436181
678.3599999999999,OMBERSLEY MEDICAL CENTRE,-2.229023,52.276554
671.0599999999998,MAYFIELD MEDICAL CENTRE,-2.093284,52.583046
224.31,DR M GOYAL'S PRACTICE,0.156711,51.540066
751.9600000000002,TOLLGATE MEDICAL CENTRE,0.056362,51.515573
514.3600000000001,WAKE GREEN SURGERY,-1.883357,52.446103
959.84,RAINHILL VILLAGE SURGERY,-2.763813,53.41631
649.1400000000001,NEW ISLINGTON MEDICAL CENTRE,-2.219472,53.4829
1574.2500000000002,CLARENDON MEDICAL CENTRE,-2.079951,53.45264
8.88,(FRACTURE CLINIC) NORTH OOH,-0.883829,52.236068
4.26,MERSEYCARE NHS TRUST - NMP,-2.933499,53.407265
7.63,OPTIMUSEXTENDEDACCESS,-0.596637,53.18754
1397.9499999999996,COLLEGE LANE SURGERY,-1.336292,53.644573
940.48,THE ORCHARD MED PRACTICE,-1.231693,52.533972
3472.2899999999995,STANMORE MEDICAL GROUP,-0.204612,51.913274
529.65,KEATS GROUP PRACTICE,-0.17103,51.555534
1022.62,DOWNING STREET GROUP PRACTICE,-0.7989009999999998,51.212905
275.77,ASHBURTON PARK MEDICAL CENTRE,-0.064221,51.384147
272.48,NEATH HILL HEALTH CENTRE,-0.747321,52.060411
1132.2100000000005,BRINNINGTON SURGERY,-2.132367,53.427651
131.26,HALF PENNY STEPS HEALTH CENTRE,-0.206044,51.526213
4126.29,CARLISLE HEALTHCARE,-2.930647,54.893714
1020.85,THE GOLDEN BROOK PRACTICE,-1.272531,52.901553
1122.0799999999997,RUSKINGTON SURGERY,-0.400977,53.048226
737.07,DUKE MEDICAL CENTRE,-1.455657,53.378576
320.73,THE TUDOR HOUSE MEDICAL CENTRE,-0.266689,51.564495
594.81,LABURNUM HEALTH CENTRE,0.151208,51.560662
427.95000000000016,PRIMECARE PMS (SOUTH STREET),-0.012448,51.476194
252.77,THE GARDENS SURGERY,-0.066803,51.46061
1518.7600000000002,NORDEN HOUSE SURGERY,-0.882727,51.944924
471.49,BREDON HILL SURGERY,-2.104857,52.030166
626.57,PHOENIX FAMILY CARE,-1.51543,52.390005
958.74,CHURCH STREET PRACTICE,-0.459783,51.37345
593.6299999999999,LEYBOURNE SURGERY,-1.88721,50.758437
1467.7299999999998,PATFORD HOUSE PARTNERSHIP,-2.005519,51.437601
567.0399999999998,ESTOVER SURGERY,-4.0952,50.411271
1032.3399999999997,NORTHGATE MEDICAL CENTRE,-2.892972,53.19509300000001
698.57,WESTLEIGH MEDICAL PRACTICE,-2.526024,53.510851
361.56999999999994,WINDMILL SURGERY,-1.48555,52.449933
495.05,ARNOS GROVE MEDICAL CENTR,-0.129838,51.615476
118.46999999999998,ST.QUINTIN HEALTH CENTRE,-0.220325,51.519199
429.4,PARK COMMUNITY PRACTICE,-1.871717,53.725678
2.84,CHESTERFIELD HEALTH PROVIDER LTD,-1.43962,53.233943
402.61,MELROSE SURGERY,-1.287301,54.609397
800.97,LAKENHAM SURGERY,1.296577,52.6183
771.7000000000002,ISLAND HEALTH,-0.013513,51.495357
1345.3300000000004,STANFORD MEDICAL CENTRE,-0.148293,50.838378
783.3,NEWINGTON ROAD SURGERY,1.399222,51.343459
1051.4299999999996,THE WHITELEY SURGERY,-1.266072,50.88262
1731.95,THE ELMS PRACTICE,-0.976476,50.789794
377.62000000000006,CHILLINGTON HEALTH CENTRE,-3.693645,50.272623
188.38,AMBAR MEDICAL CENTRE,-1.991354,52.575093
1176.4099999999996,RISEDALE SURGERY,-3.224778,54.109942
1472.9,BASLOW RD  SHOREHAM ST & YORK RD SRGIES,-1.531066,53.316325
1171.62,MANOR DRIVE MEDICAL CENTRE,-0.24836599999999998,51.380785
4.98,NELFT SOUTH WEST ESSEX CS,0.496195,51.591456
3.25,COMMUNITY MIDWIVES,-2.784954,53.420469
1329.02,WIBSEY & QUEENSBURY MED P,-1.779715,53.767225
194.66000000000003,BROOK GREEN SURGERY,-0.218145,51.495291
381.49000000000007,DR MOHAMMED GREEN MAN MEDICAL CENTRE,0.015000999999999999,51.571506
601.3900000000001,NORK CLINIC,-0.215842,51.326429
587.7000000000002,QUEENHILL MEDICAL PRACTICE,-0.066791,51.34499
1742.2600000000002,THE BOSMERE MEDICAL PRACTICE,-0.990581,50.850232
628.13,THE LONG BUCKBY PRACTICE,-1.08255,52.30049
591.66,GLOUCESTER CITY HEALTH CENTRE,-2.245328,51.860355
868.3099999999998,NORTHWAY MEDICAL CENTRE,-2.130997,52.54810500000001
1163.91,ASHBOURNE MEDICAL PRACTICE,-1.737589,53.012862
942.06,BIRLEY HEALTH CENTRE,-1.396985,53.340317
1510.38,PARKFIELD MEDICAL CENTRE,-0.179588,51.695129
496.99000000000007,REDWOOD PRACTICE,-0.359614,51.461125
221.68000000000004,ABBEY COURT,0.26122,51.137755
910.73,OPEN DOOR SURGERY,-0.155581,51.443166
430.17,BROSELEY MEDICAL PRACTICE,-2.481266,52.611554
577.41,BEECH TREE MEDICAL PRACTICE,-1.252936,52.377534
7.25,STORTHFIELD HOUSE,-1.332746,53.097559
1227.32,ROYSTON GROUP PRACTICE,-1.451018,53.600005
58.81999999999999,FULHAM CROSS MEDICAL CENTRE,-0.214067,51.482774
815.1799999999998,BELMONT SURGERY,0.340829,51.061952
627.82,BANBURY ROAD MEDICAL CENTRE,-1.263535,51.774771
111.74000000000002,HILL TOP PRACTICE,-2.011775,52.537791
27.15,GREAT CHAPEL STREET MEDICAL CENTRE,-0.134097,51.51508
1441.9799999999998,WINTERTON MEDICAL PRACTICE,-0.606876,53.652511
863.39,THE OLD SCHOOL MEDICAL PRACTICE,-1.1424040000000002,53.916163
794.67,MEXBOROUGH HEALTH CENTRE,-1.279795,53.494237
60.48,UHMB COMMUNITY NMP,-2.799232,54.042726
1836.17,NORWOOD MEDICAL CENTRE,-3.222974,54.119201
700.03,PICTON MEDICAL CENTRE,-1.77624,53.807296
2623.380000000001,ORCHARD MEDICAL PRACTICE,-1.206764,53.141121
568.96,THE VILLAGE SURGERY,-0.168135,51.648069
733.3500000000001,ST. BARTHOLOMEWS SURGERY,0.051755,51.532409
4938.21,THE WILLOW GROUP,-1.143034,50.800579
834.0,PORT VIEW SURGERY,-4.214351,50.40735
1157.02,STANMORE HOUSE SURGERY,-2.231468,52.391138
5518.52,SOLIHULL HEALTHCARE PARTNERSHIP,-1.775235,52.419642
2.6300000000000003,RICHARDSON COMMUNITY HOSPITAL,-1.9161529999999998,54.545708
1616.9999999999993,IVY GROVE SURGERY,-1.402822,53.042198
875.33,THE LINDEN MEDICAL GROUP,-1.273642,52.931099
498.52000000000015,BUTE HOUSE MEDICAL CENTRE,-0.423966,51.880162
793.25,GURU NANAK MEDICAL CENTRE,-0.387151,51.511774
308.99999999999994,SOUTH GREEN SURGERY,0.430504,51.613411
353.94,RICHMOND ROAD MEDICAL CENTRE,-0.065532,51.543051
1714.12,OLD SCHOOL SURGERY,0.100722,50.772062
892.3099999999998,LAMBTON ROAD MEDICAL PRACTICE,-0.231169,51.411219
1050.86,LORDSHILL HEALTH CENTRE,-1.448733,50.940999
1536.3199999999995,HOLES LANE MEDICAL CENTRE,-2.545107,53.399828
1040.0100000000002,THE GILL MEDICAL PRACTICE,-2.398384,53.524288
230.84000000000003,PAK HEALTH CENTRE,-1.856091,52.490749
185.06,WALFORD STREET  TIVIDALE,-2.059752,52.513192
443.38,RUSHEY MEAD HEALTH CENTRE,-1.103823,52.663187
1746.17,BRAMHALL HEALTH CENTRE,-2.162929,53.36001
466.25,AYLESBURY SURGERY,-1.876053,52.542854
259.44,NEVILLE ROAD SURGERY,-0.443036,51.906419
520.68,THE PRACTICE BEAUMONT LEYS,-1.15392,52.662296
214.11,KINGSWAY SURGERY,-0.437208,51.517478
1363.15,BELLEGROVE SURGERY,0.09579,51.464561
1383.13,CHEAM GP CENTRE,-0.225239,51.368621
337.88999999999993,HANDSWORTH MEDICAL PRACT.,-1.941212,52.505377
289.8900000000001,BEARWOOD MEDICAL CENTRE,-1.97344,52.476903
334.19000000000005,BEEHIVE SURGERY,-2.419172,53.564161
950.7600000000001,THE CHEYLESMORE SURGERY,-1.503924,52.391324
764.62,ST PETER'S SURGERY,-1.984855,52.594537
988.42,MANOR HEALTH CTR,-3.044493,53.421061
352.35,THE CROSSROADS SURGERY,-2.770123,53.417492
5.280000000000001,LAS S.E. LONDON IUC CAS,-0.10903099999999999,51.500174
1827.9,ADELAIDE STREET SURGERY,-3.048397,53.817351
192.75,CAVENDISH HEALTH CENTRE,-0.148092,51.519331
1330.13,BROWNLOW GROUP PRACTICE,-2.96585,53.405021
920.93,THE LAKES MEDICAL PRACTICE,-2.742581,54.656125
1909.5099999999993,OSMASTON SURGERY,-1.467954,52.911084
1081.16,HOLBEACH MEDICAL CENTRE,0.014430000000000002,52.804778
423.30999999999995,LAMBOURN SURGERY,-1.526933,51.504696
1311.5300000000002,KNOWLE HOUSE SURGERY,-4.134098,50.40863
628.61,VALE OF RED HORSE,-1.510351,52.15797
1157.36,BALSALL COMMON & MERIDEN GROUP PRACTICE,-1.643862,52.394956
1229.53,DINAS LANE MEDICAL CENTRE,-2.861513,53.417388
60.06,DORKING HEALTHCARE LLP,-0.333421,51.225985
522.1,GREAT BRIDGE HEALTH CENTRE,-2.02775,52.527792
1857.5,ST ANN'S ROAD SURGERY,-0.08783399999999998,51.581428
12.79,TAURUS HEALTHCARE LTD,-2.71099,52.05708
373.44000000000005,CARTMEL SURGERY,-2.946985,54.199165
1634.9299999999996,MEADOWGREEN HEALTH CENTRE,-1.480804,53.326831
1242.05,CRUDDAS PARK SURGERY,-1.630965,54.968173
1125.44,HAWORTH MEDICAL PRACTICE,-1.954883,53.831322
271.29,WELBECK SURGERY,-1.147823,52.979645
1265.6699999999996,WICKHAM MARKET MEDICAL CENTRE,1.363674,52.151842
401.88,DR YADAVA N PRACTICE,0.334586,51.476703
1616.25,THORNHILLS MEDICAL PRACTICE,0.440958,51.300117
2264.3,BIDDULPH VALLEY SURGERY,-2.178498,53.116111
1839.61,STOCKTON HEATH MED.CENTRE,-2.582161,53.37195
1457.2799999999993,CHORLTON FAMILY PRACTICE,-2.279717,53.443773
141.11,DR R KAPUR & PARTNERS,-1.119092,52.631036
459.76,WESTBOURNE SURGERY,-1.8061,53.650937
340.42,DR WEBB AND PARTNERS,-1.308041,52.968251
690.8899999999999,SILVERDALE MEDICAL CENTRE,-1.090548,52.672318
1315.4299999999996,PARKBURY HOUSE SURGERY,-0.334063,51.756766
406.68,THORNTON & VALLEY PARK SURGERY,-0.120709,51.388871
774.2099999999998,MOORDOWN MEDICAL CENTRE,-1.874485,50.756212
1409.92,WOLVERTON HEALTH CENTRE,-0.814934,52.054197
186.98,GREET MEDICAL PRACTICE,-1.857778,52.453195
1624.11,THE PARK MEDICAL PRACTICE,-2.739045,53.77018
229.44,CROSSWAYS PRACTICE,-3.023992,53.484655
1578.0,CENTRAL SURGERY,-1.265473,52.371743
1.24,HMP BRISTOL,-2.591585,51.480902
390.05000000000007,BHF LUNDWOOD SURGERY,-1.438538,53.557711
848.1300000000001,WOODLANDS PARK HEALTH CTR,-1.628825,55.04614
1251.1,MAYFORD HOUSE SURGERY,-1.446534,54.328376
1022.64,HAVEN MEDICAL CENTRE,-1.416874,52.891498
1288.27,CASTLE HEALTHCARE PRACTICE,-1.144908,52.930476
474.5100000000001,IMEARY STREET PRACTICE,-1.424863,54.98753000000001
1069.87,TRINITY & BOWTHORPE MEDICAL PRACTICE,1.280248,52.624411
268.84,WAKEMANS HILL SURGERY,-0.254209,51.587088
918.6799999999998,HARROW ROAD GP CENTRE,0.012856,51.559538
2372.0399999999995,THE SWAN PRACTICE,-0.985664,52.001593
1045.7399999999998,NESTON MEDICAL CENTRE,-3.064349,53.291818
1336.15,ST.MARY'S HEALTH CENTRE,-2.729589,53.747433
178.36,ASKAM SURGERY,-3.210918,54.183705
638.0899999999998,GRANGE PARK SURGERY,-1.7481080000000002,53.912695
2464.6799999999994,BEECHFIELD MEDICAL CENTRE,-0.145012,52.787253
923.91,GRIMETHORPE SURGERY,-1.378978,53.573614
552.07,HANWELL HEALTH CENTRE (NAISH),-0.334375,51.510263
1359.44,WEST ROAD SURGERY,0.70187,51.544989
544.98,PENN SURGERY,-2.145001,52.568567
212.06,SARAF MEDICAL PRACTICE,-2.076954,53.561455
487.94000000000005,DELL MEDICAL CENTRE,0.328114,51.480258
0.18,GATDOC OOH,-1.580781,54.93938000000001
382.26000000000016,THE TRINITY MEDICAL CENTRE,0.085815,51.478803
344.4500000000001,ASHVILLE SURGERY,-0.201145,51.476255
2.29,DR HANTSDOC N OOH,-1.109918,51.280633
7.91,HOLYWELL AT LANGLEY HOUSE HCT,-0.391206,51.683651
415.83,OAK GLEN SURGERY,-1.816352,53.854799
584.4200000000002,OAKWOOD SURGERY,-1.4290459999999998,52.941386
650.29,THE KAKOTY PRACTICE,-1.473444,53.5464
3.63,NEWCASTLE GP IN MOLINEUX WIC,-1.583491,54.977507
692.0700000000002,BURNGREAVE SURGERY,-1.459815,53.393327
3443.3299999999995,COLCHESTER MEDICAL PRACTICE,0.909325,51.890029
1203.3100000000004,ESHER GREEN SURGERY,-0.370196,51.375782
737.1699999999998,ASHFIELD MEDICAL CENTRE,-0.7382729999999998,52.019666
1376.3099999999995,TETTENHALL MEDICAL PRACTICE,-2.159502,52.600723
542.0500000000001,PENNY LANE SURGERY,-2.915004,53.389404
690.8099999999998,CORNERSTONE SURGERY,-2.457402,53.58815500000001
838.87,VICTORIA PARK HEALTH CENTRE,-1.1192,52.619071
510.29000000000013,OLD FORGE SURGERY,-2.079758,54.623041
1004.2099999999997,VESPER ROAD,-1.615337,53.827318
611.09,GLADSTONE HOUSE SURGERY,-1.307927,52.968816
501.24999999999994,LANGSTONE WAY SURGERY,-0.210815,51.606981
232.23,ELMTREES SURGERY,-0.335968,51.550787
1107.2400000000002,SNODLAND MEDICAL PRACTICE,0.441488,51.326053
848.6999999999998,LEITH HILL PRACTICE,-0.322969,51.150452
383.62,MALTHOUSE MEADOWS SURGERY,-2.568038,50.668698
508.33,HARBURY SURGERY,-1.458027,52.236759
1676.9,QUEEN SQUARE MEDICAL PRACTICE,-2.800994,54.046219
612.77,MARUS BRIDGE PRACTICE,-2.643772,53.529393
74.11,HEALTH E1,-0.07152500000000002,51.518304
145.76000000000005,CAXTON HOUSE SURGERY,-1.382415,53.575347
4.02,ALEX CENTRE UNREGISTERED WIC,-0.369696,51.568372
528.83,WESTCOTES MEDICAL CENTRE,-1.153587,52.63133199999999
7.619999999999998,WEST MERTON ACCESS HUB,-0.210281,51.409967
10.2,DERBY CITY SOUTH HEALTHCARE LTD,-1.531656,52.891817
749.6400000000001,BUNBURY MEDICAL PRACTICE,-2.649377,53.116827
1263.35,CASTLETON HEALTH CENTRE,-2.18229,53.597034
4.539999999999999,SALFORD GP OUT OF HOURS,-2.323424,53.487545
18.49,NOTTINGHAM CITYCARE,-1.155769,52.951832
7.679999999999999,ASHTON PCC SEVEN DAY ACCESS OOH,-2.099981,53.485827
814.9799999999998,DR A CALOW'S PRACTICE,-2.503837,53.742584
1823.45,CHEADLE MEDICAL PRACTICE,-2.213539,53.393745
631.5700000000002,GREEN STREET GREEN MED CT,0.089996,51.354366
458.7600000000001,3/ST ANDREWS MEDICAL CENTRE,-2.339619,53.484875
361.7,BLACKFRIARS,-2.254244,53.484135
418.62000000000006,CALDBECK SURGERY,-3.050622,54.749864
882.0,DR INGRAM & PTRS,-1.526892,54.136451
501.70000000000016,HOUNSFIELD SURGERY,-0.811033,53.183702
485.56,LENSFIELD MEDICAL PRACTICE,0.124449,52.198365
619.3900000000001,CEDAR BROOK PRACTICE,-0.41413199999999994,51.534092
640.6900000000002,ROSE VILLA SURGERY,0.506616,51.566232
737.9299999999998,BOYATT WOOD SURGERY,-1.36001,50.977856
1058.42,RISING BROOK,-2.118782,52.787133
405.0299999999999,ST JAMES MEDICAL PRACTICE2,-2.097323,52.514234
551.34,LINGHOLME HEALTH CENTRE,-2.744752,53.457769
2272.87,PEEL HOUSE MEDICAL PRACTICE,-2.365995,53.75089200000001
1623.04,GRASMERE SURGERY,-2.511455,53.503236
4135.75,TELDOC,-2.435206,52.672614
1.34,GP EXTENDED ACCESS - HARROGATE,-1.529793,53.996354
1829.43,ST ANDREW'S MEDICAL PRACTICE,-1.598213,54.699634
1549.6899999999996,SPINNEY HILL MEDICAL CENTRE,-1.109212,52.637381
822.22,MARTLESHAM SURGERY,1.272068,52.061314
449.32,THE AVENUE SURGERY,-0.319031,51.518389
2507.5399999999995,ST.JAMES SURGERY,1.147433,51.787326
1348.5099999999995,SANDWICH MEDICAL PRACTICE,1.337364,51.274071
42.88,MODALITY ANN JONES FAMILY HEALTH CENTRE,-1.871333,52.462659
885.8700000000001,CENTRAL SURGERY,-2.74261,53.456686
370.56,DALTON TM,-2.643772,53.529393
30.43,WIRRAL HEART SUPPORT,-3.026531,53.380029
781.1700000000003,BALDERTON SURGERY,-0.7864679999999998,53.052881
1187.9399999999996,NORTH ROAD SUITE RAVENSTHORPE HEALTH CTR,-1.661589,53.677829
1087.64,CASTLE MEAD MEDICAL CENTRE,-1.367743,52.541052
959.32,RISE PARK SURGERY,-1.174951,53.011477
931.31,THE MEDICI MEDICAL PRACTICE,-0.418382,51.874494
481.64,ELLIS PRACTICE,-0.276552,51.563894
647.9500000000002,NEW ELTHAM AND BLACKFEN MEDICAL CENTRE,0.074199,51.434495
1372.73,THE GROVE MEDICAL CENTRE,-2.513702,50.953273
2495.01,THE HADLEIGH PRACTICE,-1.993525,50.761018
3110.900000000001,THREE CHEQUERS MEDICAL PRACTICE,-1.794625,51.071924
416.65,CORNERSTONE SURGERY,-2.724149,53.454211
286.76,HIGHER HEYS SURGERY,-2.394094,53.740865
1819.78,DELAMERE MEDICAL PRACTICE,-2.307365,53.450887
459.12,OAK TREE HEALTH CENTRE,-1.2409629999999998,51.614986
423.91,THE TRINITY MEDICAL PRACTICE,0.760305,51.684982
0.61,BECKENHAM BEACON URGENT CARE CENTRE,-0.033209,51.405232
9.9,NORWICH IMPROVED ACCESS HUB,1.319958,52.632405
12.43,BRAMLEY COMMUNITY CARE BEDS,-1.623032,53.80781999999999
1896.11,BRIDGE VIEW MEDICAL GROUP,-1.401824,54.919455
1190.8000000000004,CAYTHORPE & ANCASTER MEDICAL PRACTICE,-0.536327,52.981851
134.77,BRAYFORD SQUARE SURGERY,-0.050404,51.514375
813.01,ELMDENE SURGERY,0.263153,51.446098
414.9,THAMES AVE SURGERY,0.603057,51.36344
205.84000000000003,TRAFALGAR SURGERY,-0.074414,51.485672
545.91,THE ORCHARD PRACTICE,-0.303542,51.369116
294.4,UNIVERSITY HEALTH SERVICE,-1.395714,50.934099
718.79,LINDEN MEDICAL CENTRE,-0.737415,51.530813
598.43,ST SAVIOURS SURGERY,-2.308488,52.130324
902.5699999999997,WEST HEATH SURGERY,-1.96202,52.401797
230.46,MOOR PARK MEDICAL PRACTICE,-1.7218490000000002,53.797834
4.84,YORKSHIRE SMOKEFREE,-1.018306,53.503028
3038.4999999999995,THE CENTRAL SURGERY BARTON,-0.439445,53.684236
1331.91,MICKLEOVER MEDICAL CENTRE,-1.54633,52.907111
419.68,THE ELMS SURGERY,-0.404224,51.661642
1880.55,BUXTED MEDICAL CENTRE,0.132095,50.989406
1156.83,WEST END ROAD SURGERY,-1.359281,50.916702
1727.8200000000006,PINHOE SURGERY,-3.469622,50.737528
608.9200000000002,PRESCOTT SURGERY,-2.852689,52.784345
664.6600000000002,HEATON ROAD SURGERY,-1.579814,54.978269
493.03,HANCOCKS ME,-0.41296400000000005,53.782123
197.19000000000003,COLSTERWORTH SURGERY,-0.619356,52.806388
148.23,SOMERSET MEDICAL CENTRE,-0.371127,51.522244
1882.62,DOWNLANDS MEDICAL CENTRE,0.244085,50.822919
993.07,OTFORD MEDICAL PRACTICE,0.191446,51.31358
711.52,BURNEY STREET PMS,-0.009168,51.479034
2922.42,ROYAL CRESCENT SURGERY,-2.452679,50.616587
104.24,ABBEY MEDICAL CENTRE,-0.982406,51.453949
640.6099999999999,ST.BARTHOLOMEWS MEDICAL CENTRE,-1.232108,51.747668
1200.4399999999996,DR SN CLAY AND PARTNERS,-1.832005,52.528641
1371.63,WORDSLEY GREEN HEALTH CENTRE,-2.164692,52.480602
2.55,URGENT CARE,0.475497,50.850706
2469.42,SAFFRON HEALTH PARTNERSHIP,-0.264459,52.084232
668.1799999999998,GLADSTONE MEDICAL CENTRE,-0.24612,51.558731
572.3100000000002,ST MARTINS MEDICAL CENTRE,-0.424566,51.577646
434.3,ABRIDGE SURGERY,0.12458,51.653631
1044.91,WEAVER VALE PRACTICE,-2.696866,53.325561
1408.24,GLOVERS LANE SURGERY,-2.971961,53.488314
404.26,VILLAGE SURGERY,-0.255874,51.399503
212.09000000000003,DR KHALIQ,-1.799612,53.663276
473.93000000000006,NEWHOLME SURGERY,-2.74261,53.456686
836.8399999999998,LUNESDALE SURGERY,-2.602213,54.200573
1047.42,SPILSBY SURGERY,0.098963,53.173049
315.1500000000001,BRIDGEWAY PRACTICE,-1.147343,52.943574
1815.61,LITTLE WALTHAM & GT NOTLEY SURGERY,0.477622,51.787396
621.55,DR KUMAR & PARTNER STUDFALL MEDICAL CTR,-0.704816,52.495882
2071.83,CASTLE PLACE PRACTICE,-3.492865,50.908884
1105.9999999999998,NUNWELL SURGERY,-2.507177,52.187931
1975.18,THREE SPIRES MEDICAL PRACTICE,-5.055864,50.259982
4711.33,MYTTON OAK MEDICAL PRACT.,-2.797762,52.707667
668.53,DR VSR CHADALAVADA,-2.139143,53.0416
155.13000000000005,KEYNELL COVERT,-1.911857,52.408441
439.38000000000005,PHOENIX MEDICAL PRACTICE,0.48126899999999995,51.328805
1.7,INTERGRATED COMMUNITY PAEDIATRIC SERVICE,-2.384279,53.582354
180.51,KIRKHOLT MEDICAL PRACTICE,-2.162243,53.59832
357.6600000000001,DR AZIM & PARTNERS,-0.225729,51.579655
377.95,BHF HIGHGATE SURGERY,-1.378978,53.573614
1463.4800000000002,DOLPHIN HOUSE SURGERY,-0.029818,51.810791
219.06,THE CIVIC MEDICAL CENTRE,-0.337497,51.587155
756.36,CHANCERY LANE SURGERY,-1.521755,52.536173
543.2699999999999,NECHELLS PRACTICE,-1.876618,52.493743
1005.62,THE LIMES MEDICAL CENTRE,-1.974677,52.58065500000001
117.41,PRINGLE STREET SURGERY,-2.467594,53.742039
1544.3199999999995,BROADWAY MEDICAL CENTRE,-3.033843,53.912667
323.32,EASTGATE SURGERY,-0.519836,51.886145
586.1000000000001,PHOENIX PRIMARY CARE (SOUTH) LTD,-0.441597,51.88973
39.74000000000001,CWP (WEST) PHYSICAL HEALTH,-2.897884,53.2088
9.12,NSC BOSWORTH HUB,-1.7536330000000002,52.480569
800.8,THE NEW SPRINGWELLS PRACTICE,-0.340804,52.893623
1588.51,THE GARTH,-1.055444,54.532597
1059.79,THE GABLES MEDICAL GROUP,-1.564429,55.140811
1123.1,PRACTICE ONE,-0.201064,54.084715
1764.4499999999996,CHURCH STREET SURGERY,-1.583343,53.681523
763.9599999999998,HIGH STREET SURGERY  EPPING,0.113402,51.700812
347.8399999999999,HIGH STREET SURGERY,0.223589,51.561554
250.52,BERRYLANDS SURGERY,-0.299929,51.390825
246.56,PROSPECT HOUSE SURGERY,-0.705258,51.701136
906.68,WOODSETTON MEDICAL CENTRE,-2.10089,52.537994
1047.19,THE BORCHARDT MEDICAL CENTRE,-2.237795,53.434307
224.61,CHAPEL MEDICAL CENTRE,-2.418293,53.449094
1340.2,NEWLANDS MEDICAL CENTRE,-1.226035,54.571931
1839.49,SKERNE MEDICAL GROUP,-1.4488,54.654032
823.2999999999998,BACON LANE SURGERY,-0.275903,51.605078
2212.43,THE LIMES MEDICAL CENTRE,0.123958,51.706179
199.56,MITCHAM FAMILY PRACTICE,-0.167118,51.410109
1458.13,SPA MEDICAL CENTRE,-2.126012,51.366868
349.4800000000001,BOURNBROOK VARSITY MEDICAL CENTRE,-1.929903,52.445713
150.72,CAUSEWAY GREEN ROAD SURGERY,-2.014697,52.484564
1473.34,PATTERDALE LODGE MED CTRE,-2.64461,53.452446
682.6700000000002,CENTRAL MEDICAL CENTRE,-0.245977,52.587
1115.56,WILLOW BANK SURGERY,-2.102853,52.97847
6.68,BANES ENHANCED MEDICAL SERVICE (BEMS+),-2.372621,51.358169
875.51,GOLDENHILL MEDICAL CENTRE,-2.221385,53.076901
638.79,JIGGINS LANE MEDICAL CENTRE,-1.995411,52.436801
1.68,DARTMOUTH MEDICAL CENTRE,-2.005409,52.520435
79.44,PEEL PRECINCT SURGERY,-0.198814,51.534421
0.67,PCH WARD,-2.077775,52.114052
1.47,VC WEST LANCS HC-UCC,-2.871252,53.564616
898.5,NORTH PARK HEALTH CENTRE,-2.995994,53.458392
296.4100000000001,SHAP MEDICAL PRACTICE,-2.677931,54.52889
1063.5299999999997,THE GLEN MEDICAL GROUP,-1.52187,54.97385
1452.37,MILLVIEW MEDICAL CENTRE,-0.30904,52.981326
1.76,BRETTON MEDICAL PRACTICE,-0.281891,52.590431
879.42,THE HEALTH CENTRE PRACTICE,-0.020738999999999997,52.048757
425.7100000000001,BELGRAVIA SURGERY,-0.14856,51.495004
751.08,CHAPEL STREET SURGERY,0.051144,50.79327
894.13,MARTINS OAK SURGERY,0.483675,50.91716
410.23,THE GLEBE FAMILY PRACTICE,0.544473,51.383164
1228.67,KNOLL MEDICAL PRACTICE,0.101068,51.375411
232.52,CORDWALLIS ROAD SURGERY,-0.7240259999999998,51.528097
504.6,ST. MARY'S SURGERY,-2.479869,51.326082
102.04,THE SUMMITT PRACTICE,0.04536,51.539588
8.84,SELDOC HEALTHCARE,-0.283378,51.412517
234.42000000000004,PASLEY ROAD HEALTH CENTRE (TK KHONG),-1.146741,52.591287
191.08,HAROLD STREET MEDICAL CENTRE,-1.492871,53.393121
462.02000000000015,BRENTFIELD MEDICAL CENTRE,-0.260251,51.550588
567.5300000000002,DR NAVIN KUMAR,0.70187,51.544989
223.19,RUSTON STREET CLINIC,-0.027306,51.536264
565.6799999999998,HAMPTON HILL MEDICAL CENTRE,-0.354892,51.427508
5.83,ST PETER'S URGENT TREATMENT CENTRE,-0.52706,51.377832
730.9099999999999,THE OAKLAND MEDICAL CENTRE,-0.45129300000000006,51.546055
250.8,ABERFELDY PRACTICE,-0.004927,51.514483
680.66,BROCKBANK (PARK ROAD),-0.334596,51.423912
401.59,HOLLINSWOOD SURGERY,-2.437453,52.673936
289.8999999999999,VICTORIA ROAD MEDICAL CTR,-1.887197,52.501868
1167.0100000000004,ST JOHN'S MEDICAL CENTRE,-1.932532,52.626307
2268.69,THE CORNERSTONE PRACTICE,-2.4524,53.739201
197.58,PARK GRANGE MEDICAL CENTRE,-1.775929,53.789415
380.16,HETHERINGTON AT THE PAVILION,-0.116397,51.461633
1.21,PCEC,-2.227711,53.462436
287.92,CASTLETOWN MEDICAL CENTRE,-1.450848,54.913341
332.54,ALDBROUGH ST JOHN SURGERY,-1.684645,54.496518
732.11,BRANSTON & HEIGHINGTON FAMILY PRACTICE,-0.467988,53.195831
291.32000000000005,CLIFTON HAMPDEN SURGERY,-1.211451,51.658625
1882.6800000000005,SWANSCOMBE HEALTH CENTRE,0.28731,51.424657
479.24,FRITHWOOD SURGERY,-2.162379,51.729707
831.5899999999997,THE ISLAND SURGERY,0.591014,51.520226
1116.14,GATEWAY PRIMARY CARE,-1.352431,53.429997
198.03,ESSINGTON MEDICAL CENTRE,-2.056915,52.63194
942.58,STONELEIGH SURGERY,-2.770704,54.227277
348.36,BROWNEY HOUSE SURGERY,-1.670679,54.800313
692.76,HONLEY SURGERY,-1.791936,53.602386
953.97,GOSBERTON MEDICAL CENTRE,-0.159263,52.869915
481.86,MAPESBURY MEDICAL GROUP,-0.209473,51.551496
417.28,CHOLMLEY GARDENS SURGERY,-0.195423,51.552261
2071.09,HIGH GLADES MEDICAL CENTRE,0.551301,50.878354
1117.62,CHERRYMEAD SURGERY,-0.700228,51.608271
1659.29,HORFIELD HC,-2.576275,51.489998
564.44,WHITE HOUSE SURGERY,-1.705957,51.983554
883.8099999999998,CHURCH STRETTON MEDICAL CENTRE,-2.806169,52.537286
636.6700000000002,WARWICK ROAD SURGERY,-2.928541,54.893858
1493.79,WOODVILLE SURGERY,-1.5365030000000002,52.770685
454.33000000000015,GROOMBRIDGE AND HARTFIELD MED GRP,0.184416,51.113952
1108.34,BRANKSOMEWOOD H/CARE CTR,-0.8448069999999998,51.281888
455.2200000000001,WOODSIDE MEDICAL PRACTICE,-2.466175,52.637949
1614.77,BODEY MEDICAL CENTRE,-2.214798,53.440636
4.59,EPUT COMMUNITY CARDIOLOGY,0.12393,51.704295
25.66,SOUTH YORK HEART FAILURE NURSES,-1.082907,53.951837
2.04,AQP ANTICOAG RIDGACRE MEDICAL CENTRE,-1.9901099999999998,52.460912
8.97,EXTENDED HOURS SERVICE-ONE LIFE,-1.214164,54.682342
581.0500000000002,CRAMLINGTON MEDICAL GROUP,-1.591516,55.084481
2331.61,KINGSTON MEDICAL GROUP,-0.349365,53.756137
204.54,WESTFIELD MEDICAL CENTRE,-1.531703,53.817673
737.9199999999997,STUBLEY MEDICAL CENTRE,-1.488541,53.304986
296.8400000000001,CHICHELE ROAD SURGERY,-0.216241,51.55483
327.1599999999999,SHIRLAND ROAD MEDICAL CENTRE,-0.203904,51.5292
389.3299999999999,STEWKLEY ROAD SURGERY,-0.71666,51.898041
1603.1899999999994,NEW COURT SURGERY,-2.958059,51.345794
2501.4100000000008,COLERIDGE MEDICAL CENTRE,-3.2835660000000004,50.751704
888.8,YARDLEY WOOD HEALTH CENTRE,-1.859168,52.418648
708.6999999999998,SHEET STREET SURGERY,-0.605507,51.479648
1621.42,HEDENA HEALTH,-1.204547,51.76203
335.48,SELLY OAK HEALTH CENTRE,-1.939144,52.438251
2283.870000000001,PEELHOUSE MEDICAL PLAZA,-2.72256,53.372135
884.0699999999997,LANE ENDS SURGERY,-2.727014,53.770173
819.51,WHITTAKER LANE MED CENTRE,-2.268645,53.528488
1562.39,BIRTLEY MEDICAL GROUP,-1.576441,54.891881
708.5700000000002,APOLLO COURT MEDICAL CENTRE,-1.524816,53.542364
592.02,SUDBURY & ALPERTON MEDICAL CENTRE,-0.298046,51.536916
1420.7199999999998,THE CHESTERFIELD DRIVE PRACTICE,1.132012,52.07623
519.44,MONTPELIER SURGERY,-0.149079,50.827148
570.9899999999999,SELLINDGE SURGERY,1.002785,51.103536
1944.83,HARBOUR VIEW HEALTHCARE,-0.27437,50.833817
1353.14,WILSON PRACTICE,-0.966958,51.153736
1159.73,KINGSTEIGNTON MEDICAL PRACTICE,-3.597395,50.54898
1981.35,STIRCHLEY MEDICAL PRACTICE,-2.433777,52.655188
441.31,RED LION SURGERY,-2.030614,52.693241
743.3800000000001,HAZELDENE MEDICAL CENTRE,-0.275394,51.547592
505.15,CLOISTER ROAD SURGERY,-0.265589,51.521352
1018.77,MANOR PARK MEDICAL CENTRE,0.24261,50.819107
1209.23,LILLIPUT SURGERY,-1.954229,50.711523
1643.6699999999996,PENRYN SURGERY,-5.10336,50.167504
959.45,CROWN MEDICAL CENTRE,-3.080969,51.029111
945.0,GREASBY GROUP PRACTICE,-3.121417,53.377628
566.0999999999998,ROSEWORTH SURGERY,-1.61867,55.001366
3621.24,GREENGATES MEDICAL GROUP,-0.418494,53.844343
1459.3300000000004,LINCOLN HOUSE SURGERY,-0.469093,51.737355
433.94000000000005,DR DEVARAJA VC PRACTICE,0.44359,51.520015
336.04,FOUNTAYNE ROAD HEALTH CENTRE,-0.065145,51.56442
255.23,ARCHWAY SURGERY,-0.532167,51.72275
1150.5400000000004,RYE MEDICAL CENTRE,0.730363,50.961944
262.01000000000005,VASSALL MEDICAL CENTRE,-0.10851199999999998,51.477558
962.31,FARMHOUSE SURGERY,-1.7595,50.736437
2586.3099999999995,WESTONGROVE PARTNERSHIP,-0.74378,51.76588
718.86,MILBORNE PORT SURGERY,-2.471962,50.967502
509.89,PARADISE MEDICAL CENTRE,-1.494835,52.426778
486.82,WOODBANK SURGERY,-2.308802,53.60507
410.12,HIGHFIELD HEALTH,-1.395746,50.932777
1134.59,IBSTOCK HOUSE SURGERY,-1.401818,52.684869
1923.0200000000007,BARNBY GATE SURGERY,-0.8049699999999999,53.074931
1100.2299999999998,PRIORY FIELDS SURGERY,-0.179856,52.332272
564.58,DRS DE ROSA & WILLIAMS,-2.167857,52.569265
7.33,COMMUNITY CARDIOLOGY SERVICE,0.15356,51.455555
0.91,INTERMEDIATE CARE-GP SERVICE,-2.130253,53.548188
34.44,BASSETLAW HEALTH PARTNERSHIP,-0.950634,53.325451
542.5899999999999,DR RAOLU'S PRACTICE,-1.204348,53.423549
1978.24,EAST BARNET HEALTH CENTRE,-0.166424,51.646339
1649.69,OXTED HEALTH CENTRE,9.9e-05,51.257686
1264.47,THE WRYTHE GREEN SURGERY,-0.171312,51.371749
1350.8300000000004,TOPSHAM SURGERY,-3.462097,50.683825
775.33,BAMPTON SURGERY,-1.55034,51.729032
2406.73,PETROC GROUP PRACTICE,-4.943163,50.430739
1767.0899999999995,EAST QUAY MEDICAL CENTRE,-3.000471,51.135669
403.28,EASTMEAD AVENUE SURGERY,-0.36274,51.531443
219.59,KINCORA DOCTORS SURGERY,-0.412216,51.511666
484.06000000000006,HETHERINGTON GROUP PRACTICE,-0.12823,51.460932
1177.74,TUTBURY HEALTH CENTRE,-1.686361,52.858454
754.7700000000002,MEREPARK MEDICAL CENTRE,-2.300747,53.093285
371.14,DR SP TALPAHEWA,-0.260303,51.616115
513.52,BRANDON MEDICAL PRACTICE,0.6233,52.448489
1007.87,THE SURGERY CLIFTON ROAD,-1.737497,53.013356
756.9000000000003,ORCHARD SURGERY MELBOURN,0.020092,52.080651
1669.3100000000004,HIGH STREET SURGERY,1.756043,52.482123
1386.7799999999993,KING GEORGE SURGERY,-0.206096,51.907416
483.44,ST.PETERS SURGERY,-1.372792,50.897829
973.32,LEVENSHULME MEDICAL PRACTICE,-2.188524,53.446352
1509.5599999999995,DMC ST MARYS ISLAND SURGERY,0.538105,51.406776
2979.87,THORNABY & BARWICK MEDICAL GROUP,-1.292128,54.538149
964.6599999999997,ROWLANDS GILL MEDICAL CENTRE,-1.742896,54.91936
3169.360000000001,THE PARK MEDICAL PRACTICE,-1.432644,52.928801
1023.21,MERRIDALE MEDICAL CENTRE (RP TEW),-1.160752,52.620146
353.6600000000001,OVER SURGERY,0.012018,52.314809
1221.9200000000005,DR TUN & PARTNERS,-2.583571,53.532102
332.19,SOUTHOWRAM SURGERY,-1.831696,53.712293
1252.73,THE STANMORE MEDICAL CENTRE,-0.304021,51.60154
326.11,TOTTENHAM HEALTH CENTRE,-0.068474,51.604755
264.53000000000003,PARKSIDE MEDICAL CENTRE,-0.092642,51.475826
795.5699999999998,GRAND DRIVE SURGERY,-0.228811,51.402155
280.86,SOMERSET BRIDGE MEDICAL CENTRE,-2.995883,51.115105
1320.15,CORNISHWAY GROUP PRACTICE,-2.265017,53.379925
1332.4699999999998,BRADSHAW MEDICAL CENTRE,-2.688594,53.537889
201.23,SAVILE TOWN MEDICAL CTR.,-1.625804,53.68222900000001
630.0599999999998,THE ORCHARD SURGERY,-0.324352,50.828062
302.61000000000007,THE DANBY PRACTICE,-0.907874,54.468317
703.7500000000001,THE LAWSON PRACTICE,-0.079465,51.533775
333.5900000000001,FRANCIS ROAD MEDICAL CENTRE,-0.003831,51.561975
537.38,UNIVERSITY MEDICAL CENTRE,1.062127,51.296198
600.5200000000002,ST STEPHENS HOUSE SURGERY,-0.305726,51.31772
558.15,PARK VIEW HEALTH PARTNERSHIP,-0.137252,50.961825
1115.32,BYFIELD MEDICAL CENTRE,-1.242893,52.174071
508.06000000000006,SOHO ROAD PRIMARY CARE CENTRE,-1.934945,52.503094
829.14,LACHE HEALTH CENTRE,-2.914326,53.173615
220.92000000000004,WALNUT ST MED CTR (LEICESTER MED GROUP),-1.138855,52.624601
239.74,ETTINGSHALL MEDICAL CENTRE,-2.092879,52.570364
2.87,DONCASTER SOUTH ADULT CMHT,-1.146558,53.497488
1077.4,DARTFORD EAST HEALTH CENTRE,0.236914,51.440747
308.94,BOLINGBROKE MEDICAL CENTRE (THMP),-0.168282,51.45617
1205.8599999999994,THE BORDER PRACTICE,-0.740565,51.240995
1127.84,WHITELADIES MEDICAL GROUP,-2.612382,51.465097
1139.5100000000002,RIVERSIDE SURGERY,-3.006197,53.372004
1681.8199999999995,HT PRACTICE,-2.110496,53.478305
31.63,MEDICUS HEALTH PARTNERS-CURZON AVENUE,-0.036518,51.645435
117.23,CARDIAC SERVICE STOKE AND NORTH,-2.109085,52.810605
9.9,N&S COMMUNITY DERMATOLOGY CLINIC,-1.032629,53.141866
404.0199999999999,UPWELL STREET SURGERY,-1.434724,53.406424
815.19,PLOWRIGHT MEDICAL CENTRE,0.686691,52.655577
1051.9999999999998,BEECHWOOD SURGERY,0.292731,51.608567
626.7399999999998,THE NIGHTINGALE PRACTICE,-0.062434,51.558261
1286.87,BELVEDERE MEDICAL CENTRE,0.144376,51.482567
1574.34,ST.LAWRENCE SURGERY,-0.390026,50.823979
1239.35,ESPLANADE SURGERY,-1.158697,50.731943
571.2700000000002,GLASTONBURY HEALTH CENTRE,-2.712893,51.148733
2006.69,MAYFIELD SURGERY,-2.13456,52.982709
792.2500000000001,BRIDGE MEDICAL,-1.506726,55.038077
24.28,BCHC MEDICINES MANAGEMENT,-1.9537779999999998,52.398207
750.5999999999998,TASBURGH LODGE SURGERY,-0.21375,53.151242
1293.0200000000002,SOTHALL & BEIGHTON HEALTH CENTRES,-1.340221,53.337895
836.66,THE MEADS SURGERY,0.091624,50.969686
228.55,RAGSTONE ROAD SURGERY,-0.601832,51.503747
1025.84,WADEBRIDGE & CAMEL ESTUARY PRACTICE,-4.835729,50.514816
973.98,EVE HILL MEDICAL PRACTICE,-2.096805,52.512922
1452.9299999999994,WEST DERBY MEDICAL CENTRE,-2.895944,53.431273
202.43,DR. B. K. PRASHARA,-2.114816,52.456326
1021.6,ORMSKIRK HOUSE SURGERY,-2.74261,53.456686
1972.57,PENNINE MEDICAL CENTRE,-2.040966,53.515337
0.85,HEART FAILURE SERVICE,-2.629091,53.55774
2.01,THE FLOWERS HUB,-1.438061,53.418053
2546.0099999999993,ALNWICK MEDICAL GROUP,-1.6967470000000002,55.410086
3898.360000000001,BOROUGHBURY MEDICAL CENTRE,-0.245486,52.577858
1125.62,THE ROOKERY MEDICAL CENTRE,0.405573,52.245158
2.05,SJUH GPS IN A+E,-1.520359,53.806869
772.3700000000001,FIELDHEAD SURGERY,-1.854229,53.641358
1141.2999999999995,CROFTON AND SHARLSTON MED PRAC,-1.427042,53.656573
602.58,ST.PAUL'S WAY MEDICAL CTR,-0.024483,51.517862
1667.36,WYKE REGIS & LANEHOUSE MEDICAL PRACTICE,-2.475127,50.594634
1450.2399999999998,KINGSWOOD HEALTH CENTRE,-2.499974,51.462895
1286.3900000000006,THREE VILLAGES MEDICAL PRACTICE,-2.146398,52.465406
814.01,MELROSE SURGERY,-0.9598620000000002,51.451692
1267.08,ACLE MEDICAL PARTNERSHIP,1.548667,52.640969
1012.2899999999997,MARTONSIDE MEDICAL CENTRE,-1.220329,54.553175
661.0,ROCKLIFFE COURT SURGERY,-1.544074,54.483444
517.82,CHAPELFORD PRIMARY CARE CENTRE,-2.633066,53.39615799999999
613.1800000000002,THE SELE MEDICAL PRACTICE,-2.095702,54.970372
1508.0299999999993,MARKET WEIGHTON GROUP PRACTICE,-0.674786,53.864903
3614.39,HEALTH CARE FIRST PARTNERSHIP,-1.393615,53.736872
1612.7400000000007,BROOM LANE MEDICAL CENTRE,-1.332311,53.417383
163.83,THE KILLINGHOLME SURGERY,-0.260335,53.62990799999999
888.4,COMBERTON SURGERY,0.018614,52.189811
793.1899999999998,SHEPHALL HEALTH CENTRE,-0.167642,51.890799
268.31,WESTBOURNE GROVE MEDICAL CENTRE,-0.200361,51.514211
272.39,MILTON REGIS SURGERY,0.7321839999999998,51.349193
385.10999999999984,BURBAGE SURGERY,-1.669545,51.348496
541.94,THE CREST FAMILY PRACTICE,-2.596274,51.428746
167.18,WORTHEN MEDICAL PRACTICE,-3.000165,52.635224
387.84000000000015,KIRKDALE MEDICAL CENTRE,-2.973842,53.433523
304.65,FACCINI HOUSE SURGERY,-0.189379,51.389682
355.1,JRB HEALTHCARE BEECHDALE SURGERY,-1.198142,52.961504
1808.04,WOODLANDS FAMILY MEDICAL CENTRE,-1.321204,54.561215
1104.55,THE UPPINGHAM SURGERY,-0.723557,52.594972
699.84,THE THORPE BAY SURGERY,0.757986,51.534599
841.08,HUDSON (SEYMOUR HOUSE),-0.292773,51.462401
1659.94,WHADDON MEDICAL CENTRE,-0.7662759999999998,52.000308
236.52,BONEY HAY SURGERY,-1.926768,52.690328
125.32,GREENFIELD MEDICAL CENTRE,-1.855764,52.491684
564.4200000000002,THE SURGERY,-2.605295,53.024859
1002.89,MARPLE MEDICAL PRACTICE,-2.064954,53.39495
320.35,CLOVER CITY PRACTICE,-1.46659,53.38187
778.48,ASPATRIA MEDICAL GROUP,-3.337992,54.762123
677.1500000000002,WELLSPRING MEDICAL PRACT.,-1.564066,55.037289
211.18,FAMILY DOCTORS,-1.440964,53.798248
379.5100000000001,NORTH FULHAM SURGERY,-0.199224,51.486415
42.71999999999999,LAI CHUNG FONG QUEENS PARK HEALTH CENTRE,-0.205826,51.530911
1184.2599999999998,WHEATFIELD SURGERY,-0.495144,51.904445
947.98,LONG CATLIS ROAD SURGERY,0.595579,51.348325
491.49,MINET GREEN HEALTH PRACTICE,-0.105204,51.475715
730.5799999999998,NEW ADDINGTON GROUP PRACTICE,-0.018557,51.344382
1767.39,THE ARMADA FAMILY PRACTICE,-2.571861,51.413438
1124.05,LEEK HEALTH CENTRE,-2.019347,53.105691
988.17,CHASE MEADOW HEALTH CENTRE,-1.608604,52.268838
336.83,CASTLE STREET MEDICAL CENTRE,-1.293753,53.229627
3594.1,HOLT MEDICAL PRACTICE,1.116042,52.914476
499.13,UXENDON CRESCENT SURGERY,-0.292809,51.572063
237.3,STERNDALE SURGERY,-0.221441,51.498326
856.7400000000001,WESTERHAM PRACTICE,0.070437,51.266465
1121.1699999999996,STEYNING HEALTH CENTRE,-0.329972,50.890666
711.8599999999997,YOXALL,-1.7931740000000003,52.767984
0.21,LCW HOUNSLOW CCG OOH,-0.217218,51.522362
316.92,SCHOOLACRE ROAD SURGERY,-1.785797,52.497659
1577.0200000000002,WITTON MEDICAL CENTRE,-2.507553,53.740232
147.69,WALMERSLEY ROAD MEDICAL PRACTICE,-2.289525,53.599849
374.39,BEVAN HEALTHCARE CIC,-1.753352,53.795581
19.29,MERSEYCARE NHS TRUST,-2.826417,53.424035
1468.8,THE COUNTY PRACTICE,-1.069884,52.70073000000001
1133.4999999999998,ORCHARD SURGERY,0.944176,52.678309
1240.94,DR JK MARSDEN'S PRACTICE,-0.436528,51.894968
1166.3,WHITLEY HOUSE SURGERY,0.455723,51.726539
339.1500000000001,JOYDENS WOOD MEDICAL CENTRE,0.166397,51.42449
2726.26,TRAFALGAR MEDICAL GROUP PRACTICE,-1.092485,50.785331
835.1,EASTFIELD HOUSE SURGERY,-1.323251,51.395555
1632.9999999999998,TUDOR LODGE SURGERY,-2.975378,51.332396
857.31,PRAZE-AN-BEEBLE SURGERY,-5.309264,50.173753
1015.26,HALL GREEN SURGERY,-2.741349,53.540745
224.28,LATIMER HEALTH CENTRE,-0.049503,51.54659
910.2399999999997,WHITCHURCH SURGERY,-1.340372,51.230256
521.5100000000001,DR NEWMAN,-1.975441,50.719722
5.8100000000000005,PONTELAND RD WIC,-1.656804,54.991604
0.91,BURNLEY LOCALITY NMPS,-2.238948,53.791326
234.43,THE WHITSWOOD PRACTICE,-2.253502,53.455769
1525.2000000000005,BEESTON VILLAGE SURGERY,-1.569152,53.772415
424.35999999999984,BLURTON MEDICAL CENTRE,-2.156565,52.972002
1.93,HASTINGS AND ROTHER OOH,0.891514,51.129106
840.0599999999998,BEWICK ROAD SURGERY,-1.601653,54.956398
1173.64,KEIGHLEY ROAD SURGERY,-1.893907,53.754239
1032.5600000000004,MULBERRY STREET MEDICAL PRACTICE,-1.66397,53.794738
1061.0100000000002,CHATSWORTH ROAD MEDICAL CENTRE,-1.467337,53.231374
6.0600000000000005,HAVEN COURT,-1.428468,54.971208
991.8899999999999,BENTHAM ROAD HEALTH CENTRE,-2.50627,53.73058399999999
1626.4299999999994,DENMARK STREET SURGERY,-1.552252,54.538825
1070.24,PALLION FAMILY PRACTICE,-1.414195,54.908604
708.5,UEA MEDICAL CENTRE,1.241391,52.622369
204.23,THE STREATFIELD MEDICAL CENTRE,-0.30083,51.595343
304.19000000000005,THE CHELSEA PRACTICE,-0.166915,51.486814
849.17,RYDAL,0.020102,51.608432
1151.65,GROSVENOR & ST JAMES MEDICAL CENTRE,0.264349,51.137424
251.12,THE THREE ZERO SIX MEDICAL CENTRE,-0.076403,51.450741
700.1800000000002,NEW OTTERSHAW SURGERY,-0.526005,51.361938
1350.9,RIDGEWAY VIEW FAMILY PRACTICE,-1.7915709999999998,51.524175
958.5,THE HALL PRACTICE,-0.561016,51.606986
287.76,HARTLAND SURGERY,-4.482549,50.992721
1537.2500000000007,RED BANK GROUP PRACTICE,-2.323706,53.560143
707.9600000000002,GRAVESEND MEDICAL CENTRE,0.369986,51.443932
364.16,DR WICKREMESINGHE SSG,-0.123521,51.469491
251.18,LEARNING DISABILITIES SERVICE,-1.904396,52.412409
943.6,BEECH HOUSE SURGERY,-1.465892,54.010836
1701.85,MANOR PARK SURGERY,-1.628914,53.814076
1550.42,PARKSIDE SURGERY,-1.391868,53.097732
716.4,BURWELL SURGERY,0.331841,52.273327
347.51,WEST LONDON MEDICAL CENTRE,-0.454699,51.525731
1175.01,ADELAIDE MEDICAL CENTRE,-1.475274,51.208539
284.49999999999994,TUDOR PRACTICE STOCKLAND GREEN,-1.857329,52.52388199999999
536.47,WALTON SURGERY,1.335453,51.973564
461.70000000000016,PARKGATE SURGERY,-1.548606,54.523273
195.04,POLLARD ROW SURGERY,-0.064328,51.528266
12.62,RUSHCLIFFE URGENT CARE SERVICE,-1.100495,52.924252
2.42,PML NEIGHBOURHOOD HUB (BANBURY),-1.349027,52.057771
424.41,ULVERSTON COMMUNITY HEALTH CENTRE,-3.097833,54.198882
1503.2300000000002,BISHOPS WALTHAM SURGERY,-1.212149,50.95528
1400.2499999999998,LOCKWOOD GP SURGERY,-2.989833,53.850947
286.88,THE ENTERPRISE PRACTICE,-0.320613,51.601113
701.9499999999998,ODDFELLOWS HALL & ST CLEMENTS,0.327906,51.480703
278.57,CHAUCER SURGERY,-1.45237,52.515151
633.1900000000002,THE ENDEAVOUR PRACTICE,-1.235397,54.575047
299.8900000000001,MAYFAIR MEDICAL CENTRE,-0.150172,51.513536
1008.2,FOWEY RIVER PRACTICE,-4.635394,50.337915
1488.8200000000004,HOLTS HEALTH CENTRE,-2.406966,51.931555
1071.21,CUMBERLAND HOUSE,-2.145844,52.901549
400.97,DR A GUPTA BENIM MEDICAL CENTRE,-2.947804,53.419395
1902.66,RIVERSIDE MEDICAL CENTRE,-2.672299,53.748112
296.61,LITTLETOWN FAMILY MED PRACT,-2.134298,53.529137
370.39,CROWN WOOD MEDICAL CENTRE,-0.736934,51.395919
7.91,CITY REACH HEALTH SERVICES,1.288137,52.633042
7.3599999999999985,PELC REDBRIDGE OOH,0.066648,51.55684
16.33,SOUTH DOC VIRTUAL SERVICES,-1.96202,52.401797
581.0300000000002,GREENWOOD SURGERY,0.605168,51.653143
1690.14,SKELMANTHORPE FAMILY DOCTORS,-1.650686,53.591604
423.99000000000007,PHOENIX PRIMARY CARE (SOUTH) LTD,-0.435422,51.918016
206.96,CASSIDY ROAD MEDICAL CENTRE,-0.199015,51.479154
798.0799999999998,ROWHEDGE SURGERY,0.945058,51.85767
511.50999999999993,THE CHESSER SURGERY,-0.177303,51.374927
922.95,BUGBROOKE MEDICAL PRACTICE,-1.005426,52.211409
611.43,TEIGN ESTUARY MEDICAL GROUP,-3.496462,50.5456
728.65,LUSON,-3.229566,50.977398
249.19,HEDNESFORD MEDICAL PRACTICE,-2.000697,52.71233
375.36,ROTTON PARK MEDICAL CENTRE,-1.947079,52.482162
926.87,NEWTOWN SURGERY,-2.735705,53.362158
1825.86,WINGATE MEDICAL CENTRE,-2.874647,53.488385
489.07,EGTON SURGERY,-0.7552379999999999,54.445555
248.06,THE PRACTICE-SAYEED,-1.106589,52.63081700000001
1429.19,TRAMWAYS AND MIDDLEWOOD MEDICAL CENTRES,-1.515268,53.418958
1490.1,TULASI MEDICAL CENTRE,0.12448900000000002,51.561005
539.49,SUTTON VALENCE GROUP PRACTICE,0.59403,51.211195
1028.3799999999997,THE STAUNTON SURGERY,-0.978019,50.851067
1247.4800000000002,BLUNDELLSANDS SURGERY,-3.041273,53.484452
357.38,SLAG LANE MC,-2.575634,53.47856899999999
23.1,PRIMARY HEALTHCARE DARLINGTON,-1.561958,54.528141
738.9599999999998,GREAT WITLEY SURGERY,-2.361004,52.291152
832.94,MADELEY PRACTICE,-2.345126,52.999856
1644.2599999999993,QUEENSWAY MEDICAL CENTRE,-2.995384,53.846569
1390.9599999999996,DR KK CHAN & PARTNERS,-2.489022,53.524185
332.1499999999999,CITY ROAD MEDICAL CENTRE,-0.091116,51.527895
453.48,BOTOLPH BRIDGE COMMUNITY HEALTH CENTRE,-0.261557,52.562595
1.21,SOUTH CHESHIRE & VALE ROYAL PCAH,-2.531272,53.1909
712.3099999999998,GUTTERIDGE MEDICAL CENTRE,-2.691248,53.769881
710.87,ST MARY'S MEDICAL CENTRE,-2.108554,53.543625
10.28,BEDSER HUB,-0.556304,51.315132
121.49,WRAYSDALE HOUSE SURGERY,-3.076077,54.367247
1720.96,SAVILLE MEDICAL GROUP,-1.609598,54.976095
859.2300000000001,COOK BF,-0.357512,53.780969
728.9100000000003,ADELAIDE MEDICAL CENTRE,-0.161257,51.543548
237.5,HOLLINGTON SURGERY,0.872487,51.151423
424.46,HARTLAND WAY SURGERY,-0.045782,51.374372
467.98,COLVILLE HEALTH CENTRE,-0.206231,51.515837
502.59,THE KINGS FAMILY PRACTICE,0.534548,51.377821
788.27,FOUNTAIN PRACTICE,-0.252307,51.350378
992.5499999999998,NUFFIELD HEALTH CENTRE,-1.486793,51.786441
272.06999999999994,240 WEXHAM ROAD,-0.57838,51.516902
1294.3100000000004,THISTLEMOOR MEDICAL CENTRE,-0.254566,52.595274
467.25000000000006,CANTERBURY HEALTH CENTRE,1.082981,51.274249
1.12,BANBURY HEALTH CENTRE,-1.334014,52.062032
376.62,SOHO HEALTH CENTRE,-1.934945,52.503094
2067.169999999999,HOLLYNS HEALTH & WELLBEING - CLAYTON,-1.81454,53.779166
853.17,BRIDGE STREET MEDICAL PRACTICE,-1.20716,52.774841
613.6600000000002,PRIORS FIELD SURGERY,0.124169,52.388951
1372.11,MILLWAY MEDICAL PRACTICE,-0.24359099999999997,51.614985
8.47,MOULSHAM LODGE SURGERY,0.475137,51.716565
321.31999999999994,YORK ROAD SURGERY,0.065859,51.559165
968.5199999999996,ST.GEORGE'S SURGERY,-2.0815,51.906706
1.34,OLDHAM URGENT TREATMENT GTD HEALTHCARE,-2.121831,53.553248
387.5,CROPREDY SURGERY,-1.320027,52.116731
540.22,BIRCHWOOD MEDICAL PRACTICE,-2.547938,51.446246
213.32,WEST PARK SURGERY,-2.141256,52.587783
297.99,UPTON ROCKS PRIMARY CARE,-2.754371,53.373367
852.5299999999999,WELLSBOURNE HEALTHCARE CIC,-0.107386,50.825445
279.21,P A PATEL SURGERY,0.582273,51.56978
549.32,CLINTON ROAD SURGERY,-5.224966,50.23093
120.38,BLOOMSBURY HEALTH CENTRE,-1.876618,52.493743
993.4199999999998,HOUGHTON MEDICAL GROUP ,-1.469175,54.842322
593.6099999999999,LUNDWOOD MEDICAL CENTRE PMS PRACTICE,-1.438538,53.557711
1389.81,BALLARDS WALK SURGERY,0.441841,51.573232
386.63,THE HALFWAY SURGERY,0.524157,51.380429
608.5499999999996,ELIZABETH HOUSE MEDICAL PRACTICE,-0.050005,51.308093
200.86,SARAJLIC (STAINES ROAD),-0.357923,51.439672
2983.14,THE DOWNEND HEALTH GROUP,-2.505301,51.485109
304.69,THE SINGH MEDICAL PRACTICE,-2.213622,53.512042
17.439999999999998,STROKE PATHWAY AND REHABILITATION CENTRE,-1.461102,53.37116700000001
1568.4199999999996,BLACKBURN RD.MEDICAL CTR.,-1.664718,53.731348
947.19,COMMUNITY HEALTH CENTRE (ZS OSAMA),-1.113421,52.632387
1424.8200000000004,TRAMWAYS MEDICAL CENTRE (O'CONNELL),-1.503023,53.402044
2287.11,SHEFFORD HEALTH CENTRE,-0.321643,52.034788
528.3399999999999,THE FRYENT WAY SURGERY,-0.280565,51.582963
527.0,BELMONT MEDICAL CENTRE,-0.478036,51.548264
861.5600000000002,BEXLEY GROUP PRACTICE,0.10965599999999999,51.465832
370.09,THE MOORINGS MEDICAL PRACTICE,-0.095892,51.322229
1447.1299999999994,BLACKTHORN HEALTH CENTRE,-1.327194,50.876037
1021.5699999999997,ELM HAYES SURGERY,-2.492756,51.300546
999.5100000000001,THE DOVE MEDICAL PRACTICE,-1.864605,52.535155
1228.6900000000005,WARLEY MEDICAL CENTRE,-2.006757,52.468122
494.57000000000005,OLIVE MEDICAL CENTRE,-2.484193,53.752309
193.49000000000004,SOMERS TOWN MEDICAL CENTRE,-0.130607,51.529916
433.4,LAUREL BANK SURGERY,-1.587333,53.816942
630.5299999999999,HEALTH CARE COMPLEX  KIRKBY,-1.244634,53.100062
461.8,THE AZAD PRACTICE,0.044868,51.531234
1.02,BRIGHTON STATION WALK-IN,-0.141323,50.827937
1655.2399999999998,COQUET MEDICAL GROUP,-1.580504,55.332599
606.89,ALLERTON MEDICAL CENTRE,-1.533879,53.826921
469.9800000000001,SOLE BAY H/C,1.6664740000000002,52.336325
367.49,WATERSIDE MEDICAL CENTRE,-0.363984,51.502165
577.8100000000002,MELBOURNE HOUSE SURGERY,0.451756,51.749214
518.72,AMPTHILL PRACTICE,-0.137293,51.5346
448.19999999999993,THE WILLOWS PRACTICE,0.104416,51.60776
1584.3399999999995,HIGHPARKS MEDICAL PRACTICE,0.496762,51.434213
690.6799999999998,CRAWLEY DOWN HEALTH CENTRE,-0.07762099999999998,51.122557
1323.2900000000004,COTSWOLD MEDICAL PRACTICE,-1.75678,51.886317
1520.5700000000006,BEDFORD STREET SURGERY,-0.729782,51.995784
