total_cost,name,longitude,latitude
108380.45,COLVILLE HEALTH CENTRE,-0.206231,51.515837
131829.93,RICHMOND MEDICAL GROUP,-0.267239,51.465848
87.31,HEALTH VISITORS STOKE,-2.109085,52.810605
63814.0899999999,ARCHWAY MEDICAL CENTRE,-0.126124,51.562541
51.1,CPFT SPECIALIST SERVICE CAMBS CITY,-0.077691,52.223169
43917.96,ATHENA MEDICAL CENTRE,-0.053257,51.554943
207382.81,LAKE ROAD PRACTICE,-1.078356,50.804825
149044.14,ROUNDWELL MEDICAL CENTRE,1.203795,52.648844
13.23,EAST BIRMINGHAM LCN FLEX PILOT,-1.817518,52.478024
286820.65,ST.JAMES SURGERY,1.147433,51.787326
132187.6,THE MAYFLOWER MEDICAL PRACTICE,-1.01945,53.431872
74540.83,HYLTON MEDICAL GROUP,-1.414195,54.908604
184447,EDENFIELD ROAD SURGERY,-2.188671,53.622297
53855.81,THE EXMOOR SURGERY,-0.217218,51.522362
208050.79,CLEVEDON MEDICAL CENTRE,-2.84572,51.437228
103563.15,ST ALBANS SURGERY,0.133341,51.537112
843.95,NDUC NORTH TYNESIDE OOH,-1.58819,55.01932
9.4,HIV COMMUNITY SERVICE,-2.945005,53.395651
52897.54,COLLINGWOOD FAMILY PRACTICE,-1.903405,52.55667
121.31,PETERSFIELD GP EXTENDED ACCESS HUB,-0.942399,51.003885
115333.55,POPLAR HOUSE SURGERY,-3.03076,53.754721
695.85,END OF LIFE SERVICES,-0.602817,51.675087
136082.64,MARTON MEDICAL PRACTICE,-3.034524,53.812843
123334.45,OAKRIDGE PARK MEDICAL CENTRE,-0.777853,52.068655
36423.91,THE TUDOR HOUSE MEDICAL CENTRE,-0.266689,51.564495
109563.46,GRANGE STREET SURGERY,-0.335878,51.757298
161008.49,THE PARK SURGERY,1.729276,52.606218
153146.73,BIDDULPH VALLEY SURGERY,-2.178498,53.116111
38100.21,THE BALAJI SURGERY  THE SPARKBROOK CHC,-1.871333,52.462659
59227.95,HARLEY GROVE MEDICAL CTR.,-0.027752,51.527964
85869.6000000001,STREATFIELD HEALTH CENTRE,-0.30812,51.593812
117225.8,THE LIMES SURGERY MEDICAL CENTRE,-2.114052,52.456884
69837.3000000001,STAVERTON SURGERY,-0.22584,51.544182
91586.7700000001,SPRINGWELL MEDICAL GROUP,-1.422181,54.890239
89638.3800000001,DR WS RIDDELL'S PRACTICE,-1.223723,53.260141
3740.42,SMS COMMUNITY DERMATOLOGY CLINIC,-1.398499,50.913503
100420.62,VIOLET LANE MEDICAL PRACTICE,-0.107972,51.360366
112478.6,PARKSIDE GROUP PRACTICE,-0.098549,51.350645
91461.1400000001,BEDFORD HILL FAMILY PRACTICE,-0.149067,51.44085
90002.3900000001,KINGS MEDICAL CENTRE,-1.216402,54.571717
147735.38,SILVERDALE PRACTICE,-0.121708,50.952843
170738.91,PENNY'S HILL PRACTICE,-1.894499,50.801788
95236.0600000001,APPLEBY SURGERY,-1.456596,55.011193
11.59,COMMUNITY TEAM BODMIN,-4.72264,50.472848
89331.1599999998,ASHWELL MEDICAL CENTRE,-1.778612,53.803786
13.6,CONNECT HEALTH WOLVERHAMPTON MSK,-1.584082,55.018702
14660.12,BARTON SURGERY,-4.088247,50.359085
85742.54,AVON VALLEY PRACTICE,-1.812104,51.294105
93.54,ST RAPHAEL'S HOSP (MERTON),-0.220816,51.37886
246673.56,THE ARMADA FAMILY PRACTICE,-2.571861,51.413438
119175.21,WOODVIEW MEDICAL CENTRE,-0.841889,52.268682
121982.21,PRINCES GARDENS SURGERY,-0.766458,51.250407
1751.86,COMMUNITY NURSING,-2.372621,51.358169
211332.61,WELLFIELD HEALTH CENTRE,-2.147479,53.606581
75273.8499999999,BRAITHWAITE RD SURGERY,-2.574985,53.477412
106293.25,SEDLESCOMBE & WESTFIELD SURGERIES,0.534725,50.934129
3258.58,PDS MEDICAL OOH,-3.023363,53.797158
84070.0400000001,RIVERSIDE SURGERY,0.180773,51.479567
187379.26,RIDGEWAY VIEW FAMILY PRACTICE,-1.791571,51.524175
184557.75,SCHOPWICK SURGERY,-0.299293,51.645362
1850.99,URGENT CARE CENTRE HRCH,-0.324434,51.473648
13.06,COMMUNITY GYNAECOLOGY CLINICS,-0.173569,51.516969
788.71,WORTHING MIAMI GP ACCESS HUB,-0.390026,50.823979
83082.38,THE WOOTTONS SURGERY,0.437136,52.790343
35553.63,THE WILLOWS MEDICAL PRACTICE,-2.309137,53.485461
69762.1899999999,STRATFORD VILLAGE SURGERY,0.006461,51.542096
10.01,BRADFORD GPWSI MSK SERVICE,-1.779859,53.78091
79483.19,MIRFIELD SURGERY,-1.776956,52.469072
78426.8400000001,COMMONWEALTH HEALTH CENTRE,0.36308,51.463166
68166.64,HENDON WAY SURGERY,-0.241873,51.579182
108914.74,JUBILEE HEALTHCARE,-1.518884,52.403423
162086.21,THE ELMS MEDICAL CENTRE,0.557729,51.4201
3.27,HAYWOOD HOSPITAL INPATIENT,-2.191413,53.056944
8.51,SUFFOLK FOOT SURGERY CENTRE,1.196861,52.052722
50060.0399999999,WIGMORE MEDICAL CENTRE,0.588765,51.352272
33668.7,BARNSLEY DRUG & ALCOHOL SERVICE,-1.477568,53.549879
150743.49,VICTORIA ROAD SURGERY,1.716498,52.471024
6475.47,INTEGRATED CARE 24 LTD (CWSX OOH),0.891514,51.129106
69968.09,CHURCH HILL SURGERY,1.229008,52.428527
73.91,BS CLINIC,-1.361645,52.530096
122344.36,E HARLING & KENNINGHALL MEDICAL PRACTICE,0.932279,52.43909
164256.93,WATLING MEDICAL CENTRE,-0.262021,51.603291
163.22,SUSSEX BEACON,-0.112934,50.838597
33424.51,OXFORD ROAD MEDICAL PRACTICE,-1.603365,54.699579
15448.21,PORTSMOUTH HUB,-1.088774,50.790159
24288.89,DR SURYANI,-2.070174,52.552984
410905.49,CARN TO COAST HEALTH CENTRES,-5.268154,50.226222
109448.68,OLD HARLOW HEALTH CENTRE,0.134039,51.784038
28071.59,LYMPHOEDEMA SERVICE FOR SANDWELL CCG,-1.953778,52.398207
209303.27,NORTHAM SURGERY,-4.215465,51.038082
191.55,BRENT & HARROW SAFE HAVEN UNIT,-0.19422,51.595001
46801.02,KIRKDALE MEDICAL CENTRE,-2.973842,53.433523
227305.91,WEAVERS MEDICAL,-0.733538,52.401531
171278.31,LITTLEWICK MEDICAL CENTRE,-1.304838,52.966452
150753.35,ST JAMES' MEDICAL CENTRE,-2.289474,53.708959
87685.5300000001,REVEL SURGERY,-1.361421,52.41228
93.65,HMP DARTMOOR,-3.997529,50.549223
39442.36,RUDGWICK MEDICAL CENTRE,-0.450643,51.090073
108862.59,COACHMANS MEDICAL PRACTICE,-0.203875,51.096335
145774.05,BISHOPS CLOSE MEDICAL PRACTICE,-1.599142,54.699817
59342.78,DR YADAVA N PRACTICE,0.334586,51.476703
98119.5200000001,LONG CLAWSON MEDICAL PRACTICE,-0.923909,52.839215
129961.5,ABBEY MEDICAL PRACTICE,-1.951015,52.091043
1321.4,COASTAL HEALTH CARE WOUND CARE FLEETWOOD,-3.010416,53.920956
2233.56,COMMUNITY DERMATOLOGY SERVICE,-2.033839,52.472088
78493.3000000001,REDBURN PARK MEDICAL CENTRE,-1.474775,55.00092
18.75,SEFTON 0-19 SERVICE,-2.606862,53.429516
65894.6,THE DENSHAM SURGERY,-1.318986,54.561625
41650.48,ROSERTON STREET SURGERY,-0.010049,51.498482
107856.64,DR FIRTH AND PARTNERS,-0.608263,51.713308
46478.63,ENFIELD COMMUNITY SERVICES,-0.084383,51.662127
252150.15,QUEENSWAY  MEDICAL CENTRE,0.714012,51.541786
23.27,GLOUCESTERSHIRE CARE SERVICES NHS TRUST,-2.176389,51.847073
52762.33,BRUCE GROVE PRIMARY HEALTH CARE CTR,-0.070141,51.592004
120190.97,KEATS GROVE SURGERY,-2.099546,52.614561
58718.88,CRICK MEDICAL PRACTICE,-1.135861,52.343212
26236.26,SILTON SURGERY,-2.315694,51.074742
75367.5699999999,FISHERGATE HILL SURGERY,-2.714363,53.754455
2252.85,WWL NURSES,-2.629091,53.55774
145797.52,APPLETREE MEDICAL PRACTICE,-1.486919,52.985104
222397.15,SOUTH LEWISHAM GROUP PRACTICE,-0.013043,51.430269
13.15,EYE 2 EYE OPTICIANS,0.497081,51.286118
21824.38,NAYAR JK,-0.368366,53.768793
36934.18,SPEKE HC - DR SINGH & DR BICHA,-2.838793,53.340911
5.91,WALDRON - HURLEY UNREGISTERED PRACT WIC,-0.031433,51.476334
14157.6,BRADFORD STUDENT HEALTH SERVICE,-1.768359,53.785323
441039.299999999,STANMORE MEDICAL GROUP,-0.204612,51.913274
38261.41,HARTLAND SURGERY,-4.482549,50.992721
55095.64,KIRPAL MEDICAL PRACTICE,-1.934945,52.503094
5507.16000000001,RICHMOND GP ALLIANCE,-0.313083,51.415592
192404.6,FARNHAM DENE MEDICAL PRACTICE,-0.777405,51.200549
26494.69,THE ADDERLANE SURGERY,-1.845745,54.962605
90468.38,DR BAKER & PARTNERS,0.548167,51.570733
115965.02,THE PANTON PRACTICE,-1.862595,50.72093
212803.76,CLEVELEYS GROUP PRACTICE,-3.042545,53.875111
6458.38,WDP NORTHWICH,-2.503199,53.258978
39211.92,BRAMLEY AVENUE SURGERY,-0.141707,51.323235
111155.15,THE WEARDALE PRACTICE,-2.002656,54.746005
100417.73,LEA ROAD MEDICAL PRACTICE,-2.140864,52.575971
44021.22,THE ROBINS SURGERY  HAROLD HILL HEALTH C,0.224895,51.606266
53247.94,THE CEDAR PRACTICE,-0.093757,51.568531
33849.26,BOLEYN ROAD PRACTICE,0.031124,51.538882
246937.52,DMC ST MARYS ISLAND SURGERY,0.538105,51.406776
277689.31,TAMAR VALLEY HEALTH,-4.320073,50.503476
76533.9,THE ROEHAMPTON SURGERY,-0.242431,51.451154
79794.6100000001,ROYAL CRESCENT,-2.078966,51.900098
11.86,NORTHERN HEALTH GPPO HUB 4,-2.19447,53.47569
62.97,COMMUNITY PAEDIATRICIANS-SOUTHWARK,-0.081097,51.474092
88752.2700000001,CHURCHWOOD MEDICAL PRACTICE,0.539934,50.878228
64726.07,AKSYR MEDICAL PRACTICE,-0.263604,51.542472
72202.69,NEWNHAM WALK SURGERY,0.110503,52.199281
146090.34,MARKET SURGERY,1.253177,52.791348
105587.48,THE MEDICAL CENTRE BUNTINGFORD,-0.02183,51.949019
147041.89,PARK LANE SURGERY,-0.021245,51.746514
56085.55,COVENT GARDEN MEDICAL CENTRE,-0.123689,51.515564
76.85,DIABETES CLINIC(NORTH),-2.486748,53.750552
136.49,NEAS NORTH TYNESIDE CCG,-1.712365,54.969713
30421.26,WINDSOR MEDICAL CENTRE,-1.622157,53.693875
91578.4200000002,THE VILLAGE MEDICAL CENTRE,-0.647436,51.51295
90601.9900000002,WHITBURN SURGERY,-1.364667,54.952795
231102.67,ABBEY SURGERY,-4.150401,50.546904
7945.35,URGENT CARE CENTRE (NELFT),0.002638,51.578831
144534.01,HAMPSTEAD GROUP PRACTICE,-0.163076,51.553171
3923.59,CITY REACH HEALTH SERVICES,1.288137,52.633042
13206.62,EAST LANCS MEDICAL SERVICE OOH,-2.442698,53.747769
110855.14,NEW FOREST MEDICAL GROUP,-1.576665,50.81471
84741.9,DISTINGTON SURGERY,-3.541351,54.595305
242006.67,ROSEDALE SURGERY,1.705996,52.457187
71583.6600000001,DRS RAJCHOLAN & GEORGE,-2.057836,52.613672
47630.91,GREEN LANE  GOODMAYES MEDICAL PRACTICE,0.113559,51.563316
132828.96,NORTHBROOK HEALTH CENTRE,-1.821273,52.419657
124556.38,GORTON MEDICAL CENTRE,-2.171985,53.463168
55485.5099999999,YEADING MEDICAL CENTRE,-0.397019,51.533634
67501.27,BEESTON VILLAGE SURGERY,-1.569152,53.772415
33652.01,MATLOCK ROAD SURGERY,-0.157915,50.843638
4526.13,CBS OOH,-1.233579,53.134573
122348.04,WATERFRONT AND SOLENT SURGERY,-1.403379,50.870013
35640.91,GARSTON FAMILY HEALTH CENTRE,-2.89683,53.353909
55502.82,NORTHERN MOOR MEDICAL PRACTICE,-2.285109,53.408049
122575.99,EMERSONS GREEN MEDICAL CENTRE,-2.477023,51.492762
158166.76,THE GREEN HOUSE SURGERY,-1.068807,54.599299
53703.93,BATTERSEA RISE GROUP PRACTICE,-0.163474,51.460833
513.35,RESPIRATORY CLINIC,-2.095555,52.599722
281450.96,DRAYTON MEDICAL PRACTICE,1.226086,52.679249
23433.73,HAVERFIELD SURGERY,-0.449803,51.711933
27414.13,CRI ATLANTIC HOUSE,-2.115194,52.462489
69097.27,GLOUCESTER HEALTH ACCESS CENTRE,-2.239997,51.862659
936.3,WOKING COMMUNITY HOSPITAL WIC,-0.556304,51.315132
225.23,NL EXTENDED ACCESS,-0.647232,53.568261
250159.09,ST STEPHENS GATE MEDICAL PARTNERSHIP,1.286835,52.623967
179922.49,MARKET CROSS SURGERY,0.510146,52.343506
239276.03,STOCKPORT MEDICAL GROUP,-2.177788,53.402873
104207.14,EMPINGHAM MEDICAL CENTRE,-0.593784,52.667718
78520.82,FOSSE MEDICAL CENTRE (GK SHARMA),-1.152153,52.636707
99761.13,FARROW MEDICAL CENTRE,-1.74312,53.802511
241744.76,THE HAYMARKET HEALTH CTR,-2.211781,53.060343
26376,CHARLOTTE STREET SURGERY,-2.424635,53.592518
2078.33,BROMLEY HEALTHCARE-CROYDON DIABETES,-0.064573,51.342409
105739.89,SHERBOURNE MEDICAL CENTRE,-1.532618,52.29289
108062.67,CHURCH LANGLEY MEDICAL PRACTICE,0.132734,51.767477
57982.65,ELGIN CLINIC,-0.198468,51.524818
200657.07,COWES MEDICAL CENTRE,-1.302115,50.75145
131217.17,THE BRIDGE GROUP PRACTICE,-0.375759,53.787555
25820.89,DUDLEY URGENT CARE CENTRE OOH,-2.118518,52.502944
114879.61,PADDOCK AND LONGWOOD FAMILY PRACTICE,-1.80546,53.642119
150086.16,DYKES HALL MEDICAL CENTRE,-1.506024,53.40514
52241.06,ALBION STREET SURGERY,-0.133965,50.827627
402.21,RIPON OOH,-1.527195,54.135436
105243.65,WIVENHOE SURGERY,0.961234,51.856059
108003.15,BRIGSTOCK & SOUTH NORWOOD PARTNERSHIP,-0.109304,51.395046
609.01,IPU18-21 SOUTH WARKS-STRATFORD,-1.713072,52.194837
31999.31,BROOKFIELD PARK SURGERY,-0.142656,51.563724
147184.56,ALBION PLACE MEDICAL PRACTICE,0.529542,51.274206
11.18,OCTAGON SAS,-0.103578,52.622001
56260.7800000001,BROADMEAD MEDICAL CENTRE,-2.58948,51.457392
1890.85,PGPA IMPROVED ACCESS CENTRAL,-1.892899,53.721064
31288.37,DR SJC CLAY'S PRACTICE,-1.216618,52.72642
90491.7,WEOBLEY & STAUNTON ON WYE SURGERIES,-2.87187,52.159258
4505.29,ST ANDREW'S HOUSE,-1.463927,52.913241
75283.37,THORNTON & VALLEY PARK SURGERY,-0.120709,51.388871
138684.51,LITTLE LONDON SURGERY,-1.979284,52.574984
63929.7799999999,MULBERRY HOUSE SURGERY,-1.402391,50.931652
186267.7,BEDLINGTONSHIRE MED.GROUP,-1.598682,55.1322
107432.15,MILLVIEW SURGERY,-1.203958,53.144123
520.42,NDUC GP OUT OF HOURS SERVICE (OOH),-1.372186,54.879952
48741.86,COURT THORN SURGERY,-2.826247,54.801828
260223.75,COASTAL VILLAGES PRACTICE,1.685649,52.674686
40096.14,CROSTON MEDICAL CENTRE,-2.773743,53.666146
68198.47,PARK VIEW SURGERY,-0.435833,53.72979
1920.21,MARTIN HOUSE HOSPICE,-1.344259,53.900051
911.24,COMMUNITY INTERMEDIATE CARE SERVICE,-2.455551,53.733223
140027.79,CORNERWAYS MEDICAL CENTRE,-2.85592,53.422901
87358.8,BRENTFIELD MEDICAL CENTRE,-0.260251,51.550588
2208.51,SUCCESS CENTRE - MOREDON,-1.807069,51.582197
76941.46,ASHFIELD HOUSE (ANNESLEY),-1.256047,53.07651
53775.3800000001,EASTHAMPSTEAD SURGERY,-0.753965,51.405543
15016.24,ACTON TOWN MEDICAL CENTRE,-0.28217,51.50246
259768.17,ST MARY'S SURGERY,0.258109,52.398364
93397.1000000001,SOUTHVIEW MEDICAL PRACTICE,-0.559823,51.313647
2417.18,NY HORIZONS NALLERTON,-1.43587,54.34019
156142.25,SMA MEDICAL PRACTICE,-0.008594,51.571154
4.62,ADULT COMMUNITY NURSING,-0.607463,51.241016
138055,HUMBERSTONE MEDICAL CENTRE (IP JONES),-1.089641,52.645126
1766.8,COMMUNITY ENT SERVICE,-2.262369,53.406329
79540.06,CHACEWATER HEALTH CENTRE,-5.155777,50.25596
155363.62,DR MAASSARANI & PARTNERS,-2.88656,53.495201
50147.5899999999,UPMINSTER BRIDGE SURGERY,0.235279,51.558957
45828,DR DEVARAJA VC PRACTICE,0.44359,51.520015
138529.18,HENFIELD MEDICAL CENTRE,-0.275597,50.936107
100145.38,CHEDDAR MEDICAL CENTRE,-2.775544,51.274669
1.05,DMC COMMUNITY DERMATOLOGY SERVICE,-1.497858,53.800234
109184.29,BEACONSFIELD MEDICAL PRACTICE,-0.148293,50.838378
56782.56,QUEENS ROAD MEDICAL CENTRE,-0.02047,51.579799
17702.71,RDASH FT COMMUNITY NURSING,-1.146558,53.497488
2195.19,HP NMP'S NW CCG,-1.143101,53.130244
165346.72,STENNACK SURGERY,-5.484395,50.210854
38499.44,ROCHESTER ROAD SURGERY,0.390394,51.435136
10735.3,MINSTER MEDICAL CENTRE,0.793061,51.415409
163.33,PAIN MANAGEMENT SOUTH,-2.109085,52.810605
73486.0199999999,BROOKLANDS HEALTH CENTRE,-0.675657,52.044408
1462.61,COMMUNITY OPHTHALMOLOGY SERVICE,-0.316409,51.558214
42172.34,WIDDRINGTON SURGERY,-1.62051,55.240248
1234.96,EAST CAMHS,-1.531703,53.817673
80301.5,HARBURY SURGERY,-1.458027,52.236759
39160.81,THE ALLENDALE ROAD SURGERY,-0.319827,51.551186
33474.84,BEGG PRACTICE,-0.179391,51.459968
130049.59,PARKGATE SURGERY,-2.882743,53.564772
6077.23,FRIMLEY PRIMARY CARE OOH,-0.742029,51.319666
11127.78,WHITTINGTON HEALTH (HARINGEY),-0.139066,51.566482
3252.24,LEIGH NHS WIC,-2.511455,53.503236
76667.5099999999,ALL SAINTS SURGERY,-1.644121,52.794285
56125.8000000001,KNOCKIN MEDICAL CENTRE,-2.993042,52.79343
83,CONTRACEPTION & SEXUAL HLH,-1.607743,54.974103
126632.25,LIME GROVE MEDICAL CENTRE,-1.55303,53.139004
82067.71,DEVONSHIRE GREEN MEDICAL CENTRE,-1.477593,53.379509
150995.35,3/LOWER BROUGHTON MEDICAL PRACTICE,-2.258808,53.49359
76238.44,DR NAVIN KUMAR,0.70187,51.544989
66627.16,THE MEADOWS SURGERY,-0.53774,52.399512
22554.45,MAYFAIR MEDICAL CENTRE,-0.150172,51.513536
101276.43,ST LEONARDS PRACTICE,-3.522731,50.723743
122728.14,HELSBY STREET MED/CTR,-2.576324,53.39498
202895.11,BISHOPGATE MEDICAL CENTRE,-1.676211,54.659158
238029.53,WOKINGHAM MEDICAL CENTRE,-0.831068,51.411661
153565.01,HOLYCROFT SURGERY,-1.914477,53.863828
186.22,PALLIATIVE CARE NORTH,-2.109085,52.810605
53561.43,HOLBORN MEDICAL CENTRE,-0.118539,51.522233
31628.65,ALVERTHORPE,-1.518486,53.685476
62214.4,ROMAN ROAD HEALTH CENTRE,-2.472202,53.728431
145565.22,IVRY STREET MEDICAL PRACTICE,1.148624,52.064021
88905.8400000001,ASHLEY CENTRE SURGERY,-0.270061,51.33244
70024.57,DOCTORS' SURGERY,-2.187672,53.55683
100000.17,DUNCHURCH SURGERY,-1.290193,52.337874
2458.95,ACE LTD OOH,0.296471,51.626042
9093.42,THE GREENHOUSE WALK-IN,-0.055343,51.538827
144904.07,HANDFORTH HEALTH CENTRE,-2.214647,53.347874
1541.22,COMMUNITY TISSUE VIABILITY SERVICE,-2.681273,53.496386
68252.6499999999,ENDERBY MEDICAL CENTRE,-1.211488,52.587061
2773.19,LYMPHOEDEMA SERVICE FOR SOLIHULL CCG,-1.953778,52.398207
17195.76,ABBEY MEDICAL CENTRE,-0.982406,51.453949
1869.07,HOSPITAL AT HOME,-0.831575,51.410524
160848.82,THE GRANGE MEDICAL CENTRE,-1.458215,52.526837
175162.66,BIRCHWOOD MEDICAL PRACTICE,-0.605376,53.215749
104689.4,THE GABLES MEDICAL GROUP,-1.564429,55.140811
127358.8,THE HAMILTON PRACTICE,0.114548,51.757005
201176,GRAYSHOTT SURGERY,-0.745626,51.110093
117565.35,LITTLEBOROUGH GROUP PRACTICE,-2.103349,53.642995
97510.9200000001,BROWNLOW HEALTH  @ PRINCES PARK,-2.95165,53.391535
685.24,PATHFINDER GP,-2.512253,53.504428
46.86,STELLAR HEALTHCARE OPHTHALMOLOGY,0.12393,51.704295
696,ASHLEY INTERMEDIATE CARE CTR,-2.044846,51.883772
170367.59,CENTRAL UXBRIDGE SURGERY,-0.475739,51.546229
4484.24,DERMATOLOGY DEPARTMENT CANNOCK,-2.095555,52.599722
2593.89,STOP SMOKING SERVICE (R&C),-1.235298,54.577005
584.94,MEDICUS HEALTH PARTNERS-GREEN STREET,-0.044502,51.657069
148723.58,PENKRIDGE MEDICAL PRACTICE,-2.118352,52.725728
5148.16,DOUGLAS MACMILLAN HOSPICE,-2.150544,52.970554
268957.17,BECCLES MEDICAL CENTRE,1.562886,52.453288
626.47,WORKING AGE ADULTS-RIKENEL,-2.24469,51.860419
72316.33,ST JAMES MEDICAL PRACTICE2,-2.097323,52.514234
684.77,THE HAMBLEDEN CLINIC,-0.089556,51.463601
2.08,HMP/YOI DRAKE HALL,-2.240835,52.878831
51835.69,GLADSTONE ROAD SURGERY,-0.608263,51.713308
126934.68,KEYWORTH MEDICAL PRACTICE,-1.093411,52.871477
35367.94,KEELE PRACTICE,-2.273581,53.003262
231013.17,BRIDGNORTH MEDICAL PRACTICE,-2.422947,52.537874
133651.39,BENHILL & BELMONT PRACTICE,-0.19029,51.366603
74.24,CANNOCK MINOR INJURIES UNIT,-2.030614,52.693241
47270.04,DERMATOLOGY HEALTH SERVICE AT WOLVES,-2.59517,53.394149
3303.91,GP SERVICES - GP HUBS,-0.175734,51.240416
105659.5,DATCHET HEALTH CENTRE,-0.576314,51.482057
37061.36,ROOD END MEDICAL PRACTICE,-1.999691,52.494094
9533.27,NEMS OOH,-1.146156,52.947802
14935.03,BUCKS UTC & OOH,-0.771127,51.633345
60023.18,TUDOR HOUSE MEDICAL PRACTICE,-1.149856,52.990599
315.82,ENT SPINKS LANE,0.632055,51.796089
154872.5,THE ROBERT DARBISHIRE PRACTICE,-2.226177,53.454626
134292.67,WENTWORTH MEDICAL PRACTICE.,-0.187898,51.607748
67838.83,DOWNSFIELD MEDICAL CENTRE,-1.77969,52.466938
231425.02,MARYPORT HEALTH SERVICES,-3.494531,54.706432
78566.9999999999,HOPWOOD HOUSE MEDICAL PRACTICE,-2.095467,53.542109
96058.7700000001,LANE ENDS SURGERY,-2.727014,53.770173
64673.55,TEMPLE FORTUNE MEDICAL GROUP,-0.197845,51.581101
75301.4199999999,LYDDEN SURGERY,1.23991,51.163193
51203.96,DMC CHADWICK ROAD,-0.074257,51.467864
97157.41,MILLSTREAM MEDICAL CENTRE,-1.797547,51.071683
138288.83,HELSBY HEALTH CENTRE,-2.770522,53.270467
54822.66,DR AP KUMAR,-0.05904,53.573513
102823.15,COMMONFIELD RD SURGERY,-3.086369,53.370187
28483.03,STATION SURGERY,-2.690615,53.698033
187543.81,APPLETON VILLAGE SURGERY,-2.729552,53.371391
106773.57,CALOW AND BRIMINGTON PRACTICE,-1.396121,53.257848
127197.06,FIRTH PARK SURGERY,-1.445847,53.417523
54775.1300000001,BOTOLPH BRIDGE COMMUNITY HEALTH CENTRE,-0.261557,52.562595
31887.45,SPRINGFIELD MEDICAL PRACT,-1.859629,52.444953
69481.7099999999,ROCK COURT SURGERY,-2.916187,53.411597
156.77,CAMDEN DIABETES IPU,-0.131658,51.53665
161204.34,CATHETER PRESCRIPTION SERVICE,-2.976431,53.380314
28527.21,BRIGHTON STATION HEALTH CENTRE,-0.141323,50.827937
133564.68,VILLAGE SURGERY,-0.350376,51.023691
65082.3199999999,STUBLEY MEDICAL CENTRE,-1.488541,53.304986
92580.2000000001,NEWTON HEATH MEDICAL CENTRE,-2.181199,53.500995
80427.03,NORTHWAY MEDICAL CENTRE,-2.130997,52.548105
1175.54,DR ST GEORGES MIU/OOH,-1.532085,53.747855
58025.09,SHREEJI MEDICAL CENTRE,-0.606689,51.518363
26180.46,KIYANI MEDICAL PRACTICE,0.0021,51.555415
25865.57,NORTH LANCASHIRE INSPIRE,-2.798181,54.04844
172370.57,TONBRIDGE MEDICAL GROUP,0.275507,51.185826
56183.4899999999,DERBYSHIRE ROAD SOUTH SURGERY,-2.310144,53.416957
142907.49,RITCHIE STREET GROUP PRACTICE,-0.107858,51.53474
87821.0899999999,CENTRAL SURGERY - SOUTHCHURCH BLVD,0.739537,51.54219
2501.34,CAMHS - WARWICK,-1.523453,52.284798
226288.05,FOREST MEDICAL,-1.205754,53.14969
47804.37,CATHERINE HOUSE SURGERY,-3.683479,50.429832
155955.74,EAST LEAKE MEDICAL GROUP,-1.177129,52.83403
111610.11,PENDLE VIEW MEDICAL CTRE,-2.232263,53.826018
37534.18,GREYSTONES MEDICAL CENTRE,-1.510002,53.363853
156847.28,KING EDWARD ROAD SURGERY,-0.866422,52.242766
41649.78,BOUNDARY COURT SURGERY,-0.059836,51.623784
3188.82,THANET INTEGRATED ACUTE RESPONSE,1.387926,51.377178
26063.95,BLAYDON GP LED PRACTICE,-1.696266,54.958098
110.39,CCS-CONTRACEPTION & SEXUAL HLTH SERVICE,0.15083,52.197136
74030.4199999999,SHEERNESS HEALTH CENTRE,0.766639,51.436119
8.24,MIRAH DAY HOSPITAL,-1.477708,52.526988
143490.16,ALCONBURY SURGERY,-0.256797,52.371699
121566.81,ORCHARD SURGERY MELBOURN,0.020092,52.080651
429.35,PRINCESS ALICE HOSPICE,-0.376651,51.367131
154619.86,NUNWELL SURGERY,-2.507177,52.187931
35346.6,SOMERSET FHP O,-0.369034,51.523141
238224.66,DR L FREEMAN & PARTNERS,-1.449442,53.752493
78642.99,THE BASSINGHAM SURGERY,-0.636987,53.126641
100477.49,LONGLEVENS SURGERY,-2.212032,51.875911
74639.88,NANTWICH HEALTH CENTRE,-2.518506,53.068155
58862.63,ESTOVER SURGERY,-4.0952,50.411271
111704.43,SUNNY MEED SURGERY,-0.551243,51.315439
104.29,PCH WARD,-2.077775,52.114052
63.08,NORTH COTSWOLDS LOCALITY N. PRESCRIBER,-2.176389,51.847073
2250.71,THOMAS LINACRE SPECIALIST,-2.629091,53.55774
6642.35,C.A.M.H.S.,-2.689816,53.693597
94385.4899999999,SEA MILLS SURGERY,-2.649928,51.484587
52308.41,THE SYMONDS GREEN HEALTH CENTRE,-0.22159,51.91302
126164.8,RIDGE GREEN MEDICAL PRACTICE,-1.836242,51.567683
108.76,PLANE WARD,0.12393,51.704295
590.6,H&R P C SPECIAL SCHEME,0.578137,50.857944
67319.4900000001,BALMORAL GARDENS,0.547786,51.385637
384.65,COMMUNITY ENT SERVICE,-0.258726,52.574107
62.25,SWYPFT NMP BBDU,-1.454617,53.546954
234683.55,STONYHILL MEDICAL PRACTICE,-3.047383,53.781401
172963.49,FURLONG MEDICAL CENTRE,-2.208139,53.063325
29304.29,THE SURGERY (BARRETTS GROVE),-0.078285,51.5522
52020.3199999999,STILLINGTON SURGERY,-1.108927,54.103615
149327.47,BARNARD CASTLE SURGERY,-1.916153,54.545708
98258.5400000001,CROSSROADS MEDICAL PRACTICE,-0.587134,53.183432
64513.66,PRINCES MEDICAL CENTRE,-0.359925,53.753343
141005.72,TWYFORD SURGERY,-0.862762,51.481804
1277.29,PML NEIGHBOURHOOD HUB (BANBURY),-1.349027,52.057771
25125.04,HIGHTOWN VILLAGE SURGERY,-3.058369,53.530081
273888.81,BURNLEY GROUP PRACTICE,-2.238948,53.791326
135553.96,BARBOURNE HEALTH CENTRE,-2.224952,52.208752
725.13,CPFT - CONSULTANT DIABETES TEAM,-0.240576,52.584016
1529.35,GRANTHAM OOH,-0.640714,52.921087
41902.13,NHS SOUTH CHESHIRE CCG NMP'S,-2.45397,53.098813
87904.28,SUDBURY & ALPERTON MEDICAL CENTRE,-0.298046,51.536916
212.39,ST JOHN'S HOSPICE,-2.803011,54.067023
54208.64,THORNS ROAD SURGERY,-2.109345,52.472042
38916.75,ALDERSBROOK MEDICAL CENTRE,0.038356,51.560671
78389.34,QUARRY BANK MEDICAL CENTRE,-2.102402,52.471845
5365.67,NORTHUMBERLAND COMMUNITY SERVICE,-1.508192,55.020469
42443.87,OLD SCHOOL SURGERY,0.535827,51.09887
35343.92,GROBY SURGERY,-1.225017,52.661865
85524.4100000001,HIGH STREET MEDICAL CENTRE,-2.282777,51.747097
68340.93,MEVAGISSEY SURGERY,-4.788601,50.270644
15887.04,BRISDOC HEALTHCARE SERVICES OOH,-2.596274,51.428746
41391.7199999999,REGENCY SURGERY,-0.136165,50.82196
94098.7899999998,THE SLIEVE SURGERY,-1.927168,52.520008
212129.96,KING'S MEDICAL PRACTICE,-1.419613,53.700643
287884.01,EASTWOOD PRIMARY CARE CENTRE,-1.307753,53.016064
197182.91,TODMORDEN GROUP PRACTICE,-2.092159,53.713651
676.96,IMPERIAL COMMUNITY DERMATOLOGY SERVICE,-0.08431,51.500087
102467.28,THE ALMONDBURY SURGERY,-1.751311,53.631868
1931.27,ST CHARLES UCC CENTRE WIC,-0.217218,51.522362
80999.35,MARPLE BRIDGE SURGERY,-2.053323,53.400594
71.68,INDEPENDENT HEALTH GROUP,-2.414415,51.312224
258360.32,STRAND MEDICAL GROUP,-0.41094,50.818463
41.86,NT&H COMM RR,-1.227837,54.702398
158294.45,THORNTON MEDICAL CENTRE,-1.576209,53.791908
59000.98,CHEVELEY PARK MEDICAL CTR,-1.525818,54.7856
116387.67,THE RED PRACTICE WALTON,-0.406024,51.380924
65166.78,HIGH STREET SURGERY,-0.037483,51.708474
54944.3,THE INGHAM SURGERY,-0.57717,53.336945
50963.18,SADDLERS HEALTH CENTRE,-1.979464,52.587684
128085.79,CHILDREN AND FAMILIES DIVISION,-1.892891,52.445923
1103.6,NSC BOSWORTH HUB,-1.753633,52.480569
142042.88,THE GLEN MEDICAL GROUP,-1.52187,54.97385
83966.88,HILLINGDON HEALTH CENTRE,-0.448053,51.551621
107208.88,BROCKWORTH SURGERY,-2.156696,51.844575
132.61,WATERLOOVILLE GP EXTENDED ACCESS HUB,-1.033601,50.891899
6217.22,DMC SHEPPEY-W.I. CLINIC,0.793061,51.415409
52389.8800000001,GRANGE ROAD MEDICAL PRACTICE,-1.763413,54.972384
218585.71,WESTERHOPE MEDICAL GROUP,-1.686811,54.997777
1323.29,MODALITY AWC EXTENDED ACCESS,-1.889371,53.858954
54635.9899999999,BROUGHTON HOUSE SURGERY,-1.636312,53.713801
37.99,OUT PATIENTS DEPARTMENT,-4.116613,50.378837
96695.3400000001,WESTCROFT HEALTH CENTRE,-0.795699,52.006367
192632.12,THE WALL HOUSE SURGERY,-0.208192,51.241304
168328.03,THE DUNSTAN PARTNERSHIP,-2.384279,53.582354
125859.77,ODIHAM HEALTH CENTRE,-0.94103,51.254544
10535.36,SHAKESPEARE WIC,-1.525196,53.802098
1337.57,EPSOM DAY SURGERY UNIT,-0.255324,51.334461
41784.66,CENTRAL CLINIC,-2.075775,52.507977
75375.83,ROYAL ARSENAL MEDICAL CENTRE,0.073476,51.493492
161465.25,HEACHAM GROUP PRACTICE,0.491184,52.90988
2920.38,CYPS - EVERGREEN HOUSE,-2.073674,51.881059
13.37,SCC HEALTH VISITING,1.143441,52.054221
125453.12,OLD ROAD WEST SURGERY,0.367195,51.433655
176310.5,LONG CATLIS ROAD SURGERY,0.595579,51.348325
235644.17,THE GRANGE MEDICAL CENTRE,-1.354248,53.611836
84257.94,CHASE CROSS MEDICAL CENTRE,0.164796,51.600118
705538.029999998,PRIORY MEDICAL GROUP,-1.129435,53.949388
431.43,LIVINGCARE HEALTH SERVICES ENT,-1.427194,53.79855
1215.84,DODDINGTON LUCS,0.058102,52.497587
130097.46,BEECHWOOD SURGERY,0.292731,51.608567
1437.36,ADULT ADHD SERVICE,-1.450395,50.884596
109541.54,ST GEORGE'S MEDICAL CENTRE,-2.189031,53.509666
62173.14,YORK ROAD SURGERY,-1.348576,53.435091
21.2,ST MARGARET'S HOSPICE,-3.127087,51.016495
200393.27,SOUTH GRANGE MEDICAL GROUP PRACTICE,-1.166506,54.569955
43443.63,ASHCROFT SURGERY,-0.71666,51.898041
238465.56,WESTBOURNE MEDICAL CENTRE,-1.90343,50.723515
117507.74,EAST BARNET HEALTH CENTRE,-0.166424,51.646339
245785.39,LITCHDON MEDICAL CENTRE,-4.041711,51.069586
21297.57,OPEN DOOR,-0.068703,53.572249
202426.22,SALFORD PRIMARY CARE TOGETHER,-2.423902,53.529872
48169.78,GROVE HILL MEDICAL CENTRE,-0.457357,51.772315
31009.23,HOUNSLOW FAMILY PRACTICE,-0.366799,51.471773
23256.4,HILLTOP MEDICAL PRACTICE,-0.263604,51.542472
140960.84,FRIARY HOUSE SURGERY,-4.128292,50.37266
162338.75,MYTHE MEDICAL PRACTICE,-2.153433,51.99229
289372.7,WILLIAM BROWN CENTRE,-1.33142,54.757994
52183.79,UNIVERSITY HEALTH SERVICE HEALTH CENTRE,-1.482709,53.380323
120386.75,HT PRACTICE,-2.110496,53.478305
64300.13,BARNT GREEN SURGERY,-1.991028,52.35999
81572.97,NEASDEN MEDICAL CENTRE,-0.247382,51.559667
82150.8400000001,LANGLEY MEDICAL PRACTICE,-0.299929,51.390825
170052.92,BILLINGSHURST SURGERY,-0.445798,51.024981
83841.07,DROYLSDEN RD FAMILY PRACTICE,-2.175662,53.499916
128051.66,GADE SURGERY,-0.481406,51.636736
58247.19,FERRY ROAD HEALTH CENTRE,0.728076,50.951404
100180.36,SPRING HOUSE SURGERY,-2.463553,53.588374
159569.15,WELL CLOSE MEDICAL GROUP,-2.006127,55.772458
12557.32,ADDACTION NORTH EAST LINCOLNSHIRE,-0.074329,53.573559
78200.9499999999,PROSPECT SURGERY,-1.235397,54.575047
5536.94,BEECHCARE & PGU,0.25484,51.420223
7020.82,REDDITCH & BROMSGROVE COMMUNITY NURSES,-2.055662,52.344136
37766.4,ST HELENS OUT OF HOSPITAL SERVICE,-2.723398,53.418906
93374.3500000002,THE TOLLERFORD PRACTICE,-2.571586,50.778924
114601.28,DENMARK ROAD MEDICAL CENTRE,-1.876102,50.747031
89107.4,WEST GREEN ROAD SURGERY,-0.092209,51.58587
162585.74,SPINNEY BROOK MEDICAL CENTRE,-0.614041,52.32438
96897.6700000001,EVERSLEY MEDICAL CENTRE,-0.111913,51.388514
93789.7900000001,LANGSTONE WAY SURGERY,-0.210815,51.606981
209805.51,BEECH HILL MEDICAL PRACTICE,-2.644352,53.555654
117079.85,BELLEVUE MEDICAL CENTRE,-1.900852,52.465393
51589.43,ILKESTON HEALTH CENTRE,-1.308041,52.968251
34736.71,ALEXANDRA MEDICAL CENTRE,-2.063026,52.454036
222012.68,THE ARNEWOOD PRACTICE MILTON MEDICAL CEN,-1.657992,50.756444
63144.1200000001,KENNETH MACRAE MED CENTRE,-2.786435,53.49903
62821.3,STANLEY CORNER MEDICAL CENTRE,-0.296619,51.544251
2298.28,BROOKLANDS,-1.744102,52.4712
50110.2,SOUTH NORWOOD HILL MEDICAL CENTRE,-0.080772,51.403169
65315.03,GREENWICH PENINSULA,0.012038,51.493258
24746.78,DCHS DERBY CITY,-1.441882,53.221288
330940.029999999,FROME MEDICAL CENTRE,-2.311568,51.237318
213994.7,ROYAL MANOR HEALTH CARE,-2.437275,50.544008
213.14,RTPCT DERMATOLOGY GPWSI,-0.242504,51.473609
54.24,YAS IUC OOH,-1.517971,53.709391
5648.5,THE SKIN CLINIC,-2.74562,52.713895
34643.84,BNSSG COMMUNITY PAEDIATRICIANS,-2.499941,51.462591
215605.34,EXCEL PRIMARY CARE,-2.758901,53.538343
236105.42,BARTON SURGERY,-3.473818,50.579848
126642.27,BAMPTON SURGERY,-1.55034,51.729032
353.73,RAMSAY HEALTHCARE SPRINGFIELD HOSPITAL,0.484598,51.753372
2259.34,HASTINGS AND ROTHER OOH,0.891514,51.129106
30977.05,SCOTT PARK SURGERY,0.669733,51.571078
198.06,LOCAL PRIMARY CARE EAST/WEST SPOKE,-2.486748,53.750552
153672.7,WITTON MEDICAL CENTRE,-2.507553,53.740232
87608.7400000001,THE PRACTICE ALBERT ROAD,0.053108,51.501557
39.13,COMMUNITY CARDIOLOGY SERVICE,0.15356,51.455555
154675.89,CORNERSTONE PRACTICE,0.091322,52.548858
5288.85,KINGSTON PRIMARY CARE EXTENDED SERVICE,-0.304894,51.414188
77142.93,THE CHURCH VIEW PRACTICE,0.609995,51.363412
128615.92,HAYDOCK MEDICAL CENTRE,-2.656554,53.468334
3200.63,BRACKNELL URGENT CARE CENTRE WIC,-0.735982,51.413263
513.64,COMMUNITY MATRONS,-2.095555,52.599722
182100.01,THE OAKS MEDICAL CENTRE,-1.895827,52.552454
236882.87,EAST NORWICH MEDICAL PARTNERSHIP,1.337135,52.637255
351444.54,TOWER FAMILY HEALTHCARE,-2.341432,53.614725
92260.2900000001,THE MILLER PRACTICE,-0.092165,51.551419
8692.69,DMC NORTH KENT DERMATOLOGY - DGS,0.343258,51.435153
148253.49,DRUID GROUP,-1.942009,52.486277
104305.46,FRONT STREET SURGERY,-1.126923,53.954403
12310.85,FULHAM CROSS MEDICAL CENTRE,-0.214067,51.482774
7998.36,GREAT HARWOOD SURGERY,-2.414211,53.768459
192527.02,CASTLECROFT MEDICAL PRACTICE,-2.189808,52.57877
87471.8799999999,BRIERCLIFFE SURGERY,-2.212859,53.810388
223087.05,THATCHAM HEALTH CENTRE,-1.262387,51.404018
123303.44,WATLINGTON MEDICAL CENTRE,0.391163,52.666799
90296.0700000001,THE ROSEBERRY PRACTICE,-1.292215,54.611726
93769.1500000001,ASPULL SURGERY,-2.586036,53.569599
117474.44,GRESLEYDALE HEALTHCARE CENTRE,-1.576841,52.760758
122484.09,WINCOBANK MEDICAL CENTRE,-1.416316,53.419405
24.62,CCS HEALTH VISITORS (SOUTH),-0.067127,52.322863
80028.97,THE WRAGBY SURGERY,-0.301337,53.287948
67095.06,ROYAL DOCKS MEDICAL PRACTICE,0.062932,51.50946
42482.29,ALVELEY MEDICAL PRACTICE,-2.353309,52.454738
7835.25,ST WERBURGH'S MEDICAL PRACTICE HOMELESS,-2.890684,53.194463
224333.37,LISTER MEDICAL CENTRE,0.090365,51.754515
152729.42,STURRY SURGERY,1.130308,51.304473
183323.9,PUTNOE MEDICAL CENTRE PARTNERSHIP,-0.438308,52.147939
120666.16,BURVILL HOUSE SURGERY,-0.22721,51.761302
68996.9899999999,PRIORS FIELD SURGERY,0.124169,52.388951
183738.16,AXMINSTER MEDICAL PRACTICE,-2.999226,50.780899
425.85,WILL ADAMS NHS TREATMENT CENTRE,0.576568,51.380889
166888.49,CENTRAL PARK MEDICAL CENTRE,-3.045864,53.415672
54716.58,MALTHOUSE MEADOWS SURGERY,-2.568038,50.668698
115453.17,THE SPRINGFIELD SURGERY (BINGLEY),-1.827829,53.846937
68436.5400000001,HOOK SURGERY,-0.312059,51.359148
437.55,CARE UK OPHTHALMOLOGY CATS,-2.14084,53.622824
2316.65,NT&H COMM RESP N,-1.227837,54.702398
134294.48,BHARANI MEDICAL CENTRE,-0.647828,51.520652
94612.79,DR LONGFIELD AND PARTNERS,-0.759425,52.997585
2564.52,IC24-CANTERBURY CCG-OOH,0.891514,51.129106
159892.34,SANDY LANE SURGERY,-2.694715,53.689488
39912.75,HATTON MEDICAL PRACTICE,-0.433285,51.457879
42843.26,BECKETT HOUSE PRACTICE,-0.123521,51.469491
25306.06,HINDON SURGERY,-2.130793,51.095814
100884.2,THE RANGE MEDICAL CENTRE,-2.257066,53.452309
7328.87,MENTAL HEALTH AND WELLBEING SERVICES,-2.739882,52.745851
667.71,COMMUNITY ENT,0.303361,51.290055
49170.5,MARSHALLS ROAD SURGERY,-0.539225,52.344743
65048.6199999999,ARDINGLY COURT SURGERY,-0.132888,50.82118
115313.42,HUNTINGDON ROAD SURGERY,0.11009,52.214035
398.09,ENT GPWSI CUMBERLAND CENTRE,-4.167875,50.369991
138460.05,WICKHAM MARKET MEDICAL CENTRE,1.363674,52.151842
80565.5500000001,STRETTON MEDICAL CENTRE,-2.577017,53.339489
26965.84,DR U AKBAR,-1.777945,53.803569
115904.49,WIGTON GROUP MEDICAL PRACTICE,-3.159002,54.820303
1705.41,SEXUAL HEALTH WIRRAL,-3.026531,53.380029
175.27,EXTENDED ACCESS PCD LAKESIDE PRACTICE,-1.148909,53.615496
14068.19,YARDLEY MEDICAL CENTRE,-1.828397,52.463189
177226.65,PENN MANOR MEDICAL PRACTICE,-2.14981,52.559823
24934.95,THE PRACTICE COLLEGE ROAD,-0.539824,51.322572
200465.64,MERIDIAN SURGERY,-0.000811,50.796102
86809.15,HOMESTEAD,-1.518747,53.68227
26413.16,ALLENBY CLINIC,-0.376261,51.531514
5.26,HV CRAVEN  HARROGATE & RURAL,-1.517573,53.993807
20937.33,BSW IUC OOH,-2.122946,51.473348
216905.29,WELLINGTON MEDICAL PRACTICE,-2.514204,52.699878
24198.09,NARBOROUGH ROAD SURGERY,-1.153521,52.624383
77176.9599999999,LAMBGATES HEALTH CENTRE,-1.970153,53.463477
6582.7,CSS DERMATOLOGY SERVICE,-0.00105,51.620089
370932.9,THE DEEPINGS PRACTICE,-0.316194,52.683726
5955.47,CAMHS WHITESTONE CLINIC,-1.438173,52.504116
148300.61,MIDWAY SURGERY,-0.355421,51.733852
72205.81,SOOD (THE GREEN & FIR ROAD),-0.340635,51.443826
65554.25,THE LINDLEY VILLAGE SURG.,-1.82571,53.661331
66435.6599999999,HIGH OAK SURGERY,-2.13113,52.500707
39677.87,WESTWOOD PRIMARY CARE CENTRE,-1.110806,53.296468
41960.28,NHS FYLDE & WYRE CCG,-2.881037,53.789498
76251.9600000001,POTTERIES MEDICAL CENTRE,-2.136838,53.020074
67139.4899999999,THE OLD COLE HOUSE PRACTICE,-1.475043,52.477262
84179.2500000001,SOUTHWAY SURGERY,-4.133237,50.427678
417.58,DONCASTER NORTH ADULT CMHT,-1.149914,53.556395
145408.15,GUARDIAN STREET MED/CTR,-2.606297,53.391901
93040.98,BRANDON STREET SURGERY,-1.122261,52.648042
412.72,M & A LTC PALLIATIVE CARE NURSE,-1.238124,52.98146
163144.06,HIGH PASTURES SURGERY,-2.946534,53.519395
118082.83,PLANE TREES GROUP PRACTICE,-1.894437,53.730448
77226.3000000001,MICKLEOVER SURGERY,-1.53732,52.907481
383.49,DIABETES CROMPTON LODGE,0.503562,51.719263
141102.43,CROCUS MEDICAL PRACTICE,0.238729,52.025067
60343.76,ASH SURGERY,1.27891,51.279887
1282.05,RAMSAY HEALTHCARE - NORTH DOWNS HOSPITAL,-0.079153,51.273556
28301.08,DELTA HEALTHCARE,-0.292835,53.764281
83982.6,SWANWOOD PARTNERSHIP,0.519034,51.613356
1217.18,HOLYWELL AT LANGLEY HOUSE HCT,-0.391206,51.683651
305.29,COMPTON HOSPICE,-2.172068,52.585801
114293.98,BROOK GREEN MEDICAL CENTRE,-0.220945,51.495163
3738.87,STORTHFIELD HOUSE,-1.332746,53.097559
172966.17,WHADDON MEDICAL CENTRE,-0.766276,52.000308
8047.1,KINGS HEALTH & LINGS BROOK PRACTICE,-0.922279,52.256829
104787.41,THE NEW BREWERY LANE SURG,-1.636835,53.67243
63881.1,GROVE SURGERY,-0.01097,51.579197
92519.0100000001,CRESSEX HEALTH CENTRE,-0.778801,51.617114
26852.97,CGL NORTH & CENTRAL LANCASHIRE,-2.703636,53.758538
13372.81,CGL EAST CHESHIRE,-2.442143,53.097489
43949.7800000001,DR SATHANANDANS PRACTICE,0.650261,51.555142
26349.16,THE PRACTICE SURGERIES LTD,-0.099109,51.370492
223484.03,ST JOHNS MEDICAL CENTRE,-2.352158,53.38672
1018.22,NORTH SATELLITE UNIT,-1.487911,53.42172
169323.87,UNDERCLIFFE SURGERY,-1.67818,53.707224
28075.34,ST LUKE'S SURGERY,-0.0358,50.8023
103639.17,DR ARORA RK,-1.997982,52.516003
102619.92,ODDFELLOWS HALL & ST CLEMENTS,0.327906,51.480703
109350.76,SPINNEY SURGERY,-0.077762,52.33533
1767.33,ACUTE GP REFERRAL SERVICE,-4.113684,50.41672
93179.3400000001,WARWICK ROAD SURGERY,-2.928541,54.893858
94388.9300000001,THE PETWORTH SURGERY,-0.607135,50.983365
87014.0000000001,SLEIGHTS AND SANDSEND MEDICAL PRACTICE,-0.659645,54.452005
114390.04,WIDE WAY MEDICAL CENTRE,-0.134454,51.401824
96.65,MATERNAL MENTAL HEALTH TEAM,-1.459978,52.387714
143762.69,SNAPS STOMA,-2.475863,53.117685
674.27,ARUN MIAMI GP ACCESS HUB,-0.531673,50.808759
165919.7,RIVER LODGE SURGERY,0.018818,50.874836
213137.089999999,CLOVER GROUP PRACTICE,-1.40885,53.384843
58629.7599999999,WOODBANK SURGERY,-2.308802,53.60507
179152.12,CRUDDAS PARK SURGERY,-1.630965,54.968173
68112.94,OAKHILL MEDICAL PRACTICE,-1.458311,53.305662
170523.16,PARK PRACTICE,0.277898,50.794441
138589.51,HAZELDENE HOUSE SURGERY,-2.004496,52.800688
85520.49,DR. MASTERTON'S SURGERY,-0.130137,51.430487
474.78,OLDER AGE - WEAVERS CROFT,-2.209872,51.742704
132763.07,KINGS NORTON SURGERY,-1.930753,52.404588
59579.01,NASEBY MEDICAL CENTRE,-1.844953,52.489175
302.86,WEST LANCS HEART FAILURE SERVICE,-2.840112,53.602357
45842.55,YEADING COURT SURGERY,-0.40009,51.528299
57427.4499999999,PRIME PRACTICE PARTNERSHIP,0.152111,51.535187
69755.66,ADULT COMMUNITY NURSING,-0.086794,51.503466
35250.77,HEADSTONE ROAD SURGERY,-0.340912,51.583768
86004.6100000001,OAKLANDS SURGERY,-2.617414,50.954243
38158.27,BELSIZE PRIORY MEDICAL PRACTICE (GROUP),-0.188014,51.539773
31990.73,DR SKS SWEDAN,0.024864,51.550554
128.47,MEDWAY PRACTICES ALLIANCE (MPA),0.546037,51.326929
181815.99,CASTLE HEALTHCARE PRACTICE,-1.144908,52.930476
54098.77,MONTPELIER SURGERY,-0.149079,50.827148
4317.65,SOUTH SEFTON GP EXTRA SERVICE,-3.002733,53.472727
13264.02,THE TOWN SURGERY,-0.378104,51.512512
97401.1900000001,EVERGREEN OAK SURGERY,-1.958467,50.723629
82.06,CPT CRAWLEY,-0.375414,50.817416
147452.52,DR JK MARSDEN'S PRACTICE,-0.436528,51.894968
111592.92,CEDAR BROOK PRACTICE,-0.414132,51.534092
16.36,MAIDSTONE CENTRAL CLUSTER,0.277462,51.194717
72861.3200000001,SOLWAY HEALTH SERVICES,-3.551342,54.642687
167200.99,ALMA MEDICAL CENTRE,-1.317648,54.56949
134090.7,COLLINGHAM CHURCH VIEW SURGERY,-1.408994,53.908099
5510.85,DONNINGTON SKIN CLINIC,-2.435652,52.714406
47117.68,INTRAHEALTH PLATT BRIDGE,-2.595925,53.522279
1688.11,JOHN TAYLOR HOSPICE,-1.823564,52.527352
202690.1,MERCHISTON SURGERY,-1.749007,51.587527
51765.56,THE BROOK SURGERY,-1.871333,52.462659
14848.37,YOUR HEALTHCARE COMM. PRACT,-0.292882,51.386515
67427.58,THE YELLOW PRACTICE,-0.406024,51.380924
63059.9100000001,BROKEN CROSS SURGERY,-2.12262,53.257964
192830.44,WARLEY MEDICAL CENTRE,-2.006757,52.468122
13813.25,ROTH. NHS FT COMM. SERV,-1.358666,53.434741
32327.84,GOVIND HEALTH CENTRE,-1.532784,52.400277
43458.67,WILLIAM HARVEY SURGERY,0.597963,51.593347
2615.59,C.V.W. CASTLEBERG 1,-2.292211,54.069558
65711.06,TRI-LINKS MEDICAL PRACTICE,-1.664038,52.634849
291.06,OLDHAM 7 DAY ACCESS HUB3 OOH,-2.156747,53.509855
128.08,MERIDIAN HOUSE - AIREWHARFE CMHT,-1.895521,53.873987
35388.99,THE SURGERY FODEN STREET,-2.188242,52.997045
46681.92,MAYTREES MEDICAL PRACTICE,-2.563371,51.470243
260.35,WORCESTER CMHT,-2.217086,52.192053
75703.08,APPLEBY MEDICAL PRACTICE,-2.492993,54.578082
140725.88,CENTRAL GATESHEAD MEDICAL GROUP,-1.604307,54.956479
110063.1,TORRIDON ROAD MEDICAL PRACTICE,-0.002112,51.44011
56261.6999999999,THE WHITE HOUSE SURGERY,0.088164,51.534004
93214.9999999999,BIRCHES HEAD MEDICAL CTR.,-2.154096,53.035667
526037.18,HAXBY GROUP PRACTICE,-1.081866,54.019329
5652.46,NEWCASTLE DIABETES CENTRE,-1.644546,54.976238
18122.91,ROCHDALE AND OLDHAM ACTIVE RECOVERY,-2.156353,53.615191
59578.22,VALE DRIVE MEDICAL PRACTICE,-0.194727,51.648828
126825.66,THE ERIC MOORE PARTNERSHIP,-2.59716,53.393404
34428.87,DR DP SHAH'S PRACTICE,0.160037,51.545122
92586.7700000001,PRESCOTT SURGERY,-2.852689,52.784345
118745.92,DR AHMAD & PTNRS,-2.595925,53.522279
46753.12,HORNE STREET SURGERY,-1.871717,53.725678
813.87,COMMUNITY COPD SERVICES,-1.508005,52.413401
159749.81,CHISLEHURST MEDICAL PRACTICE,0.066938,51.419678
155442.12,THE REDWELL MEDICAL CENTRE,-0.701555,52.314792
333.3,ST JOHNS HOSPICE,-1.149142,53.500048
196071.79,THE ALDERGATE MED.PRACT.,-1.695644,52.639079
243626.98,POCKLINGTON GROUP PRACTICE,-0.781336,53.924503
163553.66,LOCKFIELD SURGERY,-2.057135,52.585445
19026.41,DR SOOD'S PRACTICE,-0.382386,51.483967
193148.85,MOUNT FARM SURGERY,0.742641,52.245214
234249.39,VALENTINE HEALTH PARTNERSHIP,0.061519,51.49221
81309.5999999999,DR AHMED & PARTNERS,-1.782551,53.655615
77700.5,NORTH CHELMSFORD NHS HCC,0.510815,51.750584
85919.9199999998,THE OAKWOOD SURGERY,-1.073937,53.506609
206605.94,CENTRE PRACTICE,-1.17634,50.853776
114788.86,MORETON HEALTH CLINIC,-3.112556,53.400453
154252.26,JUBILEE STREET PRACTICE,-0.050552,51.513595
86394.8400000001,HIGH STREET MEDICAL CENTRE,-2.595495,53.47988
39891.99,DERWENT MEDICAL CENTRE,-1.480751,52.929325
13446.11,BARDOC GP OOH,-2.427769,53.590447
100203.17,SHEEPCOT MEDICAL CENTRE,-0.412898,51.695192
105909.64,DEER PARK FAMILY MEDICAL PRACTICE,-1.230829,52.949242
189401.79,THE MEDICAL CENTRE  DRIFFIELD,-0.439676,54.006257
46006.7000000001,THE NEW SURGERY,-0.235578,51.506058
84910.6099999998,LAMBETH WALK GROUP PRACTICE,-0.112591,51.495609
61465.28,LEANDER ROAD SURGERY,-0.117457,51.399457
111325.14,CHELSFIELD SURGERY,0.104017,51.355726
161014.2,CANFORD HEATH GROUP PRACT,-1.964765,50.741327
220516.08,YAXLEY GROUP PRACTICE,-0.251101,52.516866
60980.4100000001,BOLTON MEDICAL CENTRE,-2.431399,53.56543
8377.35,CORNWALL 111 OOH,-5.097984,50.265937
95053.96,TEMPLE HOUSE PRACTICE,-2.498229,51.409833
40798.97,THE CRANE,0.535827,51.09887
375.8,EAST HULL FAMILY PRACTICE,-0.268619,53.77908
161992.08,MANOR HOUSE LANE SURGERY,-1.802707,52.461306
100902.81,BRIDGE STREET SURGERY,-0.495121,53.551684
30407.54,MELROSE SURGERY,-1.287301,54.609397
41366.2399999999,MEDICAL CENTRE CAMELFORD (DR GARROD),-4.676789,50.624027
133620.51,MACKLIN STREET SURGERY,-1.481767,52.92115
133858.54,POLDEN MEDICAL PRACTICE,-2.87579,51.150216
1683.55,RUNCORN GP EXTRA,-2.727045,53.331865
96918.3300000001,LIMES MEDICAL CENTRE,-1.387885,53.098493
6269.87,WASHWOOD HEATH URGENT CARE CENTRE,-1.849921,52.487617
1661.21,BCH HEART FAILURE SERVICE,-2.55823,51.482972
214239.35,ABBEY MEADS MEDICAL PRACT,-1.792794,51.597826
221930.52,CHEVIOT ROAD SURGERY,-1.455974,50.921365
840.92,COMMUNITY DERMATOLOGY SERVICE,-1.508005,52.413401
301.02,CRISIS RESPONSE TEAM,-2.186902,53.52264
160008.74,ST NEOTS SURGERY,-4.160899,50.387979
709.52,NEWARK ACUTE HOME VISITING SERVICE,-1.238124,52.98146
31593.85,SHEERWATER HEALTH CENTRE,-0.530722,51.334156
154497.59,LIQUORPOND SURGERY,-0.025925,52.9735
84312.9099999999,FORDINGTON SURGERY,-2.42746,50.713004
264199.77,SHAFTESBURY MEDICAL CTR.,-1.497858,53.800234
40858.05,CPT WORTHING,-0.375414,50.817416
52717.17,BURNSIDE SURGERY,-2.424635,53.592518
88355.76,HIGHGROVE SURGERY,0.098727,51.538564
75755.99,MEDICENTRE,-2.643055,53.494018
61706.12,MARKET OVERTON & SOMERBY SURGERIES,-0.684769,52.739345
74478.4699999999,RICHMOND MEDICAL CENTRE,-2.384874,53.752328
64643.58,TWIN OAKS MEDICAL CENTRE,-1.737739,50.781308
112286.1,STONELEIGH SURGERY,-2.770704,54.227277
99813.24,WESTMINSTER MEDICAL CENTRE,-2.97836,53.44083
58450.37,DESFORD MEDICAL CENTRE,-1.296116,52.627473
117038.29,WILMSLOW HEALTH CENTRE,-2.237324,53.322922
139708.47,MANOR FARM MEDICAL CENTRE,0.690513,52.648544
46.86,CATARACT SERVICE AT EVMC,1.012662,51.340885
207772.49,RAVENSWOOD MEDICAL PRACTICE,1.199377,52.030367
68536.2699999999,CHESSINGTON PARK SURGERY,-0.312059,51.359148
430.24,HMP LOWDHAM GRANGE,-1.038109,53.016096
4604.8,ASHTON  LEIGH & WIGAN OOH,-2.614585,53.534922
128418.07,DR SINHA & PARTNERS,0.100204,53.030138
103.26,HMP BULLINGDON,-1.094423,51.848497
73949.1500000001,ROSEWORTH SURGERY,-1.61867,55.001366
77453.92,THORPE HESLEY SURGERY,-1.432602,53.458647
48620.16,BANK HOUSE SURGERY,0.069949,51.359218
114015.27,STATION ROAD SURGERY,0.102029,51.431445
168426.17,ADDISON HOUSE - HAQUE PRACTICE,0.088979,51.770891
64809.4399999999,CALDBECK SURGERY,-3.050622,54.749864
4955.14,NON MEDICAL PRESCRIBERS,-0.801989,51.797983
111144.78,AWBURN HOUSE MEDICAL PRACTICE,-2.011,53.458105
2288.05,IC24-ASHFORD CCG-OOH,0.891514,51.129106
60226.4600000001,DR COLLINS AND CARRAGHER,-0.311771,52.006602
192972.44,MOUNT CHAMBERS MEDICAL PRACTICE,0.552722,51.879812
1248.84,DR A K JHA (SH),-2.164492,53.856587
56484.85,HOWELL SURGERY,0.398895,51.150874
7497.78,SOUTHAMPTON PRIMARY CARE HUBS,-1.317099,50.913217
2687.33,EDGWARE WIC,-0.271242,51.606493
114657.43,THE MUSWELL HILL PRACTICE,-0.141215,51.59225
124194.6,THE BARKANTINE PRACTICE,-0.025725,51.500806
105595.96,ABBEY ROAD SURGERY,-3.224778,54.109942
65824.9799999999,MANOR PRIMARY CARE,-2.764643,53.549695
6.38,QVM HOSPITAL,-0.222867,51.827957
1253.84,7 DAY ACCESS MIDDLETON HC,-2.172588,53.54895
137540.45,CONSTABLE COUNTRY RURAL MEDICAL PRACTICE,1.026191,51.977179
114874.85,BEECH HOUSE MEDICAL PRACT,-2.118146,53.379406
195602.1,COQUET MEDICAL GROUP,-1.580504,55.332599
202300.27,WARLINGHAM GREEN MED PRAC,-0.057218,51.312278
134135.36,THE MANOR HOUSE SURGERY,-1.159231,54.557403
84124.3600000003,THE SURGERY - 48 MULGRAVE ROAD,-0.196293,51.358332
250.09,DERMATOLOGY SERVICE,-2.635267,53.445979
55707.49,WEST TOWN SURGERY,-0.443862,53.685751
38716.88,HOLLINGTON SURGERY,0.872487,51.151423
87462.0899999999,WAKE GREEN SURGERY,-1.883357,52.446103
1031.25,CROYDON SOUTH & CENTRAL EXTENDED ACCESS,-0.114466,51.34074
49875.55,MEDICAL CENTRE CAMELFORD (DR NASH),-4.676789,50.624027
118696.73,FALLODON WAY MEDICAL CENTRE,-2.609541,51.483068
133052.51,HIGHCROFT SURGERY,-1.12882,53.00411
51402.3,RIVERSIDE FAMILY PRACTICE,-2.238948,53.791326
89781.9800000001,DALTON SURGERY,-1.751038,53.644598
70652.52,HOUNSLOW MEDICAL CENTRE,-0.37684,51.469395
137042.79,THE CEDARS SURGERY,0.173742,51.395873
27199.27,KINCORA DOCTORS SURGERY,-0.412216,51.511666
144434.4,LARKSFIELD SURGERY MEDICAL PARTNERSHIP,-0.235113,52.017132
100321.42,SPRING TERRACE HEALTH CENTRE,-1.450673,55.010941
2777.37,MIAMI CLINIC - ST LAWRENCE SURGERY,-0.390026,50.823979
96776.29,NORTHGATE VILLAGE SURGERY,-2.892972,53.195093
57822.63,CROSLAND MOOR SURGERY,-1.809637,53.63841
164867.3,HARCOURT MEDICAL CENTRE,-1.800762,51.067489
396877.88,PEMBROKE MEDICAL GROUP,-3.560246,50.445527
39254.13,HORNDON-ON-THE-HILL SURGERY,0.405746,51.523749
94363.7,AELFGAR SURGERY,-1.937701,52.763581
156137.07,ORCHARD MEDICAL CENTRE,-2.510659,51.462087
134704.15,WEST END SURGERY,-1.327291,50.928501
34805.92,WYRE FOREST COUNTYWIDE NURSES,-2.244954,52.387785
69505.93,LAKESIDE,-2.203683,52.595468
76669.17,CHURCH END MEDICAL CENTRE,-0.253241,51.54757
82714.3300000002,WILLIAM FISHER MED.CTR.,0.826913,51.662819
150308.33,GREAT BRIDGE P/SHIP FOR HEALTH,-2.032577,52.528908
313.75,TORBAY NMP SPECIALIST,-3.552785,50.48778
108415.2,THE REYNARD SURGERY,0.484029,52.302685
204.1,MYDDLETON ROAD SURGERY,-0.115662,51.606554
1050.23,RAM PATEL (DERMATOLOGY),-1.03822,52.946139
39.55,HV RICHMONDSHIRE,-1.517573,53.993807
189096.58,ENDERLEY ROAD MEDICAL CENTRE,-0.340469,51.601872
197380.54,THE GRANGE GROUP PRACTICE,-1.781351,53.662292
13501.78,TURNING POINT CROYDON RECOVERY NETWORK,-0.103547,51.370114
92633.7400000003,ELIZABETH AVENUE GROUP PRACTICE,-0.091905,51.539023
100283.79,CONTINENCE SERVICE PROJECT,-2.181199,53.500995
28899.62,ECCLES GATEWAY MEDICAL CENTRE,-2.339314,53.48253
1186.32,NORTHVILLE FAMILY PRACTICE,-2.570103,51.50079
147295.34,HALESOWEN MEDICAL PRACTICE,-2.059137,52.444056
74947.0299999999,HIGHERLAND SURGERY,-2.232632,53.009021
229343.49,FAILSWORTH GROUP PRACTICE,-2.156747,53.509855
137752.58,FELDON LANE PRACTICE,-2.028271,52.467325
66163.77,DRS CHALMERS & MEIER,-0.066189,53.557292
111349.61,PRICES MILL SURGERY,-2.224938,51.693801
3.64,COMMUNITY MENTAL HEALTH,-1.445534,52.42244
14795.59,PELC REDBRIDGE OOH,0.066648,51.55684
35820.25,SAXENA L,-2.668958,53.521291
54316.52,CRADLEY SURGERY,-2.402119,52.118284
288569.31,LORDSWOOD HOUSE GROUP MEDICAL PRACTICE,-1.961221,52.459054
4.91,EAST CLUSTER IAGPS,-1.82052,50.747482
26711.81,TURNING POINT LEICESTER & LEICESTERSHIRE,-1.127621,52.637554
196656.37,STOCKTON HEATH MED.CENTRE,-2.582161,53.37195
67715.11,CGL NORFOLK,1.315558,52.62367
112054.45,CENTRAL SURGERY,-2.74261,53.456686
91032.0600000001,CROSBY HOUSE SURGERY,-0.599437,51.517962
19529.77,GLOUCESTER ROAD SURGERY,-0.183052,51.647272
145846.06,THREE VILLAGES MEDICAL PRACTICE,-2.146398,52.465406
6689.65,MEDICUS HEALTH PARTNERS-MOORFIELD ROAD,-0.047082,51.660296
107900.03,SWANSWELL MEDICAL CENTRE,-1.816529,52.432515
78627.24,TOOTING SOUTH MEDICAL CENTRE,-0.161461,51.421738
133799.56,STAPENHILL MEDICAL CENTRE,-1.624908,52.785524
121365.72,DENMEAD HEALTH CENTRE,-1.067347,50.904386
96.12,RHEUMATOLOGY DEPARTMENT,-2.095555,52.599722
70335.85,SOUTH PARK MEDICAL PRACTICE,0.189702,51.270005
272741.97,AW SURGERIES,-2.122432,52.482313
61349.57,WAYSIDE MEDICAL PRACTICE,-0.165912,51.173238
1358.6,SOUTH HORNCHURCH WALK IN CENTRE,0.192085,51.533441
141442.48,COTSWOLD MEDICAL PRACTICE,-1.75678,51.886317
177157.18,MOUNT PLEASANT MED CENTRE,-1.637294,53.707036
41558.66,THE LORDSHIP LANE SURGERY,-0.073221,51.448369
161516.92,NEASHAM ROAD SURGERY,-1.542648,54.517256
148503.47,SWINESHEAD SURGERY,-0.158921,52.940616
187635.25,KING GEORGE SURGERY,-0.206096,51.907416
78871.9800000001,MAWBEY GROUP PRACTICE,-0.125232,51.479283
82926.87,THE KAKOTY PRACTICE,-1.473444,53.5464
190048.99,NEW SOUTHGATE SURGERY,-1.50415,53.692762
84619.82,HALDON HOUSE SURGERY,-3.416301,50.619764
102441.71,MARKFIELD MEDICAL CENTRE,-1.272985,52.685255
136816.63,THE ROCKWELL AND WROSE PRACTICE,-1.744408,53.822997
65378.4000000002,ASHLEY SURGERY,-2.355514,52.925782
11427.46,ROSSLYN HILL SURGERY,-0.170852,51.554201
31771.25,CHILDS (THAMESIDE),-0.326599,51.427449
155737.93,THE GROUP PRACTICE ALFRED SQUIRE ROAD,-2.080754,52.599417
96485.4000000001,DR M ASLAM'S PRACTICE,0.510532,51.57811
345.1,GAINSEA,-0.780581,53.411776
5870.47,ACE,0.921589,51.923793
87429.2300000002,NORTHLANDS WOOD SURGERY,-0.081209,50.996531
78217.6599999999,BROOK HOUSE SURGERY,-1.445882,50.921794
142447.21,WEST ROAD SURGERY,0.70187,51.544989
600765.43,WHITSTABLE MEDICAL PRACTICE,1.012662,51.340885
96970.1199999999,EARLS BARTON MEDICAL CENTRE,-0.758162,52.264648
30617.22,GREAT HOLLANDS PRACTICE,-0.770726,51.398661
11475.38,CGL READING,-0.981474,51.453788
152979.57,VEOR SURGERY,-5.299615,50.209958
34355.1000000001,HEATHWAY MEDICAL CENTRE,0.152111,51.535187
28375.03,BIRTLE VIEW MEDICAL PRACTICE,-2.2277,53.595186
1376.89,COMMUNITY DERMATOLOGY CLINIC,0.01625,51.510991
94268.08,RIVER PLACE HEALTH CENTRE,-0.09656,51.540513
66961.1500000001,MILLBROOK SURGERY  CASTLE CARY,-2.51716,51.087618
118018.87,BLACKETTS MEDICAL PRACTICE,-1.559007,54.527221
19884.83,AL-SHIFA MEDICAL CENTRE,-2.229695,53.433705
100722.21,SUN LANE,1.087469,51.071536
9277.27,TORBAY AND SOUTHERN DHCT,-3.552785,50.48778
100477.33,KINGSWOOD SURGERY,-1.517051,53.991495
176202.77,CROFT MEDICAL CENTRE,-1.727743,52.477876
75747.42,KNIGHTWICK SURGERY,-2.394831,52.200399
108737.93,ST ANDREWS MEDICAL PRACTICE.,-0.17238,51.630138
101842.24,CHAPEL ROW SURGERY,-1.17086,51.425877
106526.85,BELMONT & SHERBURN MEDICAL GROUP,-1.52816,54.786148
56629.3600000001,UEA MEDICAL CENTRE,1.241391,52.622369
132747.02,STAUNTON GROUP PRACTICE,-0.112926,51.599388
56536.49,MODALITY DARLASTON PRACTICE,-2.036323,52.56617
4866.55,GPSI DERMATOLOGY SERVICE BUCKDEN HUNTS,-0.254174,52.291764
83400.1700000001,BROCKHURST MEDICAL CENTRE,-1.15337,50.808243
71285.1400000001,HADEN VALE SURGERY,-2.073333,52.466347
149023.9,KESTON MEDICAL PRACTICE,-0.114466,51.34074
122167.96,HEATHCOTE MEDICAL CENTRE,-0.228084,51.294799
184202.21,THE AVENUE MEDICAL CENTRE,-2.211676,53.533178
70741.9100000001,DR CURRAN & PARTNERS,-0.136034,51.465148
10533.66,NCH&C COMMUNITY NURSES (WEST),0.410147,52.749129
100441.5,HAPPY HOUSE SURGERY,-1.422785,54.885012
176493.17,PRIORY FIELDS SURGERY,-0.179856,52.332272
47928.32,SOUTHEND MEDICAL CENTRE,0.708516,51.540069
1799.93,EVMC DERMATOLOGY CLINIC,1.012662,51.340885
9.93,ARDEN MH ACUTE TEAM,-1.445534,52.42244
191695.6,BLACKWATER MEDICAL CENTRE,0.68095,51.728379
8695.55,WHITTINGTON HEALTH (ISLINGTON),-0.139066,51.566482
3307.02,HOMERTON NMP'S,-0.046099,51.550634
5840.94,HARROGATE OOH,-1.517573,53.993807
185526.57,TUDOR MEDICAL CENTRE,-2.136002,52.594673
137265.62,MARTONSIDE MEDICAL CENTRE,-1.220329,54.553175
54666.57,THE MOORINGS MEDICAL PRACTICE,-0.095892,51.322229
159165.18,BRADSHAW MEDICAL CENTRE,-2.688594,53.537889
221869.42,COLLEGE SURGERY PARTNERSHIP,-3.392716,50.864169
139949.73,ELMS MEDICAL PRACTICE,-0.352007,51.818895
236929.21,THE RED HOUSE GROUP,-0.317147,51.68273
168172.300000001,MILL BANK,-2.118627,52.80489
101717.88,ST JOHNS MEDICAL CENTRE,-0.0222,51.467393
32423.32,THE CIVIC MEDICAL CENTRE,-0.337497,51.587155
32309.32,ISLIP MANOR MEDICAL CENTRE,-0.372994,51.547315
240201.95,LOVEMEAD GROUP PRACTICE,-2.202601,51.31857
181710.24,CROUCH OAK FAMILY PRACTICE,-0.490757,51.371507
156585.22,NORTH THORESBY SURGERY,-0.056751,53.46502
120811.99,KINGSFIELD MEDICAL CENTRE,-1.89301,52.427278
233.6,KINGSNORTH GYNAECOLOGY,0.859919,51.1207
49574.67,PARLIAMENT HILL SURGERY,-0.145468,51.555169
61.64,CARE HOME LIAISON TEAM,-2.614585,53.534922
145862.72,PARKFIELD MEDICAL CENTRE,-0.179588,51.695129
9996.72,COMMUNITY PAEDIATRICIANS,0.025373,51.395313
53300.4100000001,THE PINE MEDICAL CENTRE,-0.416838,51.527591
105241.5,BURDWOOD SURGERY,-1.244202,51.396133
25381.09,MEDIC HOUSE,0.362131,51.462932
642.99,WIGAN & LEIGH RECOVERY TEAM,-2.512253,53.504428
98900.97,BELMONT MEDICAL CENTRE,-2.739476,52.041288
48695.45,ARDEN MEDICAL CENTRE,-1.744762,52.379799
215456.87,CASTLE PARTNERSHIP,1.298303,52.633973
147.6,COMMUNITY COPD CLINIC,-1.435213,53.333016
3305.05,HARROW DARS WDP,-0.343086,51.577963
22881.37,NEW ROAD MEDICAL CENTRE,-1.939238,52.648704
660.86,SUSSEX DOWN AND WEALD SPECIAL SCHEME,0.294614,50.773566
189416.54,SANDY LANE SURGERY,-1.937103,52.75674
52918.87,CHOLMLEY GARDENS SURGERY,-0.195423,51.552261
176.8,LOUGH OOH,-0.008582,53.37101
40244.55,MITCHLEY AVENUE SURGERY,-0.092485,51.32998
36365.64,GATEACRE MEDICAL CENTRE,-2.85753,53.385435
269390.99,BEACON HEALTH GROUP-DANBURY MEDICAL CTR,0.587566,51.716669
170525.98,THE SUMMERHILL SURGERY,-2.171615,52.496514
36993.2,SCHOOL LANE PMS PRACTICE,0.749246,52.412444
89792.61,BELLINGHAM GREEN SURGERY,-0.02426,51.430378
130917.57,BOUNDARY HOUSE MEDICAL CENTRE,-2.288936,53.415635
92590.9700000003,HILL LANE SURGERY,-1.41571,50.915802
20125.22,AVENUE MEDICAL PRACTICE,-1.603419,54.988036
103744.98,SPRING HALL GROUP PRACTICE,-1.892899,53.721064
54618.38,KINGSHOLM SURGERY,-2.239023,51.868028
191708.78,SILVERDALE MEDICAL CENTRE,-2.267264,53.015627
274.78,COMMUNITY DIABETES CLINIC,-0.419303,51.505917
193360.64,ARLINGTON ROAD SURGERY,0.277559,50.768189
162970.65,THE SHREWSBURY CENTRE,0.043312,51.540929
123172.45,LEEN VIEW SURGERY,-1.196589,52.998051
225988.19,HEATHERVIEW MEDICAL CTR.,-1.913033,50.739773
1044.98,GP EXTENDED ACCESS - HARROGATE,-1.529793,53.996354
62800.59,CONNAUGHT SQUARE PRACTICE,-0.164264,51.513974
84083.42,ABERCROMBY FAMILY PRACTICE,-2.961744,53.399032
128709.75,BRIDGE HOUSE MEDICAL CENTRE,-1.709788,52.190536
12.76,AQP ANTICOAG RIDGACRE MEDICAL CENTRE,-1.99011,52.460912
277.86,AQP ANTICOAG SOUTH DOC DOVECOTE SURGERY,-1.994863,52.464059
133503.56,CAVERSHAM GROUP PRACTICE,-0.138116,51.550467
126961.81,COUNTESTHORPE HEALTH CENTRE,-1.136767,52.554536
18096.29,THE GOLBORNE MEDICAL CENTRE,-0.206303,51.524023
100071.95,CHARNOCK HEALTH PRIMARY CARE CENTRE,-1.420724,53.342996
71657.3,PARKFIELDS SURGERY,-1.432388,52.898298
452.21,THE HEATON MEDICAL PRACTICE,-1.808133,53.81642
38930.34,CHAPELTOWN FAMILY SURGERY,-1.526199,53.811432
38309.2,DR VASANTH,-2.500811,53.527489
26636.33,DR GI JONES' PRACTICE,-1.471058,53.166526
68664.44,RIVERBANK MEDICAL SERVICES,-1.152629,53.207243
34471.26,HARDEN HEALTH CENTRE,-1.985958,52.608552
76809.5600000001,HARSTON SURGERY,0.073806,52.138364
62738.8200000001,HOYLAND HOUSE,-2.194177,51.790995
54630.8100000001,HATCH END MEDICAL CENTRE,-0.377077,51.606242
170146.49,WIBSEY & QUEENSBURY MED P,-1.779715,53.767225
12357.13,DERMATOLOGY CLINIC,-1.899142,52.505172
200655.89,JORVIK GILLYGATE PRACTICE,-1.077772,53.959168
39564.41,VALLEY ROAD SURGERY,-0.119424,51.428616
124014.97,CHATSWORTH ROAD MEDICAL CENTRE,-1.467337,53.231374
4.18,COMMUNITY PHYSIOTHERAPY SERVICES,-1.214805,54.551755
159814.11,PRESTON GROVE MEDICAL CENTRE  YEOVIL,-2.644279,50.94185
20.61,MAPPERLEY PARK MEDICAL CENTRE,-1.146455,52.96828
1.05,HMP NOTTINGHAM,-1.155058,52.984531
255363.57,NORTH CLACTON MEDICAL PRACTICE,1.162631,51.818131
254207.35,FINCHAMPSTEAD PRACTICE,-0.858066,51.375104
141573.81,SHERBURN GROUP PRACTICE,-1.253519,53.798594
65286.42,BOURN SURGERY,-0.063404,52.193155
897.18,WORKING AGE ADULTS - STONEBOW UNIT,-2.705709,52.057013
90776.74,DR BHATE SURGERY,-1.37324,54.905516
192550.69,OSMASTON SURGERY,-1.467954,52.911084
178275.35,BISHOPS WALTHAM SURGERY,-1.212149,50.95528
146440.83,BROOK SQUARE SURGERY,-0.409328,54.281789
154.24,DCHS BEDS WITH CARE,-1.441882,53.221288
46654.01,BORSTAL VILLAGE SURGERY,0.482446,51.372102
85534.3100000001,BROOK MEDICAL CENTRE,-0.803796,52.255823
37860.42,THE MARSHSIDE SURGERY,-2.963125,53.671433
37286.06,CITY OF COVENTRY HEALTH CENTRE,-1.508005,52.413401
54650.06,ULLAH M,-2.595925,53.522279
99152.2300000001,ST.MARY'S MEDICAL CENTRE,0.497526,51.397836
3666.64,RBWM DAAT,-0.711361,51.522098
38246.68,WALSALL WOOD HEALTH CENTRE,-1.927755,52.629621
98911.5900000001,MADELEY PRACTICE,-2.345126,52.999856
1332.76,THE SHELDON PRACTICE,-0.215603,51.555924
88089.7200000001,SHADBOLT PARK HOUSE SURG,-0.252507,51.376451
5.22,HEALTH INCLUSION TEAM,-1.435213,53.333016
40.24,STELLAR HEALTHCARE ORTHOPAEDICS,0.12393,51.704295
218536.33,HILDENBOROUGH MEDICAL GROUP,0.243873,51.215118
13360.23,THE MATTHEWMAN PRACTICE,-0.149281,51.545823
50655.9299999999,CHURCH LANE - KHAN,-1.793962,52.487056
98951.6400000002,DEVON SQUARE SURGERY,-3.60508,50.529985
72031.91,UPWELL STREET SURGERY,-1.434724,53.406424
288375.17,EAST LINDSEY MEDICAL GROUP,0.002264,53.362241
134795.84,MATTISHALL SURGERY,1.034195,52.658795
4016.35,ROTHERHAM HOSPICE,-1.340784,53.424046
384207.919999999,ASHFORD MEDICAL PARTNERSHIP,0.898839,51.136741
390.82,BMI BEARDWOOD HOSPITAL,-2.513177,53.755038
142977.95,LOW MOOR SURGERY,-1.769897,53.75385
82941.78,ST ELIZABETH'S MEDICAL CENTRE (JA WOOD),-1.061189,52.648257
94756.4100000001,PENNINE DRIVE PRACTICE,-0.208882,51.568477
103859.33,THE CEDARS SURGERY,-0.72004,51.52561
135454.22,LONGTON HEALTH CENTRE,-2.780194,53.727756
71716.93,OWLTHORPE MEDICAL CENTRE,-1.375862,53.33869
93978.7200000002,ST ANDREWS HEALTH CENTRE,-0.014302,51.523949
151216.02,WONERSH SURGERY,-0.545609,51.197393
1931.23,RAINBOW HEALTH CENTRE,-0.109304,51.395046
2344.25,WEST CAMHS - KIRKSTALL,-1.599694,53.817164
18280.5,COMMUNITY NURSE PRESCRIBERS,-0.103268,51.381027
119232.08,HOLLIES MEDICAL CENTRE,-1.494834,53.363179
51176.94,COMMUNITY HEALTH NEWHAM,-0.072273,51.516339
164138.53,GALLERIES MEDICAL PRACTICE,-1.531242,54.898814
4840.35,SUFFOLK GP FEDERATION OOH,1.164244,52.044508
78688.63,GLEN ROAD MEDICAL CENTRE,0.03253,51.522221
80010.74,THE WOLDS VIEW PRIMARY CARE CENTRE,-0.215754,54.086552
1.91,SEVERN HOSPICE TELFORD,-2.5145,52.714988
184.19,CPFT SPECIALIST SERVICE HUNTS,-0.207095,52.336893
116015.91,COMMUNITY HEALTH CENTRE (ZS OSAMA),-1.113421,52.632387
133.56,DERMATOLOGY GPSWI,-0.340999,51.425838
187844.38,CHURCHILL MEDICAL CENTRE,-0.018466,51.618226
3.04,NEAS DARLINGTON CCG,-1.712365,54.969713
3907.24,THE PINN UNREGISTERED WIC,-0.382232,51.595076
155346.16,NAVENBY CLIFF VILLAGES SURGERY,-0.526297,53.103518
108544.01,PRINCE OF WALES GROUP SURGERY,-0.147117,51.546913
86848.6900000001,WEST POINT MEDICAL CENTRE,-2.197586,53.445978
16.65,NELC CHILDREN'S HEALTH PROVISION,-0.071571,53.573616
13.27,BURNAGE HEALTHCARE PRACTICE,-2.200433,53.43018
151392.41,DURNFORD MEDICAL CENTRE,-2.197033,53.554038
108855.65,TRINITY MEDICAL CENTRE,-0.158437,51.437554
2583.47,HOMELESS AND VIOLENT PATIENT SERVICE,-2.238316,51.866796
149965.41,THE DICCONSON GROUP PRACTICE,-2.644891,53.549467
228636.9,TALBOT MEDICAL CENTRE,-1.908934,50.748888
10137.45,CAMDEN HEALTH IMPROVEMENT PRACTICE,-0.138243,51.528275
102138.82,WHITLEY ROAD MEDICAL CENTRE,-2.2227,53.49493
1424.53,LONG EATON ON DAY SERVICE,-1.272531,52.901553
179275.64,AVISFORD MEDICAL GROUP,-0.61388,50.822687
30.27,COMMUNITY TEAM ST AUSTELL,-4.772363,50.327877
192974.95,ASHVILLE MEDICAL CENTRE PMS PRACTICE,-1.4569,53.543072
22054.62,CARRFIELD MEDICAL CENTRE,-1.465061,53.358636
64176.6699999999,WALNUT TREE PRACTICE,-2.357425,51.68003
7930.04000000001,URGENT CARE CENTRE NORTHWICK PARK HOSP,-0.322037,51.575407
25334.64,SIBFORD SURGERY,-1.479244,52.037614
212.12,R&B OA CMHT,-2.055662,52.344136
103735.77,THE GAINSBOROUGH PRACTICE,-0.73138,51.426252
251572.85,PORTISHEAD MEDICAL GROUP,-2.767318,51.482805
87471.8299999998,HONOR OAK GROUP PRACTICE,-0.041114,51.458097
60423.1700000001,FEATHERSTONE,-2.089566,52.645773
192735.44,STUBBINGTON MEDICAL PRACTICE,-1.215422,50.825008
3678.1,GP CARE WAKEFIELD OOH,-1.494838,53.679942
195432.01,FISHER MEDICAL CENTRE,-2.021408,53.96167
65796.21,HORNDEAN SURGERY,-0.991298,50.914995
87421.7000000001,MARKET STREET MEDICAL PRACTICE,-2.145635,53.478959
217014.95,LIBRARY HOUSE SURGERY,-2.633893,53.650664
83005.29,GOSSOPS GREEN MEDICAL CTR,-0.21648,51.107248
83268.5600000001,STROUD PRACTICE,-2.024533,52.58916
213589.75,CASTLEFIELDS HEALTH CENTRE,-2.691794,53.338807
219522.13,BLACK COUNTRY FAMILY PRACTICE,-2.071182,52.528846
129484.79,MARK STREET SURGERY,-2.144639,53.62423
63019.64,LAUNCESTON CLOSE SURGERY,-2.542488,53.183101
191387.21,CARITAS GENERAL PRACTICE PARTNERSHIP,-2.134599,53.395928
1383.7,COMPTON PALLIATIVE CARE TEAM,-2.172068,52.585801
79329.1300000001,COLNE ROAD SURGERY,-2.236848,53.801226
91554.4299999999,CASTLE GARDENS SURGERY,-4.140046,50.951639
114606.79,WATERSIDE MEDICAL CENTRE,-1.529997,52.283202
317802.3,THREE CHEQUERS MEDICAL PRACTICE,-1.794625,51.071924
95756.0299999999,GANTS HILL MEDICAL CENTRE,0.064452,51.577157
8466.29,THE GATE,-1.552396,54.52991
13.12,HEALTH VISITORS,-2.095555,52.599722
107342.39,SOUTH WIGHT MEDICAL PRACTICE,-1.287022,50.587616
68340.51,HOPWOOD MEDICAL CENTRE,-2.212052,53.587143
31333.13,THORNTREE SURGERY,-1.18346,54.565208
171702.44,AIR BALLOON SURGERY,-2.531438,51.459
92365.08,MINET GREEN HEALTH PRACTICE,-0.105204,51.475715
0.38,ANTICOAGULATION GP ADVISER,-0.19711,51.363031
125295.97,KINGSNORTH MEDICAL PRACTICE,0.859919,51.1207
6338.25,GRANTHAM ADDACTION,-0.643015,52.913139
46866.6300000001,27 BEAUMONT STREET,-1.26216,51.755081
168431.34,LANE END MEDICAL GROUP,-0.274866,51.615287
210090.01,LAUREL HOUSE SURGERY,-1.692825,52.636563
57666.47,RADFORD MEDICAL PRACTICE (KAUR),-1.167635,52.956339
86218.1800000001,MCKENZIE GROUP PRACTICE,-1.239266,54.660465
161599.43,BLUE DYKES SURGERY,-1.414353,53.167483
402124.72,ASPEN MEDICAL PRACTICE,-2.225797,51.865969
72801.56,REDFERN HEALTH CENTRE,-3.769118,50.238912
8643.26,HAVERING CCG,0.179796,51.579247
354943.059999999,BEACHES MEDICAL CENTRE,1.727734,52.577124
63885.61,WOOTTON VALE HEALTHY LIVING CENTRE,-0.527951,52.093688
52813.99,HILLSIDE HOUSE SURGERY,-2.842807,53.419526
124840.95,CHURCHFIELDS MEDICAL PRACTICE,-1.180398,52.978865
71815.7900000002,ST LAWRENCE ROAD SURGERY,-1.387829,53.180152
54883.4499999999,MILL ROAD SURGERY,0.150585,52.197163
104509.58,POTTERELLS MEDICAL CENTRE,-0.208602,51.726922
2802.1,NEWCASTLE GP IN A&E SERVICE,-1.618869,54.98022
6455.32,CAMDEN EXTENDED ACCESS SERVICE,-0.130607,51.529916
135389.27,HORTON PARK MEDICAL PRACTICE,-1.772791,53.785161
471834.650000001,ST AUSTELL HEALTH GROUP,-4.760416,50.344296
248354.82,WHITBY GROUP PRACTICE,-0.62317,54.485919
19119.42,FELTON SURGERY,-1.7113,55.298652
70561.77,SWARLAND AVENUE SURGERY,-1.578629,55.006365
87815.3999999999,CLAY LANE MEDICAL PRACTICE,-1.482836,52.412774
18193.64,MARILLAC HOSPITAL,0.307264,51.621757
235621.01,WHICKHAM COTTAGE MEDICAL CENTRE,-1.677226,54.94538
121614.08,POVEREST MEDICAL CENTRE,0.101265,51.39001
48463.56,INGLETON AVENUE SURGERY,0.104087,51.454007
2039.49,DONCASTER CENTRAL OLDER PEOPLE CMHT,-1.146558,53.497488
145.35,CONTINENCE SERVICE CGH,-2.071883,51.89212
47634.17,STUART CRESCENT HEALTH CENTRE,-0.110172,51.600434
86976.38,WAYFIELD ROAD SURGERY,0.530781,51.359826
44677.8,MATCHING GREEN SURGERY,0.481244,51.582852
27753.97,ZAIN MEDICAL CENTRE,-0.271242,51.606493
45.42,PUBLIC HEALTH SERVICES,0.020377,51.403879
91445.48,MITCHELDEAN SURGERY,-2.488369,51.865935
58909,WATERS EDGE MEDICAL CENTRE,-2.443972,53.192336
39865.96,BROWNLOW AT MARYBONE,-2.987806,53.411269
46700.13,NORTH LEVERTON SURGERY,-0.822245,53.332038
142085.49,WELTON FAMILY HEALTH CENTRE,-0.484843,53.306584
51851.08,ORRELL PARK MEDICAL CENTRE,-2.962942,53.462025
36969.57,ST ELIZABETHS CENTRE,0.089303,51.830298
342.36,CAMHS - STRATFORD,-1.7134,52.195265
115063.01,TINKERS LANE SURGERY,-1.900604,51.543578
29898.4,FAMILY DOCTORS,-1.440964,53.798248
75883.64,BRACONDALE MEDICAL CENTRE,-2.147089,53.393998
122713.68,DENTON PARK MEDICAL GROUP,-1.698725,54.993108
122690.74,BURTON CROFT SURGERY,-1.57692,53.820807
28531.36,NORHEADS LANE SURGERY,0.026739,51.314542
138092.12,THE SPINNEY MEDICAL CTR.,-2.757627,53.442443
34.57,T&G EXTENSIVIST SERVICE,-2.089243,53.488929
127856.59,HUNGERFORD MEDICAL CENTRE,-2.427003,53.09787
1495.8,WHHFT COMMUNITY NURSE PRESCRIBERS,-2.610717,53.393973
137134.43,CHURCH STREET PRACTICE,-0.459783,51.37345
66572.92,OMBERSLEY MEDICAL CENTRE,-2.229023,52.276554
91685.1299999999,MONKFIELD MEDICAL PRACTICE,-0.065978,52.218778
53664.4800000001,IMEARY STREET PRACTICE,-1.424863,54.98753
1181.78,WIGAN ASSESSMENT TEAM,-2.614585,53.534922
89901.9700000001,THE OLD SCHOOL MEDICAL PRACTICE,-1.142404,53.916163
137385.9,SALTERS MEDICAL PRACTICE,-2.153493,52.266877
104781.44,NEWBURN SURGERY,-1.743614,54.985644
37533.3,WARLEY ROAD SURGERY,-1.993726,52.490193
32354.39,ROSEHEATH SURGERY,-2.82558,53.359024
22498.55,THE SURGERY (BROOKE ROAD),-0.070755,51.560052
143811.5,BLAKEWATER HEALTH CENTRE,-2.473916,53.76497
97309.1200000001,ST.PAUL'S WAY MEDICAL CTR,-0.024483,51.517862
43525.06,GREAT BARFORD SURGERY,-0.351406,52.156171
96119.88,ST.AGNES SURGERY,-5.202589,50.310768
117216.21,THE WHITFIELD PRACTICE,-1.526509,53.779894
71515.2800000001,ST MELOR HOUSE SURGERY,-1.777291,51.171219
129088.01,MEDLOCK VALE MEDICAL PRACTICE,-2.142502,53.479062
110402.47,BEDMINSTER FAMILY PRACTICE,-2.594216,51.444159
34987.85,ABBEYSLADE PMS (DR CHAND),0.107443,51.487796
386988.58,BOROUGHBURY MEDICAL CENTRE,-0.245486,52.577858
92888.6199999999,THE NAYAR PRACTICE,-1.193379,53.480824
86818.0700000002,QUAYSIDE MEDICAL PRACTICE,-2.156747,53.509855
233635.21,FARNHAM ROAD PRACTICE,-0.617796,51.530427
130851.61,THE ELMS MEDICAL CENTRE,-2.892972,53.195093
2023.48,DERMATOLOGY CLINIC CECS,0.54113,51.879585
327.41,COASTAL HEALTH CARE WOUND CARE KIRKHAM,-2.878541,53.781939
295476.49,WELLWAY MEDICAL GROUP,-1.689718,55.169477
43970.5,WESTBURY MEDICAL CENTRE,-2.955353,52.67874
112119.11,ARTHUR MEDICAL CENTRE,-1.422636,53.001503
201728.09,IRIDIUM MEDICAL PRACTICE  RICHMOND PCC,-1.817518,52.478024
74141.1400000001,SPRING GROVE MEDICAL PRACTICE,-0.345443,51.474432
18720.37,HILL TOP PRACTICE,-2.011775,52.537791
115877.32,THE BLITHEHALE MED.CTR.,-0.065196,51.523775
22.42,ENT GPWSI TAVISTOCK HOSPITAL,-4.154685,50.547679
176700.55,THE KIRTON LINDSEY AND SCOTTER SURGERY,-0.594073,53.474089
382.88,RENNIE GROVE HOSPICE CARE,-0.677277,51.795192
94942.88,UNITY HEALTH,-1.029922,53.950316
158370.41,WALLACE HOUSE,-0.081701,51.796317
28370.82,MONMOUTH SURGERY,-2.367579,51.383191
114068.89,WHITTINGTON MOOR SURGERY,-1.431065,53.260996
91508.8800000001,ARUNDEL SURGERY,-0.567268,50.852881
27732.56,CLAPHAM JUNCTION MEDICAL PRACTICE,-0.173908,51.465969
82823.0700000001,FOWNHOPE MEDICAL CENTRE,-2.594618,52.007664
2013,ORTHOPAEDIC & RHEUMATOLOGY,-2.431198,53.576864
28748.16,DR JEHANGIR (SH),-2.21885,53.838042
175444.78,RIVERBANK MEDICAL CENTRE,-0.735087,50.993474
85950.8900000001,ST HILARY GROUP PRACTICE,-3.06136,53.422188
275.84,CHILD DEVELOPMENT TEAM HOUNSLOW,-0.371755,51.468263
125846.27,WYCHALL LANE SURGERY,-1.935566,52.409967
30689.11,ROWLANDS ROAD SURGERY,-1.806157,52.463271
389.53,DIABETES COMMUNITY SERVICE,-1.735746,51.554535
126429.47,DOWNING STREET GROUP PRACTICE,-0.798901,51.212905
127123.41,THE SALTSCAR SURGERY,-1.073638,54.616282
134788.7,CEDAR MEDICAL PRACTICE,-0.655287,53.570914
211761.8,PULBOROUGH MEDICAL GROUP,-0.509104,50.961138
251.56,FAIRHAVENS HOSPICE,0.67746,51.538273
106131.13,MARKET QUARTER MEDICAL PRACTICE,-1.252936,52.377534
105579.8,WHITCHURCH SURGERY,-1.340372,51.230256
100.39,NT&H COMM DIAB N DDES,-1.227837,54.702398
31893.46,PIKE MEDICAL PRACTICE,-2.045643,53.517861
31685.82,WYRE FOREST COMMUNITY NURSES,-2.244954,52.387785
55987.6299999999,FALMOUTH ROAD GROUP PRACTICE,-0.093122,51.496427
141418.24,LOCKSTOWN PRACTICE,-2.057135,52.585445
51709.12,SIMMONDLEY MEDICAL PRACTICE,-1.969041,53.43954
293725.63,THE PEARTREE PRACTICE,-1.339341,50.900324
30105.54,DR SP TALPAHEWA,-0.260303,51.616115
344388.26,TROWBRIDGE HEALTH CENTRE,-2.206779,51.325271
113011.12,THE WHITELEY SURGERY,-1.266072,50.88262
212702.95,CUMBERLAND HOUSE SURGERY,-2.12262,53.257964
100195.62,SONNING COMMON HEALTH CTR,-0.982114,51.515603
1670.26,7 DAY GP SERVICE,-3.011356,53.629265
81494.0500000001,GARSWOOD SURGERY,-2.681273,53.496386
28220.17,DR N SADDIQ'S PRACTICE,-1.605537,53.744776
467.93,MINOR INJURIES UNIT,-0.152663,52.802684
75103.38,CLOVER HEALTH CENTRE,0.068593,51.490359
100350.67,DEMONTFORT MEDICAL CENTRE,-1.938869,52.09226
74225.42,CASSIO SURGERY,-0.401058,51.656689
1052.97,DERMATOLOGY GPSI DEVONPORT HC,-4.167875,50.369991
87820.2900000001,LATCHFORD MEDICAL CENTRE,-2.561658,53.381001
350.09,WEALD CLUSTER,0.277462,51.194717
7.39,BAY MEDICAL GROUP EXTENDED OOH,-2.859565,54.072841
140119.1,LONGROVE SURGERY,-0.204664,51.654244
610.86,SOUTH COTSWOLD LOCALITY NURSE PRESCRIBER,-2.176389,51.847073
109797.05,STONEBRIDGE SURGERY,-2.608242,53.827609
88650.23,PROSPECT SURGERY,-1.583343,53.681523
176224.16,FORDINGBRIDGE SURGERY,-1.793531,50.928159
40255.83,DR MAHMOOD & PARTNERS,-1.661589,53.677829
218999.11,THE PENDLE MEDICAL PARTNERSHIP,-2.144307,53.915882
102950.82,THE PHOENIX PRACTICE,-0.223569,51.587311
167763.18,OAKESWELL HEALTH CENTRE,-2.013776,52.5542
70520.7500000001,CHARLTON HOUSE MEDICAL CENTRE,-0.069309,51.595299
104458.8,SUTTON VALENCE GROUP PRACTICE,0.59403,51.211195
127711.38,KINGSWOOD SURGERY,-1.754341,51.556256
78191.54,CARNON DOWNS SURGERY,-5.091905,50.22345
59447.58,LONGVIEW MEDICAL CENTRE,-2.825032,53.415399
163588.280000001,LAVANT ROAD SURGERY,-0.781051,50.853385
192807.35,TANFIELD VIEW MEDICAL GROUP,-1.701373,54.869939
296.33,SWADLINCOTE EXTENDED ACCESS,-1.559331,52.774889
123763.41,BRIDGE LANE GROUP PRACTICE,-0.167394,51.474142
61583.9699999999,WINTON HEALTH CENTRE,-1.876372,50.739605
57588.95,BHF LUNDWOOD SURGERY,-1.438538,53.557711
7007.77,PHOENIX WALK IN CENTRE,-2.095555,52.599722
2356.05,IC24 LTD (HORSHAM & MID SUSSEX OOH),0.891514,51.129106
97291.8100000001,PADGATE MEDICAL CENTRE,-2.556188,53.406509
24940.1,THE BEDFORD PARK SURGERY,-0.262302,51.49598
1672.17,SOUTH YORK HEART FAILURE NURSES,-1.082907,53.951837
38167.14,GARRETTS GREEN LANE SURGERY,-1.788691,52.468447
138912.75,SUTHERLAND LODGE SURGERY,0.482571,51.725662
277229.19,EASTGATE MEDICAL GROUP  HORNSEA,-0.16825,53.915277
103514.41,WESTBOURNE MEDICAL GROUP,-1.495464,54.866868
67131.84,THE HOLLIES FAMILY SURGERY,-3.061442,53.55525
248512.85,MIRIAM PRIMARY CARE GROUP,-3.04649,53.398246
38018.8700000001,HUNTLEY MOUNT MEDICAL CENTRE,-2.27859,53.600201
78880.1499999999,THE ORCHARD PRACTICE,-0.303542,51.369116
111049.88,LAKENHAM SURGERY,1.296577,52.6183
47523.75,B'WATER CH CN WARRINGTON,-2.628343,53.415482
19267.14,SPECIALIST SERVICES,-1.441882,53.221288
74313.05,THE ACORN & GAUMONT HOUSE SURGERY,-0.06645,51.474157
501476.009999999,THE ADAM PRACTICE,-2.07822,50.757881
125034.28,NEWTOWN MEDICAL PRACTICE,-2.669697,53.538479
133612.44,MATHER AVENUE SURGERY,-2.892382,53.365377
12405.67,WESTCOTES GP SURGERY (TWO),-1.15115,52.628609
4585.07,W HANTS SW COMM DERM SERVICE,-2.455551,53.733223
139908.43,MARSH MEDICAL PRACTICE,0.143689,53.445069
330.14,HMP HEWELL,-1.986589,52.324784
19931.14,BOLTON COMMUNITY DRUG AND ALCOHOL SERV,-2.436998,53.577146
37836.88,PALMERSTON ROAD SURGERY,0.044819,51.626871
255309.75,BIRTLEY MEDICAL GROUP,-1.576441,54.891881
159703.28,TOWNHILL MEDICAL PRACTICE,-0.102825,51.290561
156526.11,DORRIDGE SURGERY,-1.752074,52.372757
97750.4300000001,THE CORINTHIAN SURGERY,-2.0815,51.906706
16222.2,BROMLEY GP ALLIANCE,-0.033209,51.405232
137093.21,RYE MEDICAL CENTRE,0.730363,50.961944
122711.39,OAKLANDS HEALTH CENTRE,-1.784282,53.577106
188512.99,HIGH STREET SURGERY,1.756043,52.482123
70916.32,FAIRMORE MEDICAL PRACTICE,-2.280663,53.70081
3686.04,BRIDGEWATER CH COMM NURSES ST HELENS,-2.527537,53.414117
51362.2,DR VICTORIA MUIR'S PRACTICE,-0.151358,51.490651
211519.36,LINDEN AVENUE MEDICAL CENTRE,-0.716133,52.397046
69803.8,ALPHA MEDICAL PRACTICE,-1.856091,52.490749
4643.1,NORTH TYNESIDE COMMUNITY SERVICE,-1.508192,55.020469
4569.23,CONSULTANT DERMATOLOGIST(SUNDERLAND),-1.447219,54.926589
159611.55,THE STREET LANE PRACTICE,-1.513393,53.843234
137484.02,VINE HOUSE HEALTH CENTRE,-0.41878,51.70477
319.45,TONBRIDGE CLUSTER,0.277462,51.194717
161530.03,NEWBURY GREEN MEDICAL PRACTICE,-2.26047,53.506995
197974.69,TAUNTON ROAD MEDICAL CENTRE,-3.001634,51.124679
189357.25,CHARNWOOD MEDICAL GROUP,-1.22117,52.774303
172559.780000001,DONNINGTON MEDICAL PRACTICE,-2.437109,52.715179
445.1,WEST KENT GROUP,1.118942,51.075872
129726.36,MANOR DRIVE MEDICAL CENTRE,-0.248366,51.380785
54410.52,DR NASAH & PARTNERS,0.505558,51.567734
39.18,NHS GLOUCESTERSHIRE CCG,-2.174623,51.848478
44125.59,LINKS MEDICAL PRACTICE,-2.079024,52.487973
82617.4100000001,PARK MEDICAL PRACTICE,-2.327843,53.401899
52222.0100000001,OLD TRAFFORD MEDICAL PRACTICE,-2.275745,53.458074
1234.42,CATERHAM DENE RAC,-0.085202,51.283627
9.56,HEART FAILURE SERVICE,-2.629091,53.55774
109873.14,HAVEN HEALTH,1.327039,51.96536
146951.63,CASTLE MEDICAL GROUP PRACTICE,-0.415501,51.875588
157124.37,SACRISTON MEDICAL CENTRE,-1.628413,54.819683
107277.41,SOUTHAM SURGERY,-1.385752,52.251212
45672.6,ADDICTIONS SERVICE,-1.607294,54.973724
127229.9,NORVIC FAMILY PRACTICE,-1.960133,52.489728
19.51,CMHT EAST,-0.066189,53.557292
168584.6,WINTERTON MEDICAL PRACTICE,-0.606876,53.652511
103764.6,STONEHAM LANE SURGERY,-1.378468,50.939305
60598.04,LILFORD PARK SURGERY,-2.511455,53.503236
226748.01,LINTONVILLE MEDICAL GROUP,-1.570274,55.183776
32999.04,BLUEBELL SURGERY,0.921899,51.916473
71629.1900000001,MANOR HOUSE SURGERY,-0.161227,51.916084
18065.59,WEST KENT DERMATOLOGY,-0.364575,50.819326
71541.87,NEW ISLINGTON MEDICAL CENTRE,-2.219472,53.4829
127235.8,SEFTON PARK MEDICAL CENTRE,-2.934843,53.393088
63306.81,LATHOM ROAD MEDICAL CENTRE,0.052675,51.538066
191056.04,THE CAXTON SURGERY,-3.051276,52.861431
11983.11,TOTTENHAM HALE MEDICAL PRACTICE,-0.058714,51.589477
197954.46,SALTERS MEADOW HEALTH CTR,-1.933023,52.68216
70252.9200000001,SURREY LODGE PRACTICE,-2.218728,53.458264
42420.67,PLEASLEY SURGERY,-1.250873,53.175809
162323.07,LYTHAM ROAD SURGERY,-2.710575,53.77784
43956.06,MILLENNIUM FAMILY PRACTICE,-1.603663,54.962972
144626.78,PURTON SURGERY,-1.878078,51.585483
77771.4500000001,BARRINGTON MEDICAL CENTRE,-2.352158,53.38672
17486.87,HALTON COMMUNITY PAEDIATRIC SERVICE,-2.719776,53.342471
41031.77,HEDNESFORD MEDICAL PRACTICE,-2.000697,52.71233
197945.72,WALDERSLADE SURGERY,-1.43772,53.499821
40186.74,ABRIDGE SURGERY,0.12458,51.653631
995.49,GRANTHAM EXTENDED ACCESS K2,-0.639825,52.910073
83267.2300000001,ARTHINGTON MEDICAL CENTRE,-1.532912,53.77216
141409.58,SHIFNAL & PRIORSLEE MEDICAL PRACTICE,-2.376009,52.667675
187782.13,ASHWORTH STREET SURGERY,-2.165652,53.619565
21564.12,MFT ADULT COMMUNITY SERVICES,-2.188524,53.446352
177667.6,THE LIGHTHOUSE GROUP PRACTICE,-1.080505,50.796551
218785.02,TESTVALE SURGERY,-1.489898,50.919405
7.49,NORTH TYNESIDE HEALTH VISITORS,-1.510464,55.024056
179421.16,THE DOVE VALLEY PMS PRACTICE,-1.46034,53.529021
16230.56,PRIMARY CARE SEVEN DAY SERVICE,-0.059836,51.623784
170613.71,MILL ROAD SURGERY,0.896057,51.912436
118295.16,TONG MEDICAL PRACTICE,-1.716795,53.77049
132354.52,GODIVA GROUP PRACTICE,-1.482836,52.412774
123073.32,KINGSBRIDGE MEDICAL CENTRE,-2.226198,52.9927
2429.81,THE ROYAL MEWS SURGERY,-0.145223,51.498764
261.4,ASHFORD HUB,-0.472813,51.444022
40960.03,DR VARDHAN'S SURGERY,-2.447913,53.500769
118110.69,WELLS PARK PRACTICE,-0.063327,51.430508
43778.16,THE DOC'S SURGERY,-2.238064,53.476932
220175.16,HADLEIGH BOXFORD GROUP PRACTICE,0.953136,52.043021
293042.56,EAST NORFOLK MEDICAL PRACTICE,1.725527,52.619127
433.85,SCARBOROUGH EXTENDED ACCESS HUB,-0.416116,54.282229
1553.8,HANCOCKS ME,-0.412964,53.782123
149362.86,THE MILTON SURGERY,-2.949198,51.352664
50553.3299999999,BAKERSFIELD MEDICAL CENTRE,-1.104957,52.960219
74786.83,RAINFORD HEALTH CENTRE,-2.781746,53.500694
135895.31,MARCHAM RD FAMILY HEALTH CENTRE,-1.302953,51.66958
149701.91,THE LAURELS SURGERY,0.544165,51.758518
280507.54,THE CAMBRIDGE PRACTICE,-0.76565,51.254364
86717.4200000001,ROCKLEIGH COURT SURGERY,0.326872,51.63026
1332.4,WIGAN RECOVERY TEAM NORTH,-2.614585,53.534922
12432.23,HARROW CCG COMMUNITY NURSES CLCH (NMP),-0.199155,51.47377
127109.93,IFIELD MEDICAL PRACTICE,-0.211874,51.121108
96.5,BRIMPTON HOUSE,0.699534,51.835776
172.72,PRIME ENDOSCOPY (BRISTOL),-2.601961,51.449773
139337,ST.STEPHENS HEALTH CENTRE,-0.031163,51.532455
96106.93,PARK ROAD MEDICAL CENTRE,-0.150952,51.363489
91118.5699999999,MANCHESTER MEDICAL,-2.23745,53.45875
202376.84,POUND HILL MEDICAL GROUP,-0.156409,51.118813
75224.3,SANDY LANE SURGERY,-1.182896,53.147091
1986.87,BEALEY COMMUNITY HOSPITAL,-2.309285,53.565754
153295.79,LANGWORTHY MEDICAL PRACTICE,-2.294771,53.489371
134474.39,THE GOODINGE GROUP PRACTICE,-0.125442,51.54825
3439.22,NEMS CBS MID NOTTS OOH,-1.233579,53.134573
187659.54,ROLLE MEDICAL PARTNERSHIP,-3.401499,50.621139
29856.92,RILLWOOD MEDICAL CENTRE,-0.835728,52.263295
55498.1999999999,THE MANSELL ROAD PRACTICE,-0.358969,51.525654
74545.04,CONTINENCE PRESCRIPTION SERVICE,-1.162019,52.97426
176434.449999999,FORESTSIDE MEDICAL PRACTICE,-1.416173,50.851823
41238.92,TRINITY SURGERY,-1.650877,52.617569
143410.7,NORTHWOOD MEDICAL CENTRE,-1.932971,52.415485
73507.55,AUGHTON SURGERY,-2.902089,53.543684
12823.78,WESTMINSTER DAWS,-0.132264,51.511274
67675.0000000001,CHATHAM STREET SURGERY,-0.981895,51.455924
14623.33,SLAIDBURN HEALTH CENTRE,-2.444001,53.967313
3703.07,PETERLEE PRIMARY CARE SERVICES,-1.335627,54.758287
187240.86,FEARNHEAD CROSS MED.CTR.,-2.559106,53.411071
31654.52,GREENFIELD MEDICAL CENTRE,-1.855764,52.491684
34828.41,THE PROJECT SURGERY,0.020636,51.532273
36761.64,THE VALE SURGERY,-0.251817,51.506454
71.98,TOTTON HEALTH CENTRE,-1.488789,50.92065
202108.5,HAVELOCK GRANGE PRACTICE,-1.214164,54.682342
350.21,LOCAL PRIMARY CARE NORTH LOCALITY SPOKE,-2.467263,53.758668
36994.29,ST. LUKE'S SURGERY,-1.167635,52.956339
92973.9299999999,CRICH MEDICAL PRACTICE,-1.482573,53.084327
167378.53,CHURCH STREET PRACTICE,-2.153433,51.99229
65098.54,GUTTERIDGE MEDICAL CENTRE,-2.691248,53.769881
135825.79,KIRKHAM HEALTH CENTRE,-2.878541,53.781939
239.5,EXTENDED ACCESS PCD CONISBROUGH GROUP,-1.237653,53.482282
63657.7899999999,DR N NAGPAL'S PRACTICE,-2.467033,53.746299
266122.99,AINTREE PARK GROUP PRACTICE,-2.967297,53.462799
135061.74,THE RYAN MEDICAL CENTRE,-2.663635,53.730399
63881.59,CAREPOINT PRACTICE,-0.411552,51.604465
194944.14,FLANSHAM PARK HEALTH CENTRE,-0.629205,50.794855
15647.23,MOHANTY PRACTICE,-2.130534,53.53731
7623.68,THE LEGER CLINIC,-1.124029,53.525476
0.92,HEART FAILURE C N S BENTHAM,-1.962695,53.898015
78339.92,CHORLEYWOOD HEALTH CENTRE,-0.520415,51.654714
299091.93,THE SWAN PRACTICE,-0.985664,52.001593
15925.79,SOLIHULL SUB MISUSE SERV,-1.737064,52.47879
95565.11,KENSINGTON ROAD SURGERY,-1.532401,52.40257
89239.3000000001,TONGE FOLD HEALTH CENTRE,-2.405772,53.579119
150599.34,GUISELEY AND YEADON MEDICAL PRACTICE,-1.684131,53.865295
36781.11,HAROLD STREET MEDICAL CENTRE,-1.492871,53.393121
212811.72,SHERWOOD MEDICAL PARTNERSHIP,-1.137878,53.157488
8540,DIABETES TECHNOLOGIES,-2.705709,52.057013
287.3,NORTH COTSWOLDS IMPROVED ACCESS,-2.239997,51.862659
157433.74,CASTLE PRACTICE,-1.617531,51.256028
85589.5700000001,CARDEN SURGERY,-0.126631,50.862197
36953.1099999999,LANCELOT MEDICAL CENTRE,-0.299498,51.552907
212734.51,ELLERGREEN MEDICAL CENTRE,-2.919309,53.445416
6783.85,COMMUNITY DERMATOLOGY SERVICE NHS H&R,0.475497,50.850706
60891.41,KIDDROW MEDICAL PRACTICE,-2.288626,53.795175
139860.9,THE VINE MEDICAL CENTRE,0.514909,51.270888
131381.34,THE SYMONS MEDICAL CENTRE,-0.73892,51.522782
232514.79,HARESFIELD HOUSE SURGERY,-2.202996,52.194829
146176.7,CENTRAL SURGERY,0.147747,51.812546
78450.2000000001,QUEENHILL MEDICAL PRACTICE,-0.066791,51.34499
122719.08,GATEACRE BROW SURGERY,-2.8632,53.383291
109473.03,RED HOUSE SURGERY,0.129161,52.214906
1268.39,COMMUNITY DIABETES SERVICE,-2.842807,53.419526
72613.0199999999,RUSH HILL SURGERY,-2.393951,51.365379
2363.32,OUT OF HOURS CENTRE,-1.842798,54.869081
73560.8900000001,DR S PHILLIPS AND DR M PATEL PRACTICE,-0.027903,51.569142
187727.98,ST GEORGES MEDICAL CENTRE,0.762412,51.436183
66960.07,THE CHESSER SURGERY,-0.177303,51.374927
59536.8600000001,ASHURST PRIMARY CARE,-2.772723,53.563208
42872.5,TOWN HALL SURGERY,-2.092973,53.478374
132837.57,WHITE CLIFFS MEDICAL CENTRE,1.301586,51.12422
1166.25,IPU3-8 SOUTH WARKS  WARK OP,-1.521648,52.285309
14734.8,PARTNERSHIP SOUTH,-2.109085,52.810605
3290.29,ST ANDREWS EXTENDED ACCESS HUB,-0.013843,51.523897
88518.1300000001,NORTH BEVERLEY MEDICAL CENTRE,-0.439008,53.857996
103362.33,KILLICK STREET HEALTH CENTRE,-0.119068,51.534237
65331.47,THE LILYVILLE SURGERY,-0.199155,51.47377
61629.7600000001,BURNBRAE MEDICAL PRACTICE,-0.303885,53.760383
145796.72,TOPSHAM SURGERY,-3.462097,50.683825
26625.53,FITZMAURICE (KEW),-0.283117,51.475875
72373,ST PETER'S SURGERY,1.41893,51.362936
112907.45,THE COURTYARD SURGERY,-0.328342,51.065411
672.41,BROOMFIELD DOCTOR IN ED,0.465993,51.774654
108717.06,SHIFA SURGERY,-2.475999,53.757295
3486.73,AQP ANTICOAG QE HERITAGE BUILDING,-1.941776,52.450146
62834.98,SHIPDHAM SURGERY,0.894462,52.628852
47050.15,OLD PARSONAGE SURGERY,0.460418,51.112785
82564.79,POPLAR PRIMARY CARE CENTRE,-1.890326,52.43631
66695.21,SPITAL SURGERY,-3.003678,53.340977
103192.17,GRAVESEND MEDICAL CENTRE,0.369986,51.443932
24302.5,THE KILLINGHOLME SURGERY,-0.260335,53.629908
135911.15,THEATRE ROYAL SURGERY,0.942383,52.683767
46746.46,SOMERS TOWN MEDICAL CENTRE,-0.130607,51.529916
158477.51,THE SANDRINGHAM PRACTICE,-1.098266,53.533949
82899.46,BRANSTON & HEIGHINGTON FAMILY PRACTICE,-0.467988,53.195831
119654.03,THE BORCHARDT MEDICAL CENTRE,-2.237795,53.434307
54934.84,THE VILLAGE MEDICAL CTRE,-2.871986,53.374777
42694.16,DR GT HENDOW'S PRACTICE,-0.32136,53.787408
43280.85,WEST BROM P'SHIPS FOR HEALTH,-2.000605,52.517891
125445.87,ANGEL LANE SURGERY,0.362574,51.871967
171503.06,BUNGAY MEDICAL CENTRE,1.442974,52.44971
4228.88,NOTTINGHAM NHS URGENT CARE CENTRE,-1.139043,52.950139
43023.9,ST MARY'S SURGERY,-2.000799,52.613174
26684.04,BROOM ROAD MEDICAL PRACTICE,-0.030275,51.369778
29700.59,ARDEN HEALTHCARE CENTRE,-1.508005,52.413401
66191.7899999999,KIRKBY COMMUNITY PRIMARY CARE CENTRE (3),-1.248741,53.10176
50717.26,VICTORIA MEDICAL CENTRE,-1.52187,54.97385
103953.07,THE RIGG-MILNER MEDICAL CENTRE,0.415644,51.48007
4386.47,SHROPSHIRE WALK IN HEALTH CENTRE,-2.738044,52.707892
46937.69,KIRKGATE SURGERY,-1.667625,53.732234
19818.63,ST CHRISTOPHER'S HOSPICE,-0.058693,51.421385
100013.3,FRIERN BARNET MEDICAL CENTRE,-0.155988,51.613267
72299.6099999999,HOLLAND PARK SURGERY,-0.194435,51.501412
125214.4,WOODVILLE SURGERY,-1.536503,52.770685
173940.47,ELMHAM SURGERY,0.943019,52.752311
105331.09,CROWN SURGERY,-2.253515,52.859415
55353.8000000001,REGENT STREET SURGERY,-2.283616,51.744168
84042.3299999999,JUBILEE HEALTH CENTRE,-2.01963,52.551655
516.91,OLDER AGE - BENET BUILDING,-2.754484,52.039017
10935.98,GTD HEALTHCARE PRESTON OOH,-2.706842,53.791521
126675.21,DALTON SURGERY,-3.179816,54.155917
38615.23,MAIDSTONE RD CHATHAM SURGERY,0.516708,51.361226
102764.71,SKEGBY FAMILY MEDICAL CENTRE,-1.273344,53.142337
90.1,HARROW HEALTH CIC - HAEMORRHOIDS SERVICE,-0.383747,51.594674
124070.63,THE WRITTLE SURGERY,0.426548,51.73248
183338.66,PARKBURY HOUSE SURGERY,-0.334063,51.756766
6.67,SHS GUM,-1.912127,52.279774
63422.67,BUCKFASTLEIGH MEDICAL CENTRE,-3.781989,50.480934
103914.23,CITY HEALTH PRACTICE LTD,-0.306816,53.756542
81322.0599999999,VALLEY VIEW SURGERY,-1.731903,53.806791
21205.16,COVENTRY SMS,-1.513076,52.41159
78113.57,DR PCL KNIGHT,0.010023,51.541412
1.01,DIABETES CONSULTANTS SOUTH,-2.109085,52.810605
46564.04,HORNSPIT MEDICAL CENTRE,-2.915341,53.436681
77362.01,ARRAN MEDICAL CENTRE,-1.748679,52.503867
134022.1,THE MAPLES MEDICAL CENTRE,-2.286712,53.384846
52783.65,MILTON SURGERY,0.162445,52.241924
202347.8,DR G LEES & PARTNERS,-1.593212,53.796407
207602.35,THE SHRUBBERY SURGERY,0.351088,51.433242
26208.65,SHIP STREET SURGERY,-0.141753,50.821384
44744.65,NORTON CANES SURGERY,-1.970246,52.673977
102458.4,ST. LAURENCE'S MEDICAL CENTRE,-2.882285,53.475161
19151.65,SALFORD DRUG SERVICE,-2.33719,53.482572
120323.01,THE BRIMINGTON SURGERY,-1.395708,53.257173
46.99,WHITBY MINOR INJURIES UNIT,-0.615671,54.48445
191994.89,MAYLANDS HEALTHCARE,0.190596,51.552912
121225.78,YORKLEIGH SURGERY(CT),-2.0847,51.900132
2507.54,B&H EXTENDED HOURS SERVICE,-0.148293,50.838378
110727.13,LANTERN HEALTH-CARPENTERS PRACTICE,-0.003474,51.537165
29669.38,WALTHAM ROAD MEDICAL CENTRE,0.584106,51.373869
421.75,COMMUNITY PAEDIATRICIAN,-0.577016,51.252277
7501.12,BURY OOH,-2.288591,53.59553
25849.81,PARROCK STREET SURGERY,0.371171,51.441238
28274.45,NEVILLE ROAD SURGERY,-0.443036,51.906419
3793.65,CWP (WEST) PHYSICAL HEALTH,-2.897884,53.2088
505.49,WEST KENT HEALTH FEDERATION,0.277462,51.194717
44825.62,CATER STREET SURGERY,-0.490495,52.119586
127290.53,WELLING MEDICAL PRACTICE,0.107972,51.460844
158.01,GP SERVICE ACCIDENT AND EMERGENCY,1.71798,52.561672
47507.34,HILL BARTON SURGERY,-3.481689,50.723363
50373.19,STACKYARD AND WOOLSTHORPE SURGERY,-0.7611,52.852515
140320.99,HEALDS ROAD SURGERY,-1.651637,53.700113
33643.22,BRADFORD MOOR PRACTICE,-1.721849,53.797834
176648.29,DR SPENCER & PARTNERS,-0.677325,52.359891
99702.7700000001,SMALLFIELD SURGERY,-0.118564,51.171722
164587.33,CHURCH STREET PRACTICE,-1.425847,51.598763
4930.58,WYRE FOREST ADMISSION PREVENTION TEAM,-2.261161,52.386056
306.16,HUMBER ROAD SURGERY,0.48396,51.747558
121183.03,PAT HMR COMMUNITY SERVICE,-2.229502,53.517882
170378.11,BALSALL COMMON & MERIDEN GROUP PRACTICE,-1.643862,52.394956
1675.52,NORTH EAST ESSEX DIABETES SERVICE,0.921899,51.916473
84.53,BCH - DIABETES AND NUTRITION SERVICES,-2.617991,51.509287
1531.5,PALLIATIVE CARE,-2.974618,53.633552
56.82,RESPIRATORY CNS (AWC),-1.962695,53.898015
345430.28,CHELMER MEDICAL PARTNERSHIP,0.459513,51.749313
35397.88,NHS EASTERN CHESHIRE CCG NMP'S,-2.12262,53.257964
7493.2,URGENT CARE CENTRE DARLINGTON OOH,-1.563733,54.530374
65164.34,DR RC RAUTRAY'S PRACTICE,-2.475521,53.752542
157306.08,CLARENDON LODGE MEDICAL CENTRE,-1.531715,52.294043
543.46,COMMUNITAS CLINICS - SUSSEX DERMATOLOGY,-0.103533,51.39729
133194.92,ORCHARD 2000 GROUP,-0.370022,53.786372
7890.58,WESTCLIFFE HEALTH INNOVATIONS ENT,-1.712131,53.823092
163911.77,GOSPORT MEDICAL CENTRE,-1.147265,50.79354
22697.78,LANGTHORNE SHARMA FAMILY PRACTICE,0.0021,51.555415
107813.75,FARMHOUSE SURGERY,-1.7595,50.736437
8796.11,UHSM COMMUNITY SERVICES,-2.25528,53.390625
14453.17,AR-RAZI MEDICAL CENTRE,-1.101204,52.623926
92903.6100000002,TAMWORTH HOUSE MEDICAL CENTRE.,-0.146254,51.40122
118.8,EALING CONTRACEPTIVE & SEXUAL HEALTH,-0.31522,51.509944
121612.71,MANSFIELD MEDICAL CENTRE,-1.484577,52.405976
311.43,YATE MINOR INJURIES UNIT (MIU),-2.41621,51.540461
8214.16,ADDACTION HARTLEPOOL,-1.206132,54.684625
73340.07,BELMONT MEDICAL CENTRE,-0.385203,51.500848
127947.62,FAIRHILL MEDICAL PRACTICE,-0.282871,51.417069
6511.15,SHROPSHIRE COMMUNITY HEALTH NHS TRUST,-2.789366,52.705844
98856.4800000002,HENLEY GREEN MEDICAL CENTRE,-1.454284,52.428369
36579.57,ADDINGTON MEDICAL PRACTICE,-0.018557,51.344382
83820.5299999999,EDEN PARK SURGERY,-0.041426,51.399335
195429.83,CASTLE PLACE PRACTICE,-3.492865,50.908884
1162.32,NORTH NORFOLK HUB 2 (BIRCHWOOD),1.38334,52.820065
92784.69,CROOKES PRACTICE,-1.502259,53.38366
160358.27,THE SIMPSON CENTRE,-0.651318,51.610791
83442.35,UPTON LANE MEDICAL CENTRE,0.026394,51.5431
223414.28,MAYWOOD HEALTH CARE CENTRE,-0.693582,50.786664
119507.93,ASKERN MEDICAL PRACTICE,-1.148909,53.615496
139007.75,CAPTAIN FRENCH SURGERY,-2.748562,54.323429
2859.02,THREE VALLEY HEALTHCARE,-1.91892,53.32331
31039.81,THE NEW SURGERY,-0.660492,51.794471
147049.18,DENTON TURRET MEDICAL CENTRE,-1.686387,54.983928
62760.0299999999,THE EUXTON MEDICAL CENTRE,-2.676836,53.669016
116609.19,FALMOUTH HEALTH CENTRE,-5.08602,50.156398
307820.190000001,MILLGATE HEALTHCARE PARTNERSHIP,-2.118464,53.455602
732.19,NEW HAYESBANK EYE CLINIC,0.882257,51.165906
5124.08999999999,LUTHER STREET MEDICAL PRACTICE,-1.258255,51.747356
83199.91,SOUTHFIELD WAY SURGERY,-2.018733,52.658391
123471.66,NEW COURT SURGERY,-2.30878,52.113538
123261.96,WINDRUSH SURGERY,-1.343294,52.058899
90561.59,DR GC CHAJED'S PRACTICE,0.465396,51.564483
12191.32,STAR SCHEME EXTENDED,-1.068807,54.599299
15.71,CHILDREN & YP DIR.,-0.017051,51.454329
80441.97,NORTH SHOEBURY SURGERY,0.784481,51.542211
153128.15,SPRINGS HEALTH CENTRE,-1.265531,53.27774
21505.94,VERITAS HEALTH CENTRE,-1.481026,53.354257
91996.9799999999,HEATH LANE MEDICAL CENTRE,-2.86384,53.188961
137101.81,CAMPINGLAND SURGERY,0.690978,52.645997
75340.39,PARK VIEW SURGERY,-2.77111,54.227652
63.68,ST CATHERINE'S HOSPICE DAY THERAPY,-2.681517,53.720825
9387.8,PCT DIABETES CLINIC,-2.227616,53.010128
36542.42,AYLESTONE HEALTH CENTRE,-1.152678,52.605677
8265.57,LCHS NMP,-0.52415,53.226467
3958.3,CHOICE PLUS,-2.0815,51.906706
41039.94,CHARMOUTH MEDICAL PRACTICE,-2.903858,50.738665
40818.77,THE CRESCENT MEDICAL CTR.,-0.876393,52.250449
6642.97,DERMATOLOGY SERVICES E&N,-0.222882,51.827958
58886.47,NORTON CANES HEALTH CENTRE,-1.970246,52.673977
115061.45,VILLAGE SURGERY,-1.896468,50.741178
23805.54,UNIVERSITY HEALTH CENTRE,-0.548748,53.229537
28.63,STELLAR HEALTHCARE RHEUMATOLOGY,0.12393,51.704295
2768.27,ISLINGTON PCCS,-0.091116,51.527895
126744.96,GORDON HOUSE SURGERY,-0.31522,51.509944
142149.24,FULLWELL CROSS MED. CTR.,0.083782,51.594621
137354.83,VISTA ROAD SURGERY,-2.645459,53.457808
85552,SANDS END HEALTH CLINIC,-0.191391,51.473128
36760.28,WELLINGTON HEALTH CENTRE,-0.171284,51.532275
240139.77,BALL TREE SURGERY,-0.338832,50.831767
233288.96,KINGFISHER FAMILY PRACTICE,-0.950634,53.325451
111202.36,ABBEY ROAD SURGERY,-0.030102,51.684417
152722.33,LONDON LANE CLINIC,0.008653,51.415223
8475.58,KCA SHARED CARE,0.520741,51.272129
238716.27,IVY COURT SURGERY,0.690221,51.068039
54432.26,THE SURGERY,-2.605295,53.024859
40049.27,DR SHARMA & PARTNERS,0.447593,51.588181
109274.56,THE OAKS MEDICAL CENTRE,-1.215186,52.928031
520.06,CPFT SPECIALIST SERVICE PETERBOROUGH,-0.319752,52.551199
197178.28,THE PARK MEDICAL PRACTICE,-2.739045,53.77018
26098.27,WARRIOR SQUARE SURGERY,0.716503,51.539534
128923.98,CHOBHAM & WEST END MEDICAL PRACTICE,-0.602516,51.34981
6843.56,HP NMP'S N & S CCG,-1.143101,53.130244
87535.9300000001,NENE VALLEY SURGERY,-0.537451,52.399796
47558.37,AILSWORTH MEDICAL CENTRE,-0.352472,52.577435
233834.64,BLOOMFIELD MEDICAL CENTRE,-3.043644,53.804417
74912.09,KINGS ROAD MEDICAL CENTRE,-0.184768,51.480355
249696.79,SEVERN VALLEY MEDICAL PRACTICE,-2.235045,52.190415
168357.03,HOCKLEY FARM MED PRACT (A NANA),-1.183899,52.630898
25558.12,EAST ENFIELD PRACTICE,-0.046596,51.649065
76222.17,THE AZAD PRACTICE,0.044868,51.531234
98662.9300000001,MELBOURNE PARK MEDICAL CENTRE,-1.192728,52.975767
36.44,CHCP - HESSLE  BROUGH  COTT  ANLABY,-0.429474,53.723082
182.32,BCH - THE HAVEN,-2.589454,51.466527
190189.42,THORPEWOOD MEDICAL GROUP,1.341071,52.641956
87381.49,ST.HELENS MEDICAL CENTRE,-1.109209,50.698751
293.32,ADULT MENTAL HEALTH COMMUNITY,-2.041439,53.074197
50531.71,EDEN SURGERY,-1.30159,52.962668
44324.93,THE HOXTON SURGERY,-0.086829,51.533527
390.11,HALTON PRIMARY CARE DERMATOLOGY SERVICE,-2.727045,53.331865
1400.95,S. LEEDS CAMHS - PARKSIDE,-1.547737,53.771599
36255.24,DR MARKS PRACTICE,0.192379,51.572553
31766.85,BRENTFORD FAMILY PRACTICE,-0.310054,51.48676
149190.64,MANOR AND PARK GROUP PRACTICE,-1.42716,53.373705
95318.5900000001,BIRD-IN-EYE SURGERY,0.105639,50.96595
64115.1,LONGFIELD MEDICAL PRACTICE,-2.28357,53.533828
41306.39,THE HALING PARK PARTNERSHIP,-0.098109,51.357113
415.74,SOUTH CHESHIRE & VALE ROYAL PCAH,-2.531272,53.1909
35459.82,DR RB KUMAR PRACTICE,0.800566,51.327757
133985.46,HANDSWORTH MEDICAL PRACTICE,-1.383405,53.371708
113129.86,MOSBOROUGH HEALTH CENTRE,-1.364873,53.325238
52425.73,CRABBS CROSS SURGERY,-1.943704,52.281407
2335.35,GP LED DERMATOLOGY SERVICE,-0.299929,51.390825
10991.87,I HEART BARNSLEY,-1.506899,53.547954
892808.370000002,MIDLANDS MEDICAL PARTNERSHIP,-1.81313,52.519802
69157.4199999999,THE HEALTH CARE SURGERY,-1.487911,53.42172
50.87,VIRGIN CARE (MIDDLESBROUGH),-1.235298,54.577005
80643.51,HYTHE MEDICAL CENTRE SURGERY,-0.526274,51.429608
30269.34,THE LEIGH SURGERY,0.656153,51.555504
171351.09,WILLOW BANK SURGERY,-2.102853,52.97847
68.82,DMC COMMUNITY DERMATOLOGY SERVICE,0.021737,51.597442
120650.01,PARK MEDICAL CENTRE,-2.873099,53.202665
12443.21,COMMUNITY SERVICES NURSE PRESCRIBERS,-0.487256,51.892609
153230.72,THE NEW CONINGSBY SURGERY,-0.173849,53.105092
59446.56,THE STATHAM GROVE SURGERY,-0.08946,51.557463
163501.75,CROWN HOUSE SURGERY,-0.950634,53.325451
78200.2500000001,BARN SURGERY,-0.447347,50.813953
3830.45,PRIMARY CARE MANCHESTER LIMITED,-2.214292,53.489633
33591.69,CRICKLADE SURGERY,-1.85646,51.640614
60931.79,WOODGATE VALLEY HEALTH CENTRE,-1.991423,52.442663
709.12,ENFIELD COMMUNITY GYNAECOLOGY SERVICE,-0.101361,51.659225
111.32,HMP PRESTON,-2.689365,53.761461
89482.7900000001,CROSS ROAD SURGERY,-2.464849,50.602187
74054.92,ST PETER'S MED CENTRE (MANSINGH & MEHRA),-1.119092,52.631036
410.76,HMR CCG HART,-2.152215,53.620446
81451.8400000001,JRB HEALTHCARE BEECHDALE SURGERY,-1.198142,52.961504
11315.7,BARNET RECOVERY CENTRE EDGWARE WDP,-0.271242,51.606493
204.35,KCCG-CHC MT EDGECUMBE,-4.772094,50.328568
229.02,NEWMEDICA DERBY AND DERBYSHIRE,-1.282219,53.281526
137894.22,CHEETHAM HILL PRIMARY CARE CENTRE,-2.23526,53.501162
35559.04,CROSSWAYS PRACTICE,-3.023992,53.484655
52596.36,HOUNSFIELD SURGERY,-0.811033,53.183702
108008.46,HADDENHAM MEDICAL CENTRE,-0.921732,51.777822
160814.68,LISTER HOUSE SURGERY,-0.227126,51.764574
1169.78,SMART DRUG & ALCOHOL SERVICES WOKINGHAM,-0.835236,51.410039
221582.96,NETTLEHAM MEDICAL PRACTICE,-0.476253,53.262865
3812.07,NORTH DEVON TRUST NMPS,-3.413654,50.729414
48355.15,CUMBERLAND MEDICAL CENTRE,0.026047,51.519716
363046.519999999,THE RIDINGS MEDICAL GROUP,-0.622066,53.765218
136411.51,STANMORE HOUSE SURGERY,-2.231468,52.391138
55014.1100000001,DR BK JAISWAL'S PRACTICE,0.125595,51.538934
243173.97,THE OVER-WYRE MED.CTR.,-2.976492,53.928203
303618.03,DOCTOR LANE HEALTH CENTRE,-1.696722,53.675715
234679.27,NEWPORT PAGNELL MED.CTR.,-0.725298,52.086465
264323.38,TRAFALGAR MEDICAL GROUP PRACTICE,-1.092485,50.785331
180716.17,LONDON ROAD SURGERY,0.519034,51.613356
232.18,COMMUNITY DIABETES CLINICS,-0.356441,51.50598
192624.889999999,LEEDS CITY MEDICAL PRACTICE,-1.555879,53.778323
84664.36,NORTHGATE SURGERY,-1.866567,52.899272
171157.31,AMWELL SURGERY,-0.013312,51.759904
0.49,CRITICAL SUPPLY NIGHT STORE,-2.606862,53.429516
149016.29,THE VILLAGE PRACTICE,-3.014553,53.876825
44493.78,240 WEXHAM ROAD,-0.57838,51.516902
28933.22,THE JUBILEE PRACTICE,-1.003945,53.013557
425.6,TENBURY COMMUNITY HOSPITAL WARD,-2.589551,52.315401
136909.19,LONG LANE,-2.925005,53.456024
116290.82,GREYSTOKE SURGERY,-1.683424,55.171694
70464.4100000001,KINGSTON HEALTH CENTRE,-0.304894,51.414188
139009.11,NORTH TRAFFORD GROUP PRACTICE,-2.299481,53.453882
0.63,GATESHEAD COMMUNITY HEART FAILURE TEAM,-1.580781,54.93938
59.56,N.B.PRIMARY CARE ENT SERVICE,-1.825965,52.538746
35552.09,SMS MEDICAL PRACTICE,-0.306785,51.549713
170275.8,STRATTON MEDICAL CENTRE,-4.516205,50.830225
152883.84,PARK FARM MEDICAL CENTRE,-1.495809,52.94407
138338.84,42 KINGSWAY,-3.020167,53.481011
186906.84,HELSTON MEDICAL CENTRE,-5.270081,50.099592
55613.14,BURSLEDON SURGERY,-1.317111,50.890052
55723.12,WYRESDALE ROAD SURGERY,-2.452196,53.581577
2509.92,PRIMARY CARE DVT SERVICE,-2.473916,53.76497
98552.0500000001,THE MEDICAL CENTRE,-0.476068,51.50442
202839.93,THE GLENFIELD SURGERY,-1.196305,52.655381
136592.48,TRENTSIDE MEDICAL GROUP,-1.074629,52.964659
88580.3600000001,THE NEW FOLLY SURGERY,0.384799,51.669624
342.18,WHITBY GP OOH,-1.112167,53.976819
234687.27,SWANSCOMBE HEALTH CENTRE,0.28731,51.424657
41691.85,UPPER HALLIFORD MEDICAL CENTRE,-0.43115,51.411378
104478.59,NESTON MEDICAL CENTRE,-3.064349,53.291818
56843.3,DROYLSDEN MEDICAL PRACTICE,-2.145664,53.487166
79494.2400000001,CEDARS MEDICAL GROUP,-1.740442,54.90557
10187.14,CGL HALTON,-2.733862,53.354554
235.53,WOKING ALEXANDRA WARD,-0.556304,51.315132
35837.54,DR VM PATEL,0.228776,51.561113
44114.2700000001,UNITY SURGERY,-1.103411,52.980422
141022.57,FOREST PRACTICE,0.075235,51.654789
703.46,PALLIATIVE CARE-YORK,-1.111775,53.932164
152818.94,HOLTS HEALTH CENTRE,-2.406966,51.931555
11435.02,CAMHS,-4.112782,50.37838
5008.87,NMP SOUTHERN HEALTH (WEST HANTS),-1.530052,50.9313
78177.9700000001,GUN LANE MEDICAL CENTRE,0.493189,51.397398
12313.63,URGENT CARE CENTRE (ERITH),0.166643,51.477113
46701.4,WESTFIELD MEDICAL CENTRE,-1.531703,53.817673
57.22,HARINGEY PALLIATIVE CARE TEAM,-0.092097,51.580625
23911.81,GOLDINGTON ROAD SURGERY,-0.456174,52.140172
26032.75,PRESTON MEDICAL CENTRE,-0.292579,51.564335
115365.77,WOODHALL SPA NEW SURGERY,-0.207041,53.153263
148710.79,THE NEW SURGERY,1.181851,51.089152
45800.99,GLENDALE MEDICAL CENTRE,-0.434503,51.490429
259742.08,FRIARSGATE PRACTICE,-1.336797,51.074249
10628.39,EHS DERMATOLOGY SERVICE,0.01426,50.873305
55400.96,VESTA ROAD SURGERY,-0.040618,51.468737
108793.2,GRAVEL HILL SURGERY,-2.185723,52.534052
7064.50000000001,SHROPDOC OUT OF HOURS,-2.732712,52.740396
142880.74,LEACROFT MEDICAL PRACTICE,-0.196029,51.126566
115596.11,PEEL HALL MEDICAL CENTRE,-2.265017,53.379925
167711.55,TILEHURST VILLAGE SURGERY,-1.042269,51.461233
108175.48,BUDSHEAD MEDICAL PRACTICE,-4.150289,50.417443
49199.2,SOUTH SAXON HOUSE SURGERY,0.526723,50.868702
74003.35,ELTHAM PALACE PMS,0.053714,51.449946
125916.62,RIVERPORT MEDICAL PRACTICE,-0.075654,52.343316
101.63,DONCASTER PERINATAL MENTAL HEALTH TEAM,-1.146558,53.497488
127612.19,DR KK CHAN & PARTNERS,-2.489022,53.524185
37260.85,ROTTON PARK MEDICAL CENTRE,-1.947079,52.482162
220470.62,AYLMER LODGE COOKLEY PARTNERSHIP,-2.261095,52.38419
135880.21,FRAMLINGHAM SURGERY,1.334192,52.227216
24924.77,LANCASTER GATE MEDICAL CENTRE,-0.183362,51.511753
49756.21,PENNINE SURGERY,-2.103349,53.642995
184242.47,MARLBOROUGH SURGERY,-1.33549,54.835804
120748.94,DR INGRAM & PTRS,-1.526892,54.136451
112080.65,MOULTON MEDICAL CENTRE,-0.062945,52.79766
6419.04,COMMUNITY NURSING (H&R),-1.438367,54.350666
96043.97,RAJ MEDICAL CENTRE,-0.113968,53.550655
77567.6499999999,LINDEN ROAD SURGERY,-0.479248,52.14361
165554.16,DAWLEY MEDICAL PRACTICE,-2.466781,52.664322
17605.52,CHCP - URGENT CARE OOH,-0.373324,53.729806
64228.3599999999,ST SAVIOURS SURGERY,-2.308488,52.130324
1182.6,IC24 LTD (CRAWLEY OOH),0.891514,51.129106
65726.3600000001,THE GLEBE FAMILY PRACTICE,0.544473,51.383164
51077.42,WESTFIELD SURGERY,-2.458993,51.284957
1410.24,ADULT MH COMMUNITY - LYMEBROOK,-2.238996,53.038709
155557.55,HILLSIDE PRACTICE,-0.981124,54.56313
121476.68,EAST PARK MEDICAL CENTRE,-1.514944,53.793168
7805.81,READING WALK-IN HTH CTR OOH,-0.975896,51.454809
47044.2300000001,OAK GLEN SURGERY,-1.816352,53.854799
4981.18,HUC WEST ESSEX OOH,-0.191727,51.782567
135149.26,ROSEGARTH SURGERY,-1.871551,53.714895
65003.7999999999,THE HOLLIES SURGERY,0.374326,52.603925
1277.99,CAMHS - WORCESTER,-2.183119,52.192425
156884.14,ONGAR HEALTH CENTRE,0.246278,51.716938
122915.44,SUMMERTOWN HEALTH CENTRE,-1.26328,51.774383
36467.16,STANHOPE PARADE HEALTH CENTRE,-1.431179,54.984988
101.53,CHCP - POCK & GOOLE LOC TEAM,-0.875479,53.714839
33.26,AINTREE LOSS,-2.931104,53.466323
69.72,MELTON MOWBRAY MI (LATHAM HOUSE),-0.883388,52.765348
