total_cost,name,longitude,latitude
1321.2,COLVILLE HEALTH CENTRE,-0.206231,51.515837
3784.43,RICHMOND MEDICAL GROUP,-0.267239,51.465848
1109.73,ARCHWAY MEDICAL CENTRE,-0.126124,51.562541
1307.02,ATHENA MEDICAL CENTRE,-0.053257,51.554943
3132.28,LAKE ROAD PRACTICE,-1.078356,50.804825
2088.28,ROUNDWELL MEDICAL CENTRE,1.203795,52.648844
1.47,EAST BIRMINGHAM LCN FLEX PILOT,-1.817518,52.478024
5242.6,ST.JAMES SURGERY,1.147433,51.787326
1553.49,THE MAYFLOWER MEDICAL PRACTICE,-1.01945,53.431872
1353.09,HYLTON MEDICAL GROUP,-1.414195,54.908604
3043.44,EDENFIELD ROAD SURGERY,-2.188671,53.622297
841.19,THE EXMOOR SURGERY,-0.217218,51.522362
3015.67,CLEVEDON MEDICAL CENTRE,-2.84572,51.437228
1357.74,ST ALBANS SURGERY,0.133341,51.537112
255.97,NDUC NORTH TYNESIDE OOH,-1.58819,55.01932
682.86,COLLINGWOOD FAMILY PRACTICE,-1.903405,52.55667
57.27,PETERSFIELD GP EXTENDED ACCESS HUB,-0.942399,51.003885
2169.59,POPLAR HOUSE SURGERY,-3.03076,53.754721
2184.46,MARTON MEDICAL PRACTICE,-3.034524,53.812843
2839.09,OAKRIDGE PARK MEDICAL CENTRE,-0.777853,52.068655
775.94,THE TUDOR HOUSE MEDICAL CENTRE,-0.266689,51.564495
2175.67,GRANGE STREET SURGERY,-0.335878,51.757298
2167.35,THE PARK SURGERY,1.729276,52.606218
2706.93,BIDDULPH VALLEY SURGERY,-2.178498,53.116111
549.86,THE BALAJI SURGERY  THE SPARKBROOK CHC,-1.871333,52.462659
853.79,HARLEY GROVE MEDICAL CTR.,-0.027752,51.527964
1492.56,STREATFIELD HEALTH CENTRE,-0.30812,51.593812
1622.24,THE LIMES SURGERY MEDICAL CENTRE,-2.114052,52.456884
1021.09,STAVERTON SURGERY,-0.22584,51.544182
1527.58,SPRINGWELL MEDICAL GROUP,-1.422181,54.890239
1601.52,DR WS RIDDELL'S PRACTICE,-1.223723,53.260141
217.27,SMS COMMUNITY DERMATOLOGY CLINIC,-1.398499,50.913503
2306.6,VIOLET LANE MEDICAL PRACTICE,-0.107972,51.360366
2431.77,PARKSIDE GROUP PRACTICE,-0.098549,51.350645
2770.11,BEDFORD HILL FAMILY PRACTICE,-0.149067,51.44085
1647.21,KINGS MEDICAL CENTRE,-1.216402,54.571717
1819.6,SILVERDALE PRACTICE,-0.121708,50.952843
2132.35,PENNY'S HILL PRACTICE,-1.894499,50.801788
1771.87,APPLEBY SURGERY,-1.456596,55.011193
5.16,COMMUNITY TEAM BODMIN,-4.72264,50.472848
1687.21,ASHWELL MEDICAL CENTRE,-1.778612,53.803786
103.57,BARTON SURGERY,-4.088247,50.359085
1725.89,AVON VALLEY PRACTICE,-1.812104,51.294105
5522.27,THE ARMADA FAMILY PRACTICE,-2.571861,51.413438
1708.7,WOODVIEW MEDICAL CENTRE,-0.841889,52.268682
3066.8,PRINCES GARDENS SURGERY,-0.766458,51.250407
13.07,COMMUNITY NURSING,-2.372621,51.358169
3616.62,WELLFIELD HEALTH CENTRE,-2.147479,53.606581
1035.97,BRAITHWAITE RD SURGERY,-2.574985,53.477412
2017.65,SEDLESCOMBE & WESTFIELD SURGERIES,0.534725,50.934129
1868.47,PDS MEDICAL OOH,-3.023363,53.797158
1725.78,RIVERSIDE SURGERY,0.180773,51.479567
3528.11,RIDGEWAY VIEW FAMILY PRACTICE,-1.791571,51.524175
5552.36,SCHOPWICK SURGERY,-0.299293,51.645362
220.82,URGENT CARE CENTRE HRCH,-0.324434,51.473648
223.77,WORTHING MIAMI GP ACCESS HUB,-0.390026,50.823979
936.58,THE WOOTTONS SURGERY,0.437136,52.790343
623.58,THE WILLOWS MEDICAL PRACTICE,-2.309137,53.485461
1152.06,STRATFORD VILLAGE SURGERY,0.006461,51.542096
1608.48,MIRFIELD SURGERY,-1.776956,52.469072
2745.34,COMMONWEALTH HEALTH CENTRE,0.36308,51.463166
1788.7,HENDON WAY SURGERY,-0.241873,51.579182
2473.22,JUBILEE HEALTHCARE,-1.518884,52.403423
2862.25,THE ELMS MEDICAL CENTRE,0.557729,51.4201
2.78,SUFFOLK FOOT SURGERY CENTRE,1.196861,52.052722
829.89,WIGMORE MEDICAL CENTRE,0.588765,51.352272
2383.4,VICTORIA ROAD SURGERY,1.716498,52.471024
3229.38,INTEGRATED CARE 24 LTD (CWSX OOH),0.891514,51.129106
770.36,CHURCH HILL SURGERY,1.229008,52.428527
10.55,BS CLINIC,-1.361645,52.530096
2213.4,E HARLING & KENNINGHALL MEDICAL PRACTICE,0.932279,52.43909
2701.02,WATLING MEDICAL CENTRE,-0.262021,51.603291
839.73,OXFORD ROAD MEDICAL PRACTICE,-1.603365,54.699579
219.6,DR SURYANI,-2.070174,52.552984
6578.59,CARN TO COAST HEALTH CENTRES,-5.268154,50.226222
2688.51,OLD HARLOW HEALTH CENTRE,0.134039,51.784038
43.84,LYMPHOEDEMA SERVICE FOR SANDWELL CCG,-1.953778,52.398207
2916.46,NORTHAM SURGERY,-4.215465,51.038082
1.47,BRENT & HARROW SAFE HAVEN UNIT,-0.19422,51.595001
983.52,KIRKDALE MEDICAL CENTRE,-2.973842,53.433523
3955.42,WEAVERS MEDICAL,-0.733538,52.401531
2166.05,LITTLEWICK MEDICAL CENTRE,-1.304838,52.966452
2642.7,ST JAMES' MEDICAL CENTRE,-2.289474,53.708959
1554.47,REVEL SURGERY,-1.361421,52.41228
698.39,RUDGWICK MEDICAL CENTRE,-0.450643,51.090073
1823.38,COACHMANS MEDICAL PRACTICE,-0.203875,51.096335
3678.39,BISHOPS CLOSE MEDICAL PRACTICE,-1.599142,54.699817
3573.73,DR YADAVA N PRACTICE,0.334586,51.476703
2183.21,LONG CLAWSON MEDICAL PRACTICE,-0.923909,52.839215
2814.02,ABBEY MEDICAL PRACTICE,-1.951015,52.091043
1.99,COASTAL HEALTH CARE WOUND CARE FLEETWOOD,-3.010416,53.920956
66.01,COMMUNITY DERMATOLOGY SERVICE,-2.033839,52.472088
1335.36,REDBURN PARK MEDICAL CENTRE,-1.474775,55.00092
1046.47,THE DENSHAM SURGERY,-1.318986,54.561625
1017.2,ROSERTON STREET SURGERY,-0.010049,51.498482
2664.84,DR FIRTH AND PARTNERS,-0.608263,51.713308
101.78,ENFIELD COMMUNITY SERVICES,-0.084383,51.662127
4021.99,QUEENSWAY  MEDICAL CENTRE,0.714012,51.541786
15.5,GLOUCESTERSHIRE CARE SERVICES NHS TRUST,-2.176389,51.847073
785.49,BRUCE GROVE PRIMARY HEALTH CARE CTR,-0.070141,51.592004
1303.79,KEATS GROVE SURGERY,-2.099546,52.614561
875.04,CRICK MEDICAL PRACTICE,-1.135861,52.343212
444.95,SILTON SURGERY,-2.315694,51.074742
1265.9,FISHERGATE HILL SURGERY,-2.714363,53.754455
610.15,WWL NURSES,-2.629091,53.55774
2764.4,APPLETREE MEDICAL PRACTICE,-1.486919,52.985104
3386.8,SOUTH LEWISHAM GROUP PRACTICE,-0.013043,51.430269
247.68,NAYAR JK,-0.368366,53.768793
550.67,SPEKE HC - DR SINGH & DR BICHA,-2.838793,53.340911
895.27,BRADFORD STUDENT HEALTH SERVICE,-1.768359,53.785323
6177.94,STANMORE MEDICAL GROUP,-0.204612,51.913274
373.3,HARTLAND SURGERY,-4.482549,50.992721
667.68,KIRPAL MEDICAL PRACTICE,-1.934945,52.503094
1822.86,RICHMOND GP ALLIANCE,-0.313083,51.415592
4093.06,FARNHAM DENE MEDICAL PRACTICE,-0.777405,51.200549
525.65,THE ADDERLANE SURGERY,-1.845745,54.962605
1994,DR BAKER & PARTNERS,0.548167,51.570733
1786.02,THE PANTON PRACTICE,-1.862595,50.72093
3144.47,CLEVELEYS GROUP PRACTICE,-3.042545,53.875111
817.4,BRAMLEY AVENUE SURGERY,-0.141707,51.323235
1190.48,THE WEARDALE PRACTICE,-2.002656,54.746005
1325.28,LEA ROAD MEDICAL PRACTICE,-2.140864,52.575971
790,THE ROBINS SURGERY  HAROLD HILL HEALTH C,0.224895,51.606266
979,THE CEDAR PRACTICE,-0.093757,51.568531
325.11,BOLEYN ROAD PRACTICE,0.031124,51.538882
3993.04,DMC ST MARYS ISLAND SURGERY,0.538105,51.406776
4188.69,TAMAR VALLEY HEALTH,-4.320073,50.503476
1135.24,THE ROEHAMPTON SURGERY,-0.242431,51.451154
2346.78,ROYAL CRESCENT,-2.078966,51.900098
1414.78,CHURCHWOOD MEDICAL PRACTICE,0.539934,50.878228
1185.11,AKSYR MEDICAL PRACTICE,-0.263604,51.542472
1696.15,NEWNHAM WALK SURGERY,0.110503,52.199281
2238.09,MARKET SURGERY,1.253177,52.791348
2490.39,THE MEDICAL CENTRE BUNTINGFORD,-0.02183,51.949019
3686.54,PARK LANE SURGERY,-0.021245,51.746514
565.4,COVENT GARDEN MEDICAL CENTRE,-0.123689,51.515564
12.66,NEAS NORTH TYNESIDE CCG,-1.712365,54.969713
331.82,WINDSOR MEDICAL CENTRE,-1.622157,53.693875
2231.97,THE VILLAGE MEDICAL CENTRE,-0.647436,51.51295
1566.85,WHITBURN SURGERY,-1.364667,54.952795
3871.04,ABBEY SURGERY,-4.150401,50.546904
3712.1,URGENT CARE CENTRE (NELFT),0.002638,51.578831
1889.75,HAMPSTEAD GROUP PRACTICE,-0.163076,51.553171
214.89,CITY REACH HEALTH SERVICES,1.288137,52.633042
6320.86,EAST LANCS MEDICAL SERVICE OOH,-2.442698,53.747769
1341.24,NEW FOREST MEDICAL GROUP,-1.576665,50.81471
982.27,DISTINGTON SURGERY,-3.541351,54.595305
3366.8,ROSEDALE SURGERY,1.705996,52.457187
858.77,DRS RAJCHOLAN & GEORGE,-2.057836,52.613672
674.12,GREEN LANE  GOODMAYES MEDICAL PRACTICE,0.113559,51.563316
2478.57,NORTHBROOK HEALTH CENTRE,-1.821273,52.419657
2609.78,GORTON MEDICAL CENTRE,-2.171985,53.463168
1515.93,YEADING MEDICAL CENTRE,-0.397019,51.533634
1127.92,BEESTON VILLAGE SURGERY,-1.569152,53.772415
402.8,MATLOCK ROAD SURGERY,-0.157915,50.843638
2161.09,CBS OOH,-1.233579,53.134573
1628.73,WATERFRONT AND SOLENT SURGERY,-1.403379,50.870013
751.66,GARSTON FAMILY HEALTH CENTRE,-2.89683,53.353909
1205.04,NORTHERN MOOR MEDICAL PRACTICE,-2.285109,53.408049
2503.3,EMERSONS GREEN MEDICAL CENTRE,-2.477023,51.492762
2586.67,THE GREEN HOUSE SURGERY,-1.068807,54.599299
1025.76,BATTERSEA RISE GROUP PRACTICE,-0.163474,51.460833
57.57,RESPIRATORY CLINIC,-2.095555,52.599722
4361.68,DRAYTON MEDICAL PRACTICE,1.226086,52.679249
803.26,HAVERFIELD SURGERY,-0.449803,51.711933
1719.62,GLOUCESTER HEALTH ACCESS CENTRE,-2.239997,51.862659
708.65,WOKING COMMUNITY HOSPITAL WIC,-0.556304,51.315132
12.77,NL EXTENDED ACCESS,-0.647232,53.568261
3070.14,ST STEPHENS GATE MEDICAL PARTNERSHIP,1.286835,52.623967
3840.8,MARKET CROSS SURGERY,0.510146,52.343506
4169.04,STOCKPORT MEDICAL GROUP,-2.177788,53.402873
1922.13,EMPINGHAM MEDICAL CENTRE,-0.593784,52.667718
828.09,FOSSE MEDICAL CENTRE (GK SHARMA),-1.152153,52.636707
1898.32,FARROW MEDICAL CENTRE,-1.74312,53.802511
4041.24,THE HAYMARKET HEALTH CTR,-2.211781,53.060343
690.16,CHARLOTTE STREET SURGERY,-2.424635,53.592518
1943.63,SHERBOURNE MEDICAL CENTRE,-1.532618,52.29289
3932.09,CHURCH LANGLEY MEDICAL PRACTICE,0.132734,51.767477
1175.93,ELGIN CLINIC,-0.198468,51.524818
5632.01,COWES MEDICAL CENTRE,-1.302115,50.75145
1593.45,THE BRIDGE GROUP PRACTICE,-0.375759,53.787555
13690.38,DUDLEY URGENT CARE CENTRE OOH,-2.118518,52.502944
3891.82,PADDOCK AND LONGWOOD FAMILY PRACTICE,-1.80546,53.642119
3533.8,DYKES HALL MEDICAL CENTRE,-1.506024,53.40514
752.68,ALBION STREET SURGERY,-0.133965,50.827627
124.01,RIPON OOH,-1.527195,54.135436
2072.22,WIVENHOE SURGERY,0.961234,51.856059
1835.17,BRIGSTOCK & SOUTH NORWOOD PARTNERSHIP,-0.109304,51.395046
454.07,BROOKFIELD PARK SURGERY,-0.142656,51.563724
1786.33,ALBION PLACE MEDICAL PRACTICE,0.529542,51.274206
2.78,OCTAGON SAS,-0.103578,52.622001
1309.03,BROADMEAD MEDICAL CENTRE,-2.58948,51.457392
233.07,PGPA IMPROVED ACCESS CENTRAL,-1.892899,53.721064
1011.85,DR SJC CLAY'S PRACTICE,-1.216618,52.72642
1389.61,WEOBLEY & STAUNTON ON WYE SURGERIES,-2.87187,52.159258
1033.86,THORNTON & VALLEY PARK SURGERY,-0.120709,51.388871
2710.94,LITTLE LONDON SURGERY,-1.979284,52.574984
1053.43,MULBERRY HOUSE SURGERY,-1.402391,50.931652
3272.56,BEDLINGTONSHIRE MED.GROUP,-1.598682,55.1322
2412.3,MILLVIEW SURGERY,-1.203958,53.144123
168,NDUC GP OUT OF HOURS SERVICE (OOH),-1.372186,54.879952
673.59,COURT THORN SURGERY,-2.826247,54.801828
3479.98,COASTAL VILLAGES PRACTICE,1.685649,52.674686
560.21,CROSTON MEDICAL CENTRE,-2.773743,53.666146
1289.74,PARK VIEW SURGERY,-0.435833,53.72979
72.01,MARTIN HOUSE HOSPICE,-1.344259,53.900051
17.64,COMMUNITY INTERMEDIATE CARE SERVICE,-2.455551,53.733223
4682.96,CORNERWAYS MEDICAL CENTRE,-2.85592,53.422901
1427.57,BRENTFIELD MEDICAL CENTRE,-0.260251,51.550588
964.57,SUCCESS CENTRE - MOREDON,-1.807069,51.582197
1926.36,ASHFIELD HOUSE (ANNESLEY),-1.256047,53.07651
967.75,EASTHAMPSTEAD SURGERY,-0.753965,51.405543
315.37,ACTON TOWN MEDICAL CENTRE,-0.28217,51.50246
5433.82,ST MARY'S SURGERY,0.258109,52.398364
1910.34,SOUTHVIEW MEDICAL PRACTICE,-0.559823,51.313647
2399.94,SMA MEDICAL PRACTICE,-0.008594,51.571154
2966.24,HUMBERSTONE MEDICAL CENTRE (IP JONES),-1.089641,52.645126
50.37,COMMUNITY ENT SERVICE,-2.262369,53.406329
1217.16,CHACEWATER HEALTH CENTRE,-5.155777,50.25596
2259.6,DR MAASSARANI & PARTNERS,-2.88656,53.495201
1167.27,UPMINSTER BRIDGE SURGERY,0.235279,51.558957
429.21,DR DEVARAJA VC PRACTICE,0.44359,51.520015
2646.75,HENFIELD MEDICAL CENTRE,-0.275597,50.936107
2270.45,CHEDDAR MEDICAL CENTRE,-2.775544,51.274669
1.05,DMC COMMUNITY DERMATOLOGY SERVICE,-1.497858,53.800234
1773.31,BEACONSFIELD MEDICAL PRACTICE,-0.148293,50.838378
979.14,QUEENS ROAD MEDICAL CENTRE,-0.02047,51.579799
29.36,RDASH FT COMMUNITY NURSING,-1.146558,53.497488
5.73,HP NMP'S NW CCG,-1.143101,53.130244
2602.94,STENNACK SURGERY,-5.484395,50.210854
401.33,ROCHESTER ROAD SURGERY,0.390394,51.435136
1217.13,MINSTER MEDICAL CENTRE,0.793061,51.415409
2126.87,BROOKLANDS HEALTH CENTRE,-0.675657,52.044408
729.37,WIDDRINGTON SURGERY,-1.62051,55.240248
1113.68,HARBURY SURGERY,-1.458027,52.236759
762.4,THE ALLENDALE ROAD SURGERY,-0.319827,51.551186
681.1,BEGG PRACTICE,-0.179391,51.459968
2055.41,PARKGATE SURGERY,-2.882743,53.564772
2939.77,FRIMLEY PRIMARY CARE OOH,-0.742029,51.319666
12.31,WHITTINGTON HEALTH (HARINGEY),-0.139066,51.566482
2224.08,LEIGH NHS WIC,-2.511455,53.503236
1406.87,ALL SAINTS SURGERY,-1.644121,52.794285
614.84,KNOCKIN MEDICAL CENTRE,-2.993042,52.79343
2472.13,LIME GROVE MEDICAL CENTRE,-1.55303,53.139004
1003.49,DEVONSHIRE GREEN MEDICAL CENTRE,-1.477593,53.379509
3889.9,3/LOWER BROUGHTON MEDICAL PRACTICE,-2.258808,53.49359
1040.25,DR NAVIN KUMAR,0.70187,51.544989
1285.88,THE MEADOWS SURGERY,-0.53774,52.399512
255.43,MAYFAIR MEDICAL CENTRE,-0.150172,51.513536
1930.53,ST LEONARDS PRACTICE,-3.522731,50.723743
2160.93,HELSBY STREET MED/CTR,-2.576324,53.39498
4947.53,BISHOPGATE MEDICAL CENTRE,-1.676211,54.659158
4389.58,WOKINGHAM MEDICAL CENTRE,-0.831068,51.411661
2229.97,HOLYCROFT SURGERY,-1.914477,53.863828
892.31,HOLBORN MEDICAL CENTRE,-0.118539,51.522233
378.24,ALVERTHORPE,-1.518486,53.685476
1701.17,ROMAN ROAD HEALTH CENTRE,-2.472202,53.728431
2170.1,IVRY STREET MEDICAL PRACTICE,1.148624,52.064021
3117.57,ASHLEY CENTRE SURGERY,-0.270061,51.33244
1441.06,DOCTORS' SURGERY,-2.187672,53.55683
2350.39,DUNCHURCH SURGERY,-1.290193,52.337874
131.13,ACE LTD OOH,0.296471,51.626042
82.95,THE GREENHOUSE WALK-IN,-0.055343,51.538827
2209.09,HANDFORTH HEALTH CENTRE,-2.214647,53.347874
1924.94,ENDERBY MEDICAL CENTRE,-1.211488,52.587061
125.3,ABBEY MEDICAL CENTRE,-0.982406,51.453949
434.23,HOSPITAL AT HOME,-0.831575,51.410524
3465.94,THE GRANGE MEDICAL CENTRE,-1.458215,52.526837
3451.28,BIRCHWOOD MEDICAL PRACTICE,-0.605376,53.215749
2732.66,THE GABLES MEDICAL GROUP,-1.564429,55.140811
2167.83,THE HAMILTON PRACTICE,0.114548,51.757005
3913.38,GRAYSHOTT SURGERY,-0.745626,51.110093
1936.14,LITTLEBOROUGH GROUP PRACTICE,-2.103349,53.642995
1840.97,BROWNLOW HEALTH  @ PRINCES PARK,-2.95165,53.391535
122.64,PATHFINDER GP,-2.512253,53.504428
4.92,ASHLEY INTERMEDIATE CARE CTR,-2.044846,51.883772
4134.53,CENTRAL UXBRIDGE SURGERY,-0.475739,51.546229
428.68,DERMATOLOGY DEPARTMENT CANNOCK,-2.095555,52.599722
19.18,MEDICUS HEALTH PARTNERS-GREEN STREET,-0.044502,51.657069
2735.97,PENKRIDGE MEDICAL PRACTICE,-2.118352,52.725728
81.09,DOUGLAS MACMILLAN HOSPICE,-2.150544,52.970554
4887.89,BECCLES MEDICAL CENTRE,1.562886,52.453288
786.52,ST JAMES MEDICAL PRACTICE2,-2.097323,52.514234
1298.47,GLADSTONE ROAD SURGERY,-0.608263,51.713308
3486.09,KEYWORTH MEDICAL PRACTICE,-1.093411,52.871477
1078.8,KEELE PRACTICE,-2.273581,53.003262
3787.68,BRIDGNORTH MEDICAL PRACTICE,-2.422947,52.537874
2224.09,BENHILL & BELMONT PRACTICE,-0.19029,51.366603
61.13,CANNOCK MINOR INJURIES UNIT,-2.030614,52.693241
95.71,DERMATOLOGY HEALTH SERVICE AT WOLVES,-2.59517,53.394149
961.34,GP SERVICES - GP HUBS,-0.175734,51.240416
1705.02,DATCHET HEALTH CENTRE,-0.576314,51.482057
752.04,ROOD END MEDICAL PRACTICE,-1.999691,52.494094
4112.62,NEMS OOH,-1.146156,52.947802
8486.13,BUCKS UTC & OOH,-0.771127,51.633345
1426.7,TUDOR HOUSE MEDICAL PRACTICE,-1.149856,52.990599
18.3,ENT SPINKS LANE,0.632055,51.796089
3039.29,THE ROBERT DARBISHIRE PRACTICE,-2.226177,53.454626
2954.35,WENTWORTH MEDICAL PRACTICE.,-0.187898,51.607748
912.44,DOWNSFIELD MEDICAL CENTRE,-1.77969,52.466938
3817.52,MARYPORT HEALTH SERVICES,-3.494531,54.706432
1704.22,HOPWOOD HOUSE MEDICAL PRACTICE,-2.095467,53.542109
1916.71,LANE ENDS SURGERY,-2.727014,53.770173
1191.43,TEMPLE FORTUNE MEDICAL GROUP,-0.197845,51.581101
925.5,LYDDEN SURGERY,1.23991,51.163193
539.6,DMC CHADWICK ROAD,-0.074257,51.467864
2371.23,MILLSTREAM MEDICAL CENTRE,-1.797547,51.071683
3613.22,HELSBY HEALTH CENTRE,-2.770522,53.270467
601.29,DR AP KUMAR,-0.05904,53.573513
1345.35,COMMONFIELD RD SURGERY,-3.086369,53.370187
548.39,STATION SURGERY,-2.690615,53.698033
2988.49,APPLETON VILLAGE SURGERY,-2.729552,53.371391
1143.04,CALOW AND BRIMINGTON PRACTICE,-1.396121,53.257848
3907.18,FIRTH PARK SURGERY,-1.445847,53.417523
1338.91,BOTOLPH BRIDGE COMMUNITY HEALTH CENTRE,-0.261557,52.562595
605.51,SPRINGFIELD MEDICAL PRACT,-1.859629,52.444953
1237.65,ROCK COURT SURGERY,-2.916187,53.411597
5.09,CAMDEN DIABETES IPU,-0.131658,51.53665
2152.28,BRIGHTON STATION HEALTH CENTRE,-0.141323,50.827937
2203.31,VILLAGE SURGERY,-0.350376,51.023691
1165.79,STUBLEY MEDICAL CENTRE,-1.488541,53.304986
1114.49,NEWTON HEATH MEDICAL CENTRE,-2.181199,53.500995
1658.44,NORTHWAY MEDICAL CENTRE,-2.130997,52.548105
725.37,DR ST GEORGES MIU/OOH,-1.532085,53.747855
1346.34,SHREEJI MEDICAL CENTRE,-0.606689,51.518363
488.18,KIYANI MEDICAL PRACTICE,0.0021,51.555415
2485.91,TONBRIDGE MEDICAL GROUP,0.275507,51.185826
1330.63,DERBYSHIRE ROAD SOUTH SURGERY,-2.310144,53.416957
3975.56,RITCHIE STREET GROUP PRACTICE,-0.107858,51.53474
1211.68,CENTRAL SURGERY - SOUTHCHURCH BLVD,0.739537,51.54219
3181.7,FOREST MEDICAL,-1.205754,53.14969
535.95,CATHERINE HOUSE SURGERY,-3.683479,50.429832
2630.2,EAST LEAKE MEDICAL GROUP,-1.177129,52.83403
3295.99,PENDLE VIEW MEDICAL CTRE,-2.232263,53.826018
721.86,GREYSTONES MEDICAL CENTRE,-1.510002,53.363853
4593.2,KING EDWARD ROAD SURGERY,-0.866422,52.242766
501.44,BOUNDARY COURT SURGERY,-0.059836,51.623784
1000.68,THANET INTEGRATED ACUTE RESPONSE,1.387926,51.377178
612.16,BLAYDON GP LED PRACTICE,-1.696266,54.958098
17.14,CCS-CONTRACEPTION & SEXUAL HLTH SERVICE,0.15083,52.197136
940.61,SHEERNESS HEALTH CENTRE,0.766639,51.436119
3382.84,ALCONBURY SURGERY,-0.256797,52.371699
4153.39,ORCHARD SURGERY MELBOURN,0.020092,52.080651
1.47,PRINCESS ALICE HOSPICE,-0.376651,51.367131
2998.03,NUNWELL SURGERY,-2.507177,52.187931
715.1,SOMERSET FHP O,-0.369034,51.523141
4557.83,DR L FREEMAN & PARTNERS,-1.449442,53.752493
1637.9,THE BASSINGHAM SURGERY,-0.636987,53.126641
1788.23,LONGLEVENS SURGERY,-2.212032,51.875911
2070.57,NANTWICH HEALTH CENTRE,-2.518506,53.068155
986.15,ESTOVER SURGERY,-4.0952,50.411271
2980.37,SUNNY MEED SURGERY,-0.551243,51.315439
6.67,NORTH COTSWOLDS LOCALITY N. PRESCRIBER,-2.176389,51.847073
19.06,THOMAS LINACRE SPECIALIST,-2.629091,53.55774
1658.68,SEA MILLS SURGERY,-2.649928,51.484587
1078.17,THE SYMONDS GREEN HEALTH CENTRE,-0.22159,51.91302
1961.39,RIDGE GREEN MEDICAL PRACTICE,-1.836242,51.567683
1.27,PLANE WARD,0.12393,51.704295
2.78,H&R P C SPECIAL SCHEME,0.578137,50.857944
681.5,BALMORAL GARDENS,0.547786,51.385637
8.6,COMMUNITY ENT SERVICE,-0.258726,52.574107
3404.62,STONYHILL MEDICAL PRACTICE,-3.047383,53.781401
3381.53,FURLONG MEDICAL CENTRE,-2.208139,53.063325
373.98,THE SURGERY (BARRETTS GROVE),-0.078285,51.5522
677.28,STILLINGTON SURGERY,-1.108927,54.103615
2588.05,BARNARD CASTLE SURGERY,-1.916153,54.545708
1985.18,CROSSROADS MEDICAL PRACTICE,-0.587134,53.183432
889.01,PRINCES MEDICAL CENTRE,-0.359925,53.753343
3225.26,TWYFORD SURGERY,-0.862762,51.481804
499.72,PML NEIGHBOURHOOD HUB (BANBURY),-1.349027,52.057771
611.88,HIGHTOWN VILLAGE SURGERY,-3.058369,53.530081
4065.56,BURNLEY GROUP PRACTICE,-2.238948,53.791326
3896.76,BARBOURNE HEALTH CENTRE,-2.224952,52.208752
5.18,CPFT - CONSULTANT DIABETES TEAM,-0.240576,52.584016
861.92,GRANTHAM OOH,-0.640714,52.921087
357.74,NHS SOUTH CHESHIRE CCG NMP'S,-2.45397,53.098813
1269.13,SUDBURY & ALPERTON MEDICAL CENTRE,-0.298046,51.536916
5.35,ST JOHN'S HOSPICE,-2.803011,54.067023
533.22,THORNS ROAD SURGERY,-2.109345,52.472042
486.54,ALDERSBROOK MEDICAL CENTRE,0.038356,51.560671
773.57,QUARRY BANK MEDICAL CENTRE,-2.102402,52.471845
47.04,NORTHUMBERLAND COMMUNITY SERVICE,-1.508192,55.020469
825.44,OLD SCHOOL SURGERY,0.535827,51.09887
515.66,GROBY SURGERY,-1.225017,52.661865
2168.95,HIGH STREET MEDICAL CENTRE,-2.282777,51.747097
728.32,MEVAGISSEY SURGERY,-4.788601,50.270644
7070.77,BRISDOC HEALTHCARE SERVICES OOH,-2.596274,51.428746
1647.31,REGENCY SURGERY,-0.136165,50.82196
1198.15,THE SLIEVE SURGERY,-1.927168,52.520008
2629.13,KING'S MEDICAL PRACTICE,-1.419613,53.700643
5329.54,EASTWOOD PRIMARY CARE CENTRE,-1.307753,53.016064
3787.94,TODMORDEN GROUP PRACTICE,-2.092159,53.713651
17.62,IMPERIAL COMMUNITY DERMATOLOGY SERVICE,-0.08431,51.500087
1869.3,THE ALMONDBURY SURGERY,-1.751311,53.631868
851.67,ST CHARLES UCC CENTRE WIC,-0.217218,51.522362
2189.53,MARPLE BRIDGE SURGERY,-2.053323,53.400594
9.6,INDEPENDENT HEALTH GROUP,-2.414415,51.312224
4282.05,STRAND MEDICAL GROUP,-0.41094,50.818463
2.78,NT&H COMM RR,-1.227837,54.702398
3567.75,THORNTON MEDICAL CENTRE,-1.576209,53.791908
961.29,CHEVELEY PARK MEDICAL CTR,-1.525818,54.7856
1886.96,THE RED PRACTICE WALTON,-0.406024,51.380924
1575.1,HIGH STREET SURGERY,-0.037483,51.708474
914.45,THE INGHAM SURGERY,-0.57717,53.336945
563.39,SADDLERS HEALTH CENTRE,-1.979464,52.587684
18.57,CHILDREN AND FAMILIES DIVISION,-1.892891,52.445923
114.06,NSC BOSWORTH HUB,-1.753633,52.480569
2903,THE GLEN MEDICAL GROUP,-1.52187,54.97385
1533.33,HILLINGDON HEALTH CENTRE,-0.448053,51.551621
1576.93,BROCKWORTH SURGERY,-2.156696,51.844575
46.07,WATERLOOVILLE GP EXTENDED ACCESS HUB,-1.033601,50.891899
3346.19,DMC SHEPPEY-W.I. CLINIC,0.793061,51.415409
1217.3,GRANGE ROAD MEDICAL PRACTICE,-1.763413,54.972384
5972.78,WESTERHOPE MEDICAL GROUP,-1.686811,54.997777
126.2,MODALITY AWC EXTENDED ACCESS,-1.889371,53.858954
1041.01,BROUGHTON HOUSE SURGERY,-1.636312,53.713801
1618.8,WESTCROFT HEALTH CENTRE,-0.795699,52.006367
5702.45,THE WALL HOUSE SURGERY,-0.208192,51.241304
2780.63,THE DUNSTAN PARTNERSHIP,-2.384279,53.582354
2789.71,ODIHAM HEALTH CENTRE,-0.94103,51.254544
4064.88,SHAKESPEARE WIC,-1.525196,53.802098
15.47,EPSOM DAY SURGERY UNIT,-0.255324,51.334461
844.31,CENTRAL CLINIC,-2.075775,52.507977
1438.67,ROYAL ARSENAL MEDICAL CENTRE,0.073476,51.493492
2733.53,HEACHAM GROUP PRACTICE,0.491184,52.90988
1905.17,OLD ROAD WEST SURGERY,0.367195,51.433655
2424.49,LONG CATLIS ROAD SURGERY,0.595579,51.348325
3757.88,THE GRANGE MEDICAL CENTRE,-1.354248,53.611836
1308.57,CHASE CROSS MEDICAL CENTRE,0.164796,51.600118
15900.13,PRIORY MEDICAL GROUP,-1.129435,53.949388
12.29,LIVINGCARE HEALTH SERVICES ENT,-1.427194,53.79855
51.05,DODDINGTON LUCS,0.058102,52.497587
2899.13,BEECHWOOD SURGERY,0.292731,51.608567
3924.47,ST GEORGE'S MEDICAL CENTRE,-2.189031,53.509666
1185.26,YORK ROAD SURGERY,-1.348576,53.435091
2.78,ST MARGARET'S HOSPICE,-3.127087,51.016495
4644.83,SOUTH GRANGE MEDICAL GROUP PRACTICE,-1.166506,54.569955
1003.77,ASHCROFT SURGERY,-0.71666,51.898041
4458.94,WESTBOURNE MEDICAL CENTRE,-1.90343,50.723515
1520.29,EAST BARNET HEALTH CENTRE,-0.166424,51.646339
4010.33,LITCHDON MEDICAL CENTRE,-4.041711,51.069586
197.77,OPEN DOOR,-0.068703,53.572249
4765.77,SALFORD PRIMARY CARE TOGETHER,-2.423902,53.529872
1257.95,GROVE HILL MEDICAL CENTRE,-0.457357,51.772315
465.67,HOUNSLOW FAMILY PRACTICE,-0.366799,51.471773
355.54,HILLTOP MEDICAL PRACTICE,-0.263604,51.542472
2139.8,FRIARY HOUSE SURGERY,-4.128292,50.37266
2631.79,MYTHE MEDICAL PRACTICE,-2.153433,51.99229
4336.83,WILLIAM BROWN CENTRE,-1.33142,54.757994
1628.74,UNIVERSITY HEALTH SERVICE HEALTH CENTRE,-1.482709,53.380323
1794.71,HT PRACTICE,-2.110496,53.478305
1101.59,BARNT GREEN SURGERY,-1.991028,52.35999
1168.05,NEASDEN MEDICAL CENTRE,-0.247382,51.559667
1541.67,LANGLEY MEDICAL PRACTICE,-0.299929,51.390825
2953.1,BILLINGSHURST SURGERY,-0.445798,51.024981
819.38,DROYLSDEN RD FAMILY PRACTICE,-2.175662,53.499916
5227.52,GADE SURGERY,-0.481406,51.636736
756.51,FERRY ROAD HEALTH CENTRE,0.728076,50.951404
1996.18,SPRING HOUSE SURGERY,-2.463553,53.588374
2821.55,WELL CLOSE MEDICAL GROUP,-2.006127,55.772458
2339.59,PROSPECT SURGERY,-1.235397,54.575047
16.6,BEECHCARE & PGU,0.25484,51.420223
108.75,REDDITCH & BROMSGROVE COMMUNITY NURSES,-2.055662,52.344136
23.24,ST HELENS OUT OF HOSPITAL SERVICE,-2.723398,53.418906
1130.3,THE TOLLERFORD PRACTICE,-2.571586,50.778924
1770.83,DENMARK ROAD MEDICAL CENTRE,-1.876102,50.747031
1725.36,WEST GREEN ROAD SURGERY,-0.092209,51.58587
2953.9,SPINNEY BROOK MEDICAL CENTRE,-0.614041,52.32438
1869.42,EVERSLEY MEDICAL CENTRE,-0.111913,51.388514
2035.09,LANGSTONE WAY SURGERY,-0.210815,51.606981
3691.05,BEECH HILL MEDICAL PRACTICE,-2.644352,53.555654
1973.42,BELLEVUE MEDICAL CENTRE,-1.900852,52.465393
512.69,ILKESTON HEALTH CENTRE,-1.308041,52.968251
581.65,ALEXANDRA MEDICAL CENTRE,-2.063026,52.454036
2116.56,THE ARNEWOOD PRACTICE MILTON MEDICAL CEN,-1.657992,50.756444
1205.63,KENNETH MACRAE MED CENTRE,-2.786435,53.49903
810.32,STANLEY CORNER MEDICAL CENTRE,-0.296619,51.544251
1499.4,SOUTH NORWOOD HILL MEDICAL CENTRE,-0.080772,51.403169
1936.37,GREENWICH PENINSULA,0.012038,51.493258
236.48,DCHS DERBY CITY,-1.441882,53.221288
6717.68,FROME MEDICAL CENTRE,-2.311568,51.237318
2464.67,ROYAL MANOR HEALTH CARE,-2.437275,50.544008
5.01,RTPCT DERMATOLOGY GPWSI,-0.242504,51.473609
54.24,YAS IUC OOH,-1.517971,53.709391
33.18,THE SKIN CLINIC,-2.74562,52.713895
1.94,BNSSG COMMUNITY PAEDIATRICIANS,-2.499941,51.462591
3328.82,EXCEL PRIMARY CARE,-2.758901,53.538343
4511.97,BARTON SURGERY,-3.473818,50.579848
3355.34,BAMPTON SURGERY,-1.55034,51.729032
2.41,RAMSAY HEALTHCARE SPRINGFIELD HOSPITAL,0.484598,51.753372
954.94,HASTINGS AND ROTHER OOH,0.891514,51.129106
355.23,SCOTT PARK SURGERY,0.669733,51.571078
76.39,LOCAL PRIMARY CARE EAST/WEST SPOKE,-2.486748,53.750552
2451.23,WITTON MEDICAL CENTRE,-2.507553,53.740232
2088.01,THE PRACTICE ALBERT ROAD,0.053108,51.501557
3260.52,CORNERSTONE PRACTICE,0.091322,52.548858
1938.99,KINGSTON PRIMARY CARE EXTENDED SERVICE,-0.304894,51.414188
1252.28,THE CHURCH VIEW PRACTICE,0.609995,51.363412
2742.16,HAYDOCK MEDICAL CENTRE,-2.656554,53.468334
1905.5,BRACKNELL URGENT CARE CENTRE WIC,-0.735982,51.413263
196.83,COMMUNITY MATRONS,-2.095555,52.599722
2616.52,THE OAKS MEDICAL CENTRE,-1.895827,52.552454
4855.28,EAST NORWICH MEDICAL PARTNERSHIP,1.337135,52.637255
8518.97,TOWER FAMILY HEALTHCARE,-2.341432,53.614725
1601.91,THE MILLER PRACTICE,-0.092165,51.551419
10.68,DMC NORTH KENT DERMATOLOGY - DGS,0.343258,51.435153
2620.12,DRUID GROUP,-1.942009,52.486277
2907.34,FRONT STREET SURGERY,-1.126923,53.954403
205.8,FULHAM CROSS MEDICAL CENTRE,-0.214067,51.482774
54.6,GREAT HARWOOD SURGERY,-2.414211,53.768459
2684.59,CASTLECROFT MEDICAL PRACTICE,-2.189808,52.57877
1694.69,BRIERCLIFFE SURGERY,-2.212859,53.810388
4076.71,THATCHAM HEALTH CENTRE,-1.262387,51.404018
1338.25,WATLINGTON MEDICAL CENTRE,0.391163,52.666799
1358.47,THE ROSEBERRY PRACTICE,-1.292215,54.611726
1249.1,ASPULL SURGERY,-2.586036,53.569599
2218.22,GRESLEYDALE HEALTHCARE CENTRE,-1.576841,52.760758
2204.02,WINCOBANK MEDICAL CENTRE,-1.416316,53.419405
1498.99,THE WRAGBY SURGERY,-0.301337,53.287948
1638.72,ROYAL DOCKS MEDICAL PRACTICE,0.062932,51.50946
491.69,ALVELEY MEDICAL PRACTICE,-2.353309,52.454738
41.71,ST WERBURGH'S MEDICAL PRACTICE HOMELESS,-2.890684,53.194463
4880.7,LISTER MEDICAL CENTRE,0.090365,51.754515
2047.65,STURRY SURGERY,1.130308,51.304473
4409.02,PUTNOE MEDICAL CENTRE PARTNERSHIP,-0.438308,52.147939
1270.45,BURVILL HOUSE SURGERY,-0.22721,51.761302
2134.11,PRIORS FIELD SURGERY,0.124169,52.388951
3423.51,AXMINSTER MEDICAL PRACTICE,-2.999226,50.780899
16.81,WILL ADAMS NHS TREATMENT CENTRE,0.576568,51.380889
2963,CENTRAL PARK MEDICAL CENTRE,-3.045864,53.415672
484.56,MALTHOUSE MEADOWS SURGERY,-2.568038,50.668698
1668.54,THE SPRINGFIELD SURGERY (BINGLEY),-1.827829,53.846937
1054.43,HOOK SURGERY,-0.312059,51.359148
26.64,CARE UK OPHTHALMOLOGY CATS,-2.14084,53.622824
191.5,NT&H COMM RESP N,-1.227837,54.702398
3411.69,BHARANI MEDICAL CENTRE,-0.647828,51.520652
1637.56,DR LONGFIELD AND PARTNERS,-0.759425,52.997585
958.67,IC24-CANTERBURY CCG-OOH,0.891514,51.129106
3535.52,SANDY LANE SURGERY,-2.694715,53.689488
908.86,HATTON MEDICAL PRACTICE,-0.433285,51.457879
688.93,BECKETT HOUSE PRACTICE,-0.123521,51.469491
557.54,HINDON SURGERY,-2.130793,51.095814
1648.87,THE RANGE MEDICAL CENTRE,-2.257066,53.452309
25.83,COMMUNITY ENT,0.303361,51.290055
774.2,MARSHALLS ROAD SURGERY,-0.539225,52.344743
854.04,ARDINGLY COURT SURGERY,-0.132888,50.82118
4655.06,HUNTINGDON ROAD SURGERY,0.11009,52.214035
21.55,ENT GPWSI CUMBERLAND CENTRE,-4.167875,50.369991
2259.85,WICKHAM MARKET MEDICAL CENTRE,1.363674,52.151842
1631.4,STRETTON MEDICAL CENTRE,-2.577017,53.339489
971.31,DR U AKBAR,-1.777945,53.803569
2165.16,WIGTON GROUP MEDICAL PRACTICE,-3.159002,54.820303
27.49,EXTENDED ACCESS PCD LAKESIDE PRACTICE,-1.148909,53.615496
144.7,YARDLEY MEDICAL CENTRE,-1.828397,52.463189
2677.31,PENN MANOR MEDICAL PRACTICE,-2.14981,52.559823
283.83,THE PRACTICE COLLEGE ROAD,-0.539824,51.322572
3947.03,MERIDIAN SURGERY,-0.000811,50.796102
2139.03,HOMESTEAD,-1.518747,53.68227
324.99,ALLENBY CLINIC,-0.376261,51.531514
9676.8,BSW IUC OOH,-2.122946,51.473348
3155.01,WELLINGTON MEDICAL PRACTICE,-2.514204,52.699878
504.38,NARBOROUGH ROAD SURGERY,-1.153521,52.624383
1346.83,LAMBGATES HEALTH CENTRE,-1.970153,53.463477
390.73,CSS DERMATOLOGY SERVICE,-0.00105,51.620089
8161.63,THE DEEPINGS PRACTICE,-0.316194,52.683726
3332.26,MIDWAY SURGERY,-0.355421,51.733852
905,SOOD (THE GREEN & FIR ROAD),-0.340635,51.443826
1637.6,THE LINDLEY VILLAGE SURG.,-1.82571,53.661331
1833.18,HIGH OAK SURGERY,-2.13113,52.500707
419.25,WESTWOOD PRIMARY CARE CENTRE,-1.110806,53.296468
39.16,NHS FYLDE & WYRE CCG,-2.881037,53.789498
960.46,POTTERIES MEDICAL CENTRE,-2.136838,53.020074
1324.04,THE OLD COLE HOUSE PRACTICE,-1.475043,52.477262
2395.45,SOUTHWAY SURGERY,-4.133237,50.427678
2721.67,GUARDIAN STREET MED/CTR,-2.606297,53.391901
1019.36,BRANDON STREET SURGERY,-1.122261,52.648042
200.27,M & A LTC PALLIATIVE CARE NURSE,-1.238124,52.98146
4199.7,HIGH PASTURES SURGERY,-2.946534,53.519395
1682.5,PLANE TREES GROUP PRACTICE,-1.894437,53.730448
1271.49,MICKLEOVER SURGERY,-1.53732,52.907481
2848.11,CROCUS MEDICAL PRACTICE,0.238729,52.025067
891.73,ASH SURGERY,1.27891,51.279887
84.96,RAMSAY HEALTHCARE - NORTH DOWNS HOSPITAL,-0.079153,51.273556
770.1,DELTA HEALTHCARE,-0.292835,53.764281
1257.96,SWANWOOD PARTNERSHIP,0.519034,51.613356
20.87,HOLYWELL AT LANGLEY HOUSE HCT,-0.391206,51.683651
1862.12,BROOK GREEN MEDICAL CENTRE,-0.220945,51.495163
2982.03,WHADDON MEDICAL CENTRE,-0.766276,52.000308
476.09,KINGS HEALTH & LINGS BROOK PRACTICE,-0.922279,52.256829
1089.91,THE NEW BREWERY LANE SURG,-1.636835,53.67243
834.2,GROVE SURGERY,-0.01097,51.579197
2425.38,CRESSEX HEALTH CENTRE,-0.778801,51.617114
628.61,DR SATHANANDANS PRACTICE,0.650261,51.555142
588.26,THE PRACTICE SURGERIES LTD,-0.099109,51.370492
4242.05,ST JOHNS MEDICAL CENTRE,-2.352158,53.38672
451.03,NORTH SATELLITE UNIT,-1.487911,53.42172
4616,UNDERCLIFFE SURGERY,-1.67818,53.707224
456.59,ST LUKE'S SURGERY,-0.0358,50.8023
1056.82,DR ARORA RK,-1.997982,52.516003
1862.99,ODDFELLOWS HALL & ST CLEMENTS,0.327906,51.480703
2287.71,SPINNEY SURGERY,-0.077762,52.33533
42.45,ACUTE GP REFERRAL SERVICE,-4.113684,50.41672
2290.37,WARWICK ROAD SURGERY,-2.928541,54.893858
2069.67,THE PETWORTH SURGERY,-0.607135,50.983365
1106.17,SLEIGHTS AND SANDSEND MEDICAL PRACTICE,-0.659645,54.452005
3433.56,WIDE WAY MEDICAL CENTRE,-0.134454,51.401824
127.16,ARUN MIAMI GP ACCESS HUB,-0.531673,50.808759
3098.56,RIVER LODGE SURGERY,0.018818,50.874836
4340.83,CLOVER GROUP PRACTICE,-1.40885,53.384843
1192.41,WOODBANK SURGERY,-2.308802,53.60507
4080.77,CRUDDAS PARK SURGERY,-1.630965,54.968173
1120.02,OAKHILL MEDICAL PRACTICE,-1.458311,53.305662
3266.15,PARK PRACTICE,0.277898,50.794441
2619.82,HAZELDENE HOUSE SURGERY,-2.004496,52.800688
1303.15,DR. MASTERTON'S SURGERY,-0.130137,51.430487
2393.84,KINGS NORTON SURGERY,-1.930753,52.404588
1352.46,NASEBY MEDICAL CENTRE,-1.844953,52.489175
1800.24,YEADING COURT SURGERY,-0.40009,51.528299
1845.84,PRIME PRACTICE PARTNERSHIP,0.152111,51.535187
8.66,ADULT COMMUNITY NURSING,-0.086794,51.503466
488.12,HEADSTONE ROAD SURGERY,-0.340912,51.583768
1843.98,OAKLANDS SURGERY,-2.617414,50.954243
437.62,BELSIZE PRIORY MEDICAL PRACTICE (GROUP),-0.188014,51.539773
270.45,DR SKS SWEDAN,0.024864,51.550554
44.07,MEDWAY PRACTICES ALLIANCE (MPA),0.546037,51.326929
4211.91,CASTLE HEALTHCARE PRACTICE,-1.144908,52.930476
918.57,MONTPELIER SURGERY,-0.149079,50.827148
1195.92,SOUTH SEFTON GP EXTRA SERVICE,-3.002733,53.472727
139.03,THE TOWN SURGERY,-0.378104,51.512512
1490.47,EVERGREEN OAK SURGERY,-1.958467,50.723629
2995.2,DR JK MARSDEN'S PRACTICE,-0.436528,51.894968
2008.5,CEDAR BROOK PRACTICE,-0.414132,51.534092
1.47,MAIDSTONE CENTRAL CLUSTER,0.277462,51.194717
1184.62,SOLWAY HEALTH SERVICES,-3.551342,54.642687
3837.74,ALMA MEDICAL CENTRE,-1.317648,54.56949
2450,COLLINGHAM CHURCH VIEW SURGERY,-1.408994,53.908099
272.24,DONNINGTON SKIN CLINIC,-2.435652,52.714406
647.7,INTRAHEALTH PLATT BRIDGE,-2.595925,53.522279
1.76,JOHN TAYLOR HOSPICE,-1.823564,52.527352
4407.71,MERCHISTON SURGERY,-1.749007,51.587527
488.68,THE BROOK SURGERY,-1.871333,52.462659
1618.36,THE YELLOW PRACTICE,-0.406024,51.380924
1156.65,BROKEN CROSS SURGERY,-2.12262,53.257964
3430.62,WARLEY MEDICAL CENTRE,-2.006757,52.468122
1079.99,ROTH. NHS FT COMM. SERV,-1.358666,53.434741
414.72,GOVIND HEALTH CENTRE,-1.532784,52.400277
952.7,WILLIAM HARVEY SURGERY,0.597963,51.593347
941.15,TRI-LINKS MEDICAL PRACTICE,-1.664038,52.634849
90.31,OLDHAM 7 DAY ACCESS HUB3 OOH,-2.156747,53.509855
433.77,THE SURGERY FODEN STREET,-2.188242,52.997045
423.8,MAYTREES MEDICAL PRACTICE,-2.563371,51.470243
1292.53,APPLEBY MEDICAL PRACTICE,-2.492993,54.578082
2504.81,CENTRAL GATESHEAD MEDICAL GROUP,-1.604307,54.956479
1917.95,TORRIDON ROAD MEDICAL PRACTICE,-0.002112,51.44011
1148.28,THE WHITE HOUSE SURGERY,0.088164,51.534004
1334.52,BIRCHES HEAD MEDICAL CTR.,-2.154096,53.035667
8232.29,HAXBY GROUP PRACTICE,-1.081866,54.019329
185.8,NEWCASTLE DIABETES CENTRE,-1.644546,54.976238
1220.13,VALE DRIVE MEDICAL PRACTICE,-0.194727,51.648828
1886.19,THE ERIC MOORE PARTNERSHIP,-2.59716,53.393404
813.14,DR DP SHAH'S PRACTICE,0.160037,51.545122
3271.13,PRESCOTT SURGERY,-2.852689,52.784345
1850.99,DR AHMAD & PTNRS,-2.595925,53.522279
672.41,HORNE STREET SURGERY,-1.871717,53.725678
16.88,COMMUNITY COPD SERVICES,-1.508005,52.413401
3199.36,CHISLEHURST MEDICAL PRACTICE,0.066938,51.419678
2510.22,THE REDWELL MEDICAL CENTRE,-0.701555,52.314792
3803.36,THE ALDERGATE MED.PRACT.,-1.695644,52.639079
5964.22,POCKLINGTON GROUP PRACTICE,-0.781336,53.924503
3800.79,LOCKFIELD SURGERY,-2.057135,52.585445
367.8,DR SOOD'S PRACTICE,-0.382386,51.483967
4819.44,MOUNT FARM SURGERY,0.742641,52.245214
3037.82,VALENTINE HEALTH PARTNERSHIP,0.061519,51.49221
1511.05,DR AHMED & PARTNERS,-1.782551,53.655615
2484.43,NORTH CHELMSFORD NHS HCC,0.510815,51.750584
1417,THE OAKWOOD SURGERY,-1.073937,53.506609
2609.8,CENTRE PRACTICE,-1.17634,50.853776
1801.33,MORETON HEALTH CLINIC,-3.112556,53.400453
2441.88,JUBILEE STREET PRACTICE,-0.050552,51.513595
878.85,HIGH STREET MEDICAL CENTRE,-2.595495,53.47988
1058.66,DERWENT MEDICAL CENTRE,-1.480751,52.929325
6057.76,BARDOC GP OOH,-2.427769,53.590447
2360.06,SHEEPCOT MEDICAL CENTRE,-0.412898,51.695192
2651.19,DEER PARK FAMILY MEDICAL PRACTICE,-1.230829,52.949242
3355.84,THE MEDICAL CENTRE  DRIFFIELD,-0.439676,54.006257
571.08,THE NEW SURGERY,-0.235578,51.506058
1012.26,LAMBETH WALK GROUP PRACTICE,-0.112591,51.495609
1070.14,LEANDER ROAD SURGERY,-0.117457,51.399457
2452.61,CHELSFIELD SURGERY,0.104017,51.355726
2526.67,CANFORD HEATH GROUP PRACT,-1.964765,50.741327
5222.54,YAXLEY GROUP PRACTICE,-0.251101,52.516866
1482.8,BOLTON MEDICAL CENTRE,-2.431399,53.56543
2959.89,CORNWALL 111 OOH,-5.097984,50.265937
1378.15,TEMPLE HOUSE PRACTICE,-2.498229,51.409833
772.71,THE CRANE,0.535827,51.09887
18.86,EAST HULL FAMILY PRACTICE,-0.268619,53.77908
2734.2,MANOR HOUSE LANE SURGERY,-1.802707,52.461306
1425.43,BRIDGE STREET SURGERY,-0.495121,53.551684
630.99,MELROSE SURGERY,-1.287301,54.609397
1061.72,MEDICAL CENTRE CAMELFORD (DR GARROD),-4.676789,50.624027
2115.8,MACKLIN STREET SURGERY,-1.481767,52.92115
2932.24,POLDEN MEDICAL PRACTICE,-2.87579,51.150216
334.03,RUNCORN GP EXTRA,-2.727045,53.331865
1231.33,LIMES MEDICAL CENTRE,-1.387885,53.098493
3498.3,WASHWOOD HEATH URGENT CARE CENTRE,-1.849921,52.487617
3144.28,ABBEY MEADS MEDICAL PRACT,-1.792794,51.597826
4940.31,CHEVIOT ROAD SURGERY,-1.455974,50.921365
25.35,COMMUNITY DERMATOLOGY SERVICE,-1.508005,52.413401
40.24,CRISIS RESPONSE TEAM,-2.186902,53.52264
3155.86,ST NEOTS SURGERY,-4.160899,50.387979
294.27,NEWARK ACUTE HOME VISITING SERVICE,-1.238124,52.98146
585.64,SHEERWATER HEALTH CENTRE,-0.530722,51.334156
2773.37,LIQUORPOND SURGERY,-0.025925,52.9735
1583.02,FORDINGTON SURGERY,-2.42746,50.713004
3859.32,SHAFTESBURY MEDICAL CTR.,-1.497858,53.800234
1131.49,BURNSIDE SURGERY,-2.424635,53.592518
1693.82,HIGHGROVE SURGERY,0.098727,51.538564
1548.1,MEDICENTRE,-2.643055,53.494018
813.36,MARKET OVERTON & SOMERBY SURGERIES,-0.684769,52.739345
1364.62,RICHMOND MEDICAL CENTRE,-2.384874,53.752328
932.6,TWIN OAKS MEDICAL CENTRE,-1.737739,50.781308
3184.04,STONELEIGH SURGERY,-2.770704,54.227277
2987.56,WESTMINSTER MEDICAL CENTRE,-2.97836,53.44083
1872.46,DESFORD MEDICAL CENTRE,-1.296116,52.627473
1982.04,WILMSLOW HEALTH CENTRE,-2.237324,53.322922
2297.59,MANOR FARM MEDICAL CENTRE,0.690513,52.648544
4462.95,RAVENSWOOD MEDICAL PRACTICE,1.199377,52.030367
1472.62,CHESSINGTON PARK SURGERY,-0.312059,51.359148
2089.23,ASHTON  LEIGH & WIGAN OOH,-2.614585,53.534922
1432.74,DR SINHA & PARTNERS,0.100204,53.030138
1664.76,ROSEWORTH SURGERY,-1.61867,55.001366
1586.82,THORPE HESLEY SURGERY,-1.432602,53.458647
722.93,BANK HOUSE SURGERY,0.069949,51.359218
1874.53,STATION ROAD SURGERY,0.102029,51.431445
4841.09,ADDISON HOUSE - HAQUE PRACTICE,0.088979,51.770891
802.85,CALDBECK SURGERY,-3.050622,54.749864
1818.54,AWBURN HOUSE MEDICAL PRACTICE,-2.011,53.458105
868.08,IC24-ASHFORD CCG-OOH,0.891514,51.129106
1811.21,DR COLLINS AND CARRAGHER,-0.311771,52.006602
4275.49,MOUNT CHAMBERS MEDICAL PRACTICE,0.552722,51.879812
1213.86,HOWELL SURGERY,0.398895,51.150874
1940.58,SOUTHAMPTON PRIMARY CARE HUBS,-1.317099,50.913217
1366.44,EDGWARE WIC,-0.271242,51.606493
2932.54,THE MUSWELL HILL PRACTICE,-0.141215,51.59225
2745.2,THE BARKANTINE PRACTICE,-0.025725,51.500806
1620.76,ABBEY ROAD SURGERY,-3.224778,54.109942
995.3,MANOR PRIMARY CARE,-2.764643,53.549695
320.95,7 DAY ACCESS MIDDLETON HC,-2.172588,53.54895
2447.87,CONSTABLE COUNTRY RURAL MEDICAL PRACTICE,1.026191,51.977179
3531.72,BEECH HOUSE MEDICAL PRACT,-2.118146,53.379406
4129.37,COQUET MEDICAL GROUP,-1.580504,55.332599
3694.58,WARLINGHAM GREEN MED PRAC,-0.057218,51.312278
2496.23,THE MANOR HOUSE SURGERY,-1.159231,54.557403
1766.31,THE SURGERY - 48 MULGRAVE ROAD,-0.196293,51.358332
33.07,DERMATOLOGY SERVICE,-2.635267,53.445979
606.71,WEST TOWN SURGERY,-0.443862,53.685751
632.57,HOLLINGTON SURGERY,0.872487,51.151423
1193.32,WAKE GREEN SURGERY,-1.883357,52.446103
333.05,CROYDON SOUTH & CENTRAL EXTENDED ACCESS,-0.114466,51.34074
419.3,MEDICAL CENTRE CAMELFORD (DR NASH),-4.676789,50.624027
2288.17,FALLODON WAY MEDICAL CENTRE,-2.609541,51.483068
3334.24,HIGHCROFT SURGERY,-1.12882,53.00411
1170.06,RIVERSIDE FAMILY PRACTICE,-2.238948,53.791326
1636.48,DALTON SURGERY,-1.751038,53.644598
1210.38,HOUNSLOW MEDICAL CENTRE,-0.37684,51.469395
5544.94,THE CEDARS SURGERY,0.173742,51.395873
533.15,KINCORA DOCTORS SURGERY,-0.412216,51.511666
2725.9,LARKSFIELD SURGERY MEDICAL PARTNERSHIP,-0.235113,52.017132
1753.77,SPRING TERRACE HEALTH CENTRE,-1.450673,55.010941
793.04,MIAMI CLINIC - ST LAWRENCE SURGERY,-0.390026,50.823979
2375.14,NORTHGATE VILLAGE SURGERY,-2.892972,53.195093
1918.96,CROSLAND MOOR SURGERY,-1.809637,53.63841
3825.03,HARCOURT MEDICAL CENTRE,-1.800762,51.067489
6561.45,PEMBROKE MEDICAL GROUP,-3.560246,50.445527
474.45,HORNDON-ON-THE-HILL SURGERY,0.405746,51.523749
1209.42,AELFGAR SURGERY,-1.937701,52.763581
3598.17,ORCHARD MEDICAL CENTRE,-2.510659,51.462087
3885.97,WEST END SURGERY,-1.327291,50.928501
1062.37,LAKESIDE,-2.203683,52.595468
986.94,CHURCH END MEDICAL CENTRE,-0.253241,51.54757
1103.81,WILLIAM FISHER MED.CTR.,0.826913,51.662819
1614.1,GREAT BRIDGE P/SHIP FOR HEALTH,-2.032577,52.528908
65.93,TORBAY NMP SPECIALIST,-3.552785,50.48778
2241.94,THE REYNARD SURGERY,0.484029,52.302685
51.1,RAM PATEL (DERMATOLOGY),-1.03822,52.946139
3069.26,ENDERLEY ROAD MEDICAL CENTRE,-0.340469,51.601872
4571.77,THE GRANGE GROUP PRACTICE,-1.781351,53.662292
2166.76,ELIZABETH AVENUE GROUP PRACTICE,-0.091905,51.539023
356.71,ECCLES GATEWAY MEDICAL CENTRE,-2.339314,53.48253
52.16,NORTHVILLE FAMILY PRACTICE,-2.570103,51.50079
2144.51,HALESOWEN MEDICAL PRACTICE,-2.059137,52.444056
1350.1,HIGHERLAND SURGERY,-2.232632,53.009021
4139.56,FAILSWORTH GROUP PRACTICE,-2.156747,53.509855
4995.53,FELDON LANE PRACTICE,-2.028271,52.467325
959.8,DRS CHALMERS & MEIER,-0.066189,53.557292
1981.77,PRICES MILL SURGERY,-2.224938,51.693801
6489.07,PELC REDBRIDGE OOH,0.066648,51.55684
493.66,SAXENA L,-2.668958,53.521291
693.14,CRADLEY SURGERY,-2.402119,52.118284
4307.06,LORDSWOOD HOUSE GROUP MEDICAL PRACTICE,-1.961221,52.459054
3323.1,STOCKTON HEATH MED.CENTRE,-2.582161,53.37195
1699.85,CENTRAL SURGERY,-2.74261,53.456686
1878.59,CROSBY HOUSE SURGERY,-0.599437,51.517962
282.95,GLOUCESTER ROAD SURGERY,-0.183052,51.647272
2499.73,THREE VILLAGES MEDICAL PRACTICE,-2.146398,52.465406
339.43,MEDICUS HEALTH PARTNERS-MOORFIELD ROAD,-0.047082,51.660296
852.02,SWANSWELL MEDICAL CENTRE,-1.816529,52.432515
1369.02,TOOTING SOUTH MEDICAL CENTRE,-0.161461,51.421738
2649.83,STAPENHILL MEDICAL CENTRE,-1.624908,52.785524
3139.33,DENMEAD HEALTH CENTRE,-1.067347,50.904386
1528.63,SOUTH PARK MEDICAL PRACTICE,0.189702,51.270005
5426.82,AW SURGERIES,-2.122432,52.482313
1044.33,WAYSIDE MEDICAL PRACTICE,-0.165912,51.173238
808.85,SOUTH HORNCHURCH WALK IN CENTRE,0.192085,51.533441
1745.44,COTSWOLD MEDICAL PRACTICE,-1.75678,51.886317
3271.67,MOUNT PLEASANT MED CENTRE,-1.637294,53.707036
502.16,THE LORDSHIP LANE SURGERY,-0.073221,51.448369
3766.05,NEASHAM ROAD SURGERY,-1.542648,54.517256
1998.41,SWINESHEAD SURGERY,-0.158921,52.940616
3354.53,KING GEORGE SURGERY,-0.206096,51.907416
1347.07,MAWBEY GROUP PRACTICE,-0.125232,51.479283
1395.82,THE KAKOTY PRACTICE,-1.473444,53.5464
5050.83,NEW SOUTHGATE SURGERY,-1.50415,53.692762
1348.48,HALDON HOUSE SURGERY,-3.416301,50.619764
1518.53,MARKFIELD MEDICAL CENTRE,-1.272985,52.685255
1992.66,THE ROCKWELL AND WROSE PRACTICE,-1.744408,53.822997
631.74,ASHLEY SURGERY,-2.355514,52.925782
124.27,ROSSLYN HILL SURGERY,-0.170852,51.554201
378.63,CHILDS (THAMESIDE),-0.326599,51.427449
3010.6,THE GROUP PRACTICE ALFRED SQUIRE ROAD,-2.080754,52.599417
1314.01,DR M ASLAM'S PRACTICE,0.510532,51.57811
63.41,GAINSEA,-0.780581,53.411776
266.33,ACE,0.921589,51.923793
1146.79,NORTHLANDS WOOD SURGERY,-0.081209,50.996531
2057.55,BROOK HOUSE SURGERY,-1.445882,50.921794
2657.72,WEST ROAD SURGERY,0.70187,51.544989
12345.66,WHITSTABLE MEDICAL PRACTICE,1.012662,51.340885
1687.3,EARLS BARTON MEDICAL CENTRE,-0.758162,52.264648
489.52,GREAT HOLLANDS PRACTICE,-0.770726,51.398661
2719.48,VEOR SURGERY,-5.299615,50.209958
837.68,HEATHWAY MEDICAL CENTRE,0.152111,51.535187
594.57,BIRTLE VIEW MEDICAL PRACTICE,-2.2277,53.595186
16.44,COMMUNITY DERMATOLOGY CLINIC,0.01625,51.510991
2317.04,RIVER PLACE HEALTH CENTRE,-0.09656,51.540513
1785.92,MILLBROOK SURGERY  CASTLE CARY,-2.51716,51.087618
2165.53,BLACKETTS MEDICAL PRACTICE,-1.559007,54.527221
221.66,AL-SHIFA MEDICAL CENTRE,-2.229695,53.433705
1877.35,SUN LANE,1.087469,51.071536
64.08,TORBAY AND SOUTHERN DHCT,-3.552785,50.48778
1056.04,KINGSWOOD SURGERY,-1.517051,53.991495
2338.26,CROFT MEDICAL CENTRE,-1.727743,52.477876
2051.85,KNIGHTWICK SURGERY,-2.394831,52.200399
2022.07,ST ANDREWS MEDICAL PRACTICE.,-0.17238,51.630138
1462.44,CHAPEL ROW SURGERY,-1.17086,51.425877
2172.14,BELMONT & SHERBURN MEDICAL GROUP,-1.52816,54.786148
1929.7,UEA MEDICAL CENTRE,1.241391,52.622369
2923.97,STAUNTON GROUP PRACTICE,-0.112926,51.599388
2028.78,MODALITY DARLASTON PRACTICE,-2.036323,52.56617
340.27,GPSI DERMATOLOGY SERVICE BUCKDEN HUNTS,-0.254174,52.291764
1686.28,BROCKHURST MEDICAL CENTRE,-1.15337,50.808243
923.12,HADEN VALE SURGERY,-2.073333,52.466347
3780.06,KESTON MEDICAL PRACTICE,-0.114466,51.34074
2201.08,HEATHCOTE MEDICAL CENTRE,-0.228084,51.294799
4398.39,THE AVENUE MEDICAL CENTRE,-2.211676,53.533178
1261.21,DR CURRAN & PARTNERS,-0.136034,51.465148
90.31,NCH&C COMMUNITY NURSES (WEST),0.410147,52.749129
2719.37,HAPPY HOUSE SURGERY,-1.422785,54.885012
4548,PRIORY FIELDS SURGERY,-0.179856,52.332272
2209.88,SOUTHEND MEDICAL CENTRE,0.708516,51.540069
84.8,EVMC DERMATOLOGY CLINIC,1.012662,51.340885
3191.28,BLACKWATER MEDICAL CENTRE,0.68095,51.728379
16.31,WHITTINGTON HEALTH (ISLINGTON),-0.139066,51.566482
84.77,HOMERTON NMP'S,-0.046099,51.550634
3153.96,HARROGATE OOH,-1.517573,53.993807
2890.83,TUDOR MEDICAL CENTRE,-2.136002,52.594673
2775.57,MARTONSIDE MEDICAL CENTRE,-1.220329,54.553175
795.2,THE MOORINGS MEDICAL PRACTICE,-0.095892,51.322229
3199.36,BRADSHAW MEDICAL CENTRE,-2.688594,53.537889
4645.21,COLLEGE SURGERY PARTNERSHIP,-3.392716,50.864169
4024.25,ELMS MEDICAL PRACTICE,-0.352007,51.818895
4726.43,THE RED HOUSE GROUP,-0.317147,51.68273
2807.8,MILL BANK,-2.118627,52.80489
1363.15,ST JOHNS MEDICAL CENTRE,-0.0222,51.467393
419.68,THE CIVIC MEDICAL CENTRE,-0.337497,51.587155
1043.45,ISLIP MANOR MEDICAL CENTRE,-0.372994,51.547315
5066.34,LOVEMEAD GROUP PRACTICE,-2.202601,51.31857
3200.88,CROUCH OAK FAMILY PRACTICE,-0.490757,51.371507
1918.63,NORTH THORESBY SURGERY,-0.056751,53.46502
2091.96,KINGSFIELD MEDICAL CENTRE,-1.89301,52.427278
929.47,PARLIAMENT HILL SURGERY,-0.145468,51.555169
3018.14,PARKFIELD MEDICAL CENTRE,-0.179588,51.695129
918.78,THE PINE MEDICAL CENTRE,-0.416838,51.527591
1608.14,BURDWOOD SURGERY,-1.244202,51.396133
182.72,MEDIC HOUSE,0.362131,51.462932
1971.58,BELMONT MEDICAL CENTRE,-2.739476,52.041288
1029.78,ARDEN MEDICAL CENTRE,-1.744762,52.379799
3987.73,CASTLE PARTNERSHIP,1.298303,52.633973
13.57,COMMUNITY COPD CLINIC,-1.435213,53.333016
621.23,NEW ROAD MEDICAL CENTRE,-1.939238,52.648704
13.82,SUSSEX DOWN AND WEALD SPECIAL SCHEME,0.294614,50.773566
3243.53,SANDY LANE SURGERY,-1.937103,52.75674
1034.69,CHOLMLEY GARDENS SURGERY,-0.195423,51.552261
15.23,LOUGH OOH,-0.008582,53.37101
699,MITCHLEY AVENUE SURGERY,-0.092485,51.32998
702.05,GATEACRE MEDICAL CENTRE,-2.85753,53.385435
4317.07,BEACON HEALTH GROUP-DANBURY MEDICAL CTR,0.587566,51.716669
2062.92,THE SUMMERHILL SURGERY,-2.171615,52.496514
622.52,SCHOOL LANE PMS PRACTICE,0.749246,52.412444
1328.34,BELLINGHAM GREEN SURGERY,-0.02426,51.430378
2389.46,BOUNDARY HOUSE MEDICAL CENTRE,-2.288936,53.415635
1526.4,HILL LANE SURGERY,-1.41571,50.915802
923.2,AVENUE MEDICAL PRACTICE,-1.603419,54.988036
1779.75,SPRING HALL GROUP PRACTICE,-1.892899,53.721064
713.56,KINGSHOLM SURGERY,-2.239023,51.868028
3200.87,SILVERDALE MEDICAL CENTRE,-2.267264,53.015627
2303.92,ARLINGTON ROAD SURGERY,0.277559,50.768189
2148.79,THE SHREWSBURY CENTRE,0.043312,51.540929
3137.91,LEEN VIEW SURGERY,-1.196589,52.998051
3808,HEATHERVIEW MEDICAL CTR.,-1.913033,50.739773
133.11,GP EXTENDED ACCESS - HARROGATE,-1.529793,53.996354
743.72,CONNAUGHT SQUARE PRACTICE,-0.164264,51.513974
1025.27,ABERCROMBY FAMILY PRACTICE,-2.961744,53.399032
3003.49,BRIDGE HOUSE MEDICAL CENTRE,-1.709788,52.190536
6.59,AQP ANTICOAG SOUTH DOC DOVECOTE SURGERY,-1.994863,52.464059
3374.68,CAVERSHAM GROUP PRACTICE,-0.138116,51.550467
2569.58,COUNTESTHORPE HEALTH CENTRE,-1.136767,52.554536
203.82,THE GOLBORNE MEDICAL CENTRE,-0.206303,51.524023
2367.23,CHARNOCK HEALTH PRIMARY CARE CENTRE,-1.420724,53.342996
1543.98,PARKFIELDS SURGERY,-1.432388,52.898298
40.63,THE HEATON MEDICAL PRACTICE,-1.808133,53.81642
862.58,CHAPELTOWN FAMILY SURGERY,-1.526199,53.811432
250.8,DR VASANTH,-2.500811,53.527489
594.9,DR GI JONES' PRACTICE,-1.471058,53.166526
1298.42,RIVERBANK MEDICAL SERVICES,-1.152629,53.207243
559.43,HARDEN HEALTH CENTRE,-1.985958,52.608552
1668.54,HARSTON SURGERY,0.073806,52.138364
2307.88,HOYLAND HOUSE,-2.194177,51.790995
913.63,HATCH END MEDICAL CENTRE,-0.377077,51.606242
2309.07,WIBSEY & QUEENSBURY MED P,-1.779715,53.767225
387.88,DERMATOLOGY CLINIC,-1.899142,52.505172
3113.5,JORVIK GILLYGATE PRACTICE,-1.077772,53.959168
815.68,VALLEY ROAD SURGERY,-0.119424,51.428616
2130.26,CHATSWORTH ROAD MEDICAL CENTRE,-1.467337,53.231374
2587.75,PRESTON GROVE MEDICAL CENTRE  YEOVIL,-2.644279,50.94185
3513.45,NORTH CLACTON MEDICAL PRACTICE,1.162631,51.818131
6653.18,FINCHAMPSTEAD PRACTICE,-0.858066,51.375104
4446.07,SHERBURN GROUP PRACTICE,-1.253519,53.798594
2918.01,BOURN SURGERY,-0.063404,52.193155
1515.78,DR BHATE SURGERY,-1.37324,54.905516
2709.05,OSMASTON SURGERY,-1.467954,52.911084
3222.7,BISHOPS WALTHAM SURGERY,-1.212149,50.95528
1779.89,BROOK SQUARE SURGERY,-0.409328,54.281789
2.78,DCHS BEDS WITH CARE,-1.441882,53.221288
604.98,BORSTAL VILLAGE SURGERY,0.482446,51.372102
1055.79,BROOK MEDICAL CENTRE,-0.803796,52.255823
788.08,THE MARSHSIDE SURGERY,-2.963125,53.671433
720.86,CITY OF COVENTRY HEALTH CENTRE,-1.508005,52.413401
701.6,ULLAH M,-2.595925,53.522279
1052.93,ST.MARY'S MEDICAL CENTRE,0.497526,51.397836
798.72,WALSALL WOOD HEALTH CENTRE,-1.927755,52.629621
2145.25,MADELEY PRACTICE,-2.345126,52.999856
61.11,THE SHELDON PRACTICE,-0.215603,51.555924
1473.09,SHADBOLT PARK HOUSE SURG,-0.252507,51.376451
3993.14,HILDENBOROUGH MEDICAL GROUP,0.243873,51.215118
68.81,THE MATTHEWMAN PRACTICE,-0.149281,51.545823
794.17,CHURCH LANE - KHAN,-1.793962,52.487056
1459.91,DEVON SQUARE SURGERY,-3.60508,50.529985
1588.73,UPWELL STREET SURGERY,-1.434724,53.406424
4165.64,EAST LINDSEY MEDICAL GROUP,0.002264,53.362241
2208.67,MATTISHALL SURGERY,1.034195,52.658795
1.88,ROTHERHAM HOSPICE,-1.340784,53.424046
6592.57,ASHFORD MEDICAL PARTNERSHIP,0.898839,51.136741
46.28,BMI BEARDWOOD HOSPITAL,-2.513177,53.755038
4058.58,LOW MOOR SURGERY,-1.769897,53.75385
1509.25,ST ELIZABETH'S MEDICAL CENTRE (JA WOOD),-1.061189,52.648257
3174.54,PENNINE DRIVE PRACTICE,-0.208882,51.568477
2193.63,THE CEDARS SURGERY,-0.72004,51.52561
3799.86,LONGTON HEALTH CENTRE,-2.780194,53.727756
1415.31,OWLTHORPE MEDICAL CENTRE,-1.375862,53.33869
2508.9,ST ANDREWS HEALTH CENTRE,-0.014302,51.523949
2719.9,WONERSH SURGERY,-0.545609,51.197393
22.15,RAINBOW HEALTH CENTRE,-0.109304,51.395046
28.88,WEST CAMHS - KIRKSTALL,-1.599694,53.817164
2372.14,HOLLIES MEDICAL CENTRE,-1.494834,53.363179
66.43,COMMUNITY HEALTH NEWHAM,-0.072273,51.516339
2221.68,GALLERIES MEDICAL PRACTICE,-1.531242,54.898814
2038.95,SUFFOLK GP FEDERATION OOH,1.164244,52.044508
2128.71,GLEN ROAD MEDICAL CENTRE,0.03253,51.522221
1475.63,THE WOLDS VIEW PRIMARY CARE CENTRE,-0.215754,54.086552
2621.79,COMMUNITY HEALTH CENTRE (ZS OSAMA),-1.113421,52.632387
3624.9,CHURCHILL MEDICAL CENTRE,-0.018466,51.618226
3.04,NEAS DARLINGTON CCG,-1.712365,54.969713
1853.74,THE PINN UNREGISTERED WIC,-0.382232,51.595076
2168.53,NAVENBY CLIFF VILLAGES SURGERY,-0.526297,53.103518
1935.25,PRINCE OF WALES GROUP SURGERY,-0.147117,51.546913
1669.19,WEST POINT MEDICAL CENTRE,-2.197586,53.445978
2774.6,DURNFORD MEDICAL CENTRE,-2.197033,53.554038
1928.19,TRINITY MEDICAL CENTRE,-0.158437,51.437554
496.08,HOMELESS AND VIOLENT PATIENT SERVICE,-2.238316,51.866796
1827.17,THE DICCONSON GROUP PRACTICE,-2.644891,53.549467
4390.27,TALBOT MEDICAL CENTRE,-1.908934,50.748888
82.63,CAMDEN HEALTH IMPROVEMENT PRACTICE,-0.138243,51.528275
2432.65,WHITLEY ROAD MEDICAL CENTRE,-2.2227,53.49493
783.67,LONG EATON ON DAY SERVICE,-1.272531,52.901553
2239.33,AVISFORD MEDICAL GROUP,-0.61388,50.822687
9.5,COMMUNITY TEAM ST AUSTELL,-4.772363,50.327877
2638.46,ASHVILLE MEDICAL CENTRE PMS PRACTICE,-1.4569,53.543072
268.5,CARRFIELD MEDICAL CENTRE,-1.465061,53.358636
1036.27,WALNUT TREE PRACTICE,-2.357425,51.68003
3399.15,URGENT CARE CENTRE NORTHWICK PARK HOSP,-0.322037,51.575407
569,SIBFORD SURGERY,-1.479244,52.037614
2381.9,THE GAINSBOROUGH PRACTICE,-0.73138,51.426252
4730.24,PORTISHEAD MEDICAL GROUP,-2.767318,51.482805
2277.28,HONOR OAK GROUP PRACTICE,-0.041114,51.458097
828.59,FEATHERSTONE,-2.089566,52.645773
3514.49,STUBBINGTON MEDICAL PRACTICE,-1.215422,50.825008
1624.63,GP CARE WAKEFIELD OOH,-1.494838,53.679942
3963.02,FISHER MEDICAL CENTRE,-2.021408,53.96167
1473.46,HORNDEAN SURGERY,-0.991298,50.914995
1442.21,MARKET STREET MEDICAL PRACTICE,-2.145635,53.478959
6291.4,LIBRARY HOUSE SURGERY,-2.633893,53.650664
1183.99,GOSSOPS GREEN MEDICAL CTR,-0.21648,51.107248
2653.33,STROUD PRACTICE,-2.024533,52.58916
2679.51,CASTLEFIELDS HEALTH CENTRE,-2.691794,53.338807
2775.47,BLACK COUNTRY FAMILY PRACTICE,-2.071182,52.528846
1910.4,MARK STREET SURGERY,-2.144639,53.62423
1145.5,LAUNCESTON CLOSE SURGERY,-2.542488,53.183101
2674.06,CARITAS GENERAL PRACTICE PARTNERSHIP,-2.134599,53.395928
6.62,COMPTON PALLIATIVE CARE TEAM,-2.172068,52.585801
1205.68,COLNE ROAD SURGERY,-2.236848,53.801226
1257.67,CASTLE GARDENS SURGERY,-4.140046,50.951639
2118.67,WATERSIDE MEDICAL CENTRE,-1.529997,52.283202
5058.69,THREE CHEQUERS MEDICAL PRACTICE,-1.794625,51.071924
2386.05,GANTS HILL MEDICAL CENTRE,0.064452,51.577157
1291.91,SOUTH WIGHT MEDICAL PRACTICE,-1.287022,50.587616
1383.83,HOPWOOD MEDICAL CENTRE,-2.212052,53.587143
474.23,THORNTREE SURGERY,-1.18346,54.565208
4256.88,AIR BALLOON SURGERY,-2.531438,51.459
947.68,MINET GREEN HEALTH PRACTICE,-0.105204,51.475715
3778.69,KINGSNORTH MEDICAL PRACTICE,0.859919,51.1207
1155.04,27 BEAUMONT STREET,-1.26216,51.755081
2401.63,LANE END MEDICAL GROUP,-0.274866,51.615287
3894.95,LAUREL HOUSE SURGERY,-1.692825,52.636563
2003.3,RADFORD MEDICAL PRACTICE (KAUR),-1.167635,52.956339
1714.13,MCKENZIE GROUP PRACTICE,-1.239266,54.660465
2574.33,BLUE DYKES SURGERY,-1.414353,53.167483
7924.04,ASPEN MEDICAL PRACTICE,-2.225797,51.865969
1430.25,REDFERN HEALTH CENTRE,-3.769118,50.238912
30.49,HAVERING CCG,0.179796,51.579247
5242.02,BEACHES MEDICAL CENTRE,1.727734,52.577124
1869.22,WOOTTON VALE HEALTHY LIVING CENTRE,-0.527951,52.093688
847.34,HILLSIDE HOUSE SURGERY,-2.842807,53.419526
2160.49,CHURCHFIELDS MEDICAL PRACTICE,-1.180398,52.978865
1364.03,ST LAWRENCE ROAD SURGERY,-1.387829,53.180152
1032.27,MILL ROAD SURGERY,0.150585,52.197163
2443.35,POTTERELLS MEDICAL CENTRE,-0.208602,51.726922
916.42,NEWCASTLE GP IN A&E SERVICE,-1.618869,54.98022
719.2,CAMDEN EXTENDED ACCESS SERVICE,-0.130607,51.529916
1675.18,HORTON PARK MEDICAL PRACTICE,-1.772791,53.785161
7864.02,ST AUSTELL HEALTH GROUP,-4.760416,50.344296
4742.48,WHITBY GROUP PRACTICE,-0.62317,54.485919
212.23,FELTON SURGERY,-1.7113,55.298652
1176.34,SWARLAND AVENUE SURGERY,-1.578629,55.006365
1934.73,CLAY LANE MEDICAL PRACTICE,-1.482836,52.412774
156.6,MARILLAC HOSPITAL,0.307264,51.621757
5045.54,WHICKHAM COTTAGE MEDICAL CENTRE,-1.677226,54.94538
5458.08,POVEREST MEDICAL CENTRE,0.101265,51.39001
713.64,INGLETON AVENUE SURGERY,0.104087,51.454007
1062.71,STUART CRESCENT HEALTH CENTRE,-0.110172,51.600434
1375.8,WAYFIELD ROAD SURGERY,0.530781,51.359826
951.84,MATCHING GREEN SURGERY,0.481244,51.582852
276.49,ZAIN MEDICAL CENTRE,-0.271242,51.606493
1.47,PUBLIC HEALTH SERVICES,0.020377,51.403879
2321.39,MITCHELDEAN SURGERY,-2.488369,51.865935
1357.69,WATERS EDGE MEDICAL CENTRE,-2.443972,53.192336
544.39,BROWNLOW AT MARYBONE,-2.987806,53.411269
586.62,NORTH LEVERTON SURGERY,-0.822245,53.332038
2478.62,WELTON FAMILY HEALTH CENTRE,-0.484843,53.306584
2123.6,ORRELL PARK MEDICAL CENTRE,-2.962942,53.462025
58.55,ST ELIZABETHS CENTRE,0.089303,51.830298
1388.26,TINKERS LANE SURGERY,-1.900604,51.543578
523.64,FAMILY DOCTORS,-1.440964,53.798248
1159.23,BRACONDALE MEDICAL CENTRE,-2.147089,53.393998
1819.52,DENTON PARK MEDICAL GROUP,-1.698725,54.993108
2620.67,BURTON CROFT SURGERY,-1.57692,53.820807
222.77,NORHEADS LANE SURGERY,0.026739,51.314542
2001.81,THE SPINNEY MEDICAL CTR.,-2.757627,53.442443
1.05,T&G EXTENSIVIST SERVICE,-2.089243,53.488929
1787.48,HUNGERFORD MEDICAL CENTRE,-2.427003,53.09787
2547.21,CHURCH STREET PRACTICE,-0.459783,51.37345
1600.2,OMBERSLEY MEDICAL CENTRE,-2.229023,52.276554
2858.28,MONKFIELD MEDICAL PRACTICE,-0.065978,52.218778
792.15,IMEARY STREET PRACTICE,-1.424863,54.98753
1826.74,THE OLD SCHOOL MEDICAL PRACTICE,-1.142404,53.916163
2789.35,SALTERS MEDICAL PRACTICE,-2.153493,52.266877
1927.16,NEWBURN SURGERY,-1.743614,54.985644
653.39,WARLEY ROAD SURGERY,-1.993726,52.490193
1881.91,ROSEHEATH SURGERY,-2.82558,53.359024
316.24,THE SURGERY (BROOKE ROAD),-0.070755,51.560052
1894.84,BLAKEWATER HEALTH CENTRE,-2.473916,53.76497
2405.01,ST.PAUL'S WAY MEDICAL CTR,-0.024483,51.517862
717.77,GREAT BARFORD SURGERY,-0.351406,52.156171
2810.27,ST.AGNES SURGERY,-5.202589,50.310768
3279.66,THE WHITFIELD PRACTICE,-1.526509,53.779894
1340.13,ST MELOR HOUSE SURGERY,-1.777291,51.171219
1893.73,MEDLOCK VALE MEDICAL PRACTICE,-2.142502,53.479062
1999.43,BEDMINSTER FAMILY PRACTICE,-2.594216,51.444159
464.06,ABBEYSLADE PMS (DR CHAND),0.107443,51.487796
7821.97,BOROUGHBURY MEDICAL CENTRE,-0.245486,52.577858
1579.44,THE NAYAR PRACTICE,-1.193379,53.480824
1377.62,QUAYSIDE MEDICAL PRACTICE,-2.156747,53.509855
3862.46,FARNHAM ROAD PRACTICE,-0.617796,51.530427
2978.15,THE ELMS MEDICAL CENTRE,-2.892972,53.195093
15.55,DERMATOLOGY CLINIC CECS,0.54113,51.879585
5487.35,WELLWAY MEDICAL GROUP,-1.689718,55.169477
595.65,WESTBURY MEDICAL CENTRE,-2.955353,52.67874
1851.86,ARTHUR MEDICAL CENTRE,-1.422636,53.001503
2911.55,IRIDIUM MEDICAL PRACTICE  RICHMOND PCC,-1.817518,52.478024
1144.61,SPRING GROVE MEDICAL PRACTICE,-0.345443,51.474432
201.29,HILL TOP PRACTICE,-2.011775,52.537791
1593.56,THE BLITHEHALE MED.CTR.,-0.065196,51.523775
2699.32,THE KIRTON LINDSEY AND SCOTTER SURGERY,-0.594073,53.474089
2031.84,UNITY HEALTH,-1.029922,53.950316
4876.59,WALLACE HOUSE,-0.081701,51.796317
624.48,MONMOUTH SURGERY,-2.367579,51.383191
2078.26,WHITTINGTON MOOR SURGERY,-1.431065,53.260996
1516.49,ARUNDEL SURGERY,-0.567268,50.852881
272.33,CLAPHAM JUNCTION MEDICAL PRACTICE,-0.173908,51.465969
2541.7,FOWNHOPE MEDICAL CENTRE,-2.594618,52.007664
251.93,DR JEHANGIR (SH),-2.21885,53.838042
2813.26,RIVERBANK MEDICAL CENTRE,-0.735087,50.993474
1316.76,ST HILARY GROUP PRACTICE,-3.06136,53.422188
2286.21,WYCHALL LANE SURGERY,-1.935566,52.409967
487.76,ROWLANDS ROAD SURGERY,-1.806157,52.463271
2740.97,DOWNING STREET GROUP PRACTICE,-0.798901,51.212905
3057.01,THE SALTSCAR SURGERY,-1.073638,54.616282
1658.51,CEDAR MEDICAL PRACTICE,-0.655287,53.570914
4147.75,PULBOROUGH MEDICAL GROUP,-0.509104,50.961138
20.29,FAIRHAVENS HOSPICE,0.67746,51.538273
1669.39,MARKET QUARTER MEDICAL PRACTICE,-1.252936,52.377534
1612.13,WHITCHURCH SURGERY,-1.340372,51.230256
970.56,PIKE MEDICAL PRACTICE,-2.045643,53.517861
41.78,WYRE FOREST COMMUNITY NURSES,-2.244954,52.387785
694.76,FALMOUTH ROAD GROUP PRACTICE,-0.093122,51.496427
2311.27,LOCKSTOWN PRACTICE,-2.057135,52.585445
508.93,SIMMONDLEY MEDICAL PRACTICE,-1.969041,53.43954
5439.88,THE PEARTREE PRACTICE,-1.339341,50.900324
362.28,DR SP TALPAHEWA,-0.260303,51.616115
5802.6,TROWBRIDGE HEALTH CENTRE,-2.206779,51.325271
1694.99,THE WHITELEY SURGERY,-1.266072,50.88262
2972.04,CUMBERLAND HOUSE SURGERY,-2.12262,53.257964
2843.52,SONNING COMMON HEALTH CTR,-0.982114,51.515603
331.37,7 DAY GP SERVICE,-3.011356,53.629265
1295.97,GARSWOOD SURGERY,-2.681273,53.496386
284.13,DR N SADDIQ'S PRACTICE,-1.605537,53.744776
236.35,MINOR INJURIES UNIT,-0.152663,52.802684
746.07,CLOVER HEALTH CENTRE,0.068593,51.490359
1919.62,DEMONTFORT MEDICAL CENTRE,-1.938869,52.09226
1761.2,CASSIO SURGERY,-0.401058,51.656689
110.24,DERMATOLOGY GPSI DEVONPORT HC,-4.167875,50.369991
1723.65,LATCHFORD MEDICAL CENTRE,-2.561658,53.381001
90.93,WEALD CLUSTER,0.277462,51.194717
2.18,BAY MEDICAL GROUP EXTENDED OOH,-2.859565,54.072841
4472.48,LONGROVE SURGERY,-0.204664,51.654244
244.38,SOUTH COTSWOLD LOCALITY NURSE PRESCRIBER,-2.176389,51.847073
2030.51,STONEBRIDGE SURGERY,-2.608242,53.827609
1482.28,PROSPECT SURGERY,-1.583343,53.681523
2437.07,FORDINGBRIDGE SURGERY,-1.793531,50.928159
976.16,DR MAHMOOD & PARTNERS,-1.661589,53.677829
3513.5,THE PENDLE MEDICAL PARTNERSHIP,-2.144307,53.915882
1759.82,THE PHOENIX PRACTICE,-0.223569,51.587311
3449.71,OAKESWELL HEALTH CENTRE,-2.013776,52.5542
1519.59,CHARLTON HOUSE MEDICAL CENTRE,-0.069309,51.595299
1664.08,SUTTON VALENCE GROUP PRACTICE,0.59403,51.211195
2336.35,KINGSWOOD SURGERY,-1.754341,51.556256
1450.74,CARNON DOWNS SURGERY,-5.091905,50.22345
788.97,LONGVIEW MEDICAL CENTRE,-2.825032,53.415399
2093.26,LAVANT ROAD SURGERY,-0.781051,50.853385
3656.07,TANFIELD VIEW MEDICAL GROUP,-1.701373,54.869939
41.85,SWADLINCOTE EXTENDED ACCESS,-1.559331,52.774889
2446.43,BRIDGE LANE GROUP PRACTICE,-0.167394,51.474142
1268.61,WINTON HEALTH CENTRE,-1.876372,50.739605
1336.92,BHF LUNDWOOD SURGERY,-1.438538,53.557711
4672.12,PHOENIX WALK IN CENTRE,-2.095555,52.599722
1134.46,IC24 LTD (HORSHAM & MID SUSSEX OOH),0.891514,51.129106
2387.1,PADGATE MEDICAL CENTRE,-2.556188,53.406509
457.79,THE BEDFORD PARK SURGERY,-0.262302,51.49598
379.94,GARRETTS GREEN LANE SURGERY,-1.788691,52.468447
1792.33,SUTHERLAND LODGE SURGERY,0.482571,51.725662
5845.13,EASTGATE MEDICAL GROUP  HORNSEA,-0.16825,53.915277
2426.34,WESTBOURNE MEDICAL GROUP,-1.495464,54.866868
1097.16,THE HOLLIES FAMILY SURGERY,-3.061442,53.55525
4510.74,MIRIAM PRIMARY CARE GROUP,-3.04649,53.398246
684.54,HUNTLEY MOUNT MEDICAL CENTRE,-2.27859,53.600201
1326.35,THE ORCHARD PRACTICE,-0.303542,51.369116
2039.12,LAKENHAM SURGERY,1.296577,52.6183
24.03,B'WATER CH CN WARRINGTON,-2.628343,53.415482
293.61,SPECIALIST SERVICES,-1.441882,53.221288
1060.28,THE ACORN & GAUMONT HOUSE SURGERY,-0.06645,51.474157
8574.66,THE ADAM PRACTICE,-2.07822,50.757881
2276.55,NEWTOWN MEDICAL PRACTICE,-2.669697,53.538479
1972.23,MATHER AVENUE SURGERY,-2.892382,53.365377
76.5,WESTCOTES GP SURGERY (TWO),-1.15115,52.628609
61,W HANTS SW COMM DERM SERVICE,-2.455551,53.733223
1297.29,MARSH MEDICAL PRACTICE,0.143689,53.445069
1.35,BOLTON COMMUNITY DRUG AND ALCOHOL SERV,-2.436998,53.577146
1135.46,PALMERSTON ROAD SURGERY,0.044819,51.626871
4965.61,BIRTLEY MEDICAL GROUP,-1.576441,54.891881
3130.26,TOWNHILL MEDICAL PRACTICE,-0.102825,51.290561
3029.63,DORRIDGE SURGERY,-1.752074,52.372757
1711.4,THE CORINTHIAN SURGERY,-2.0815,51.906706
4052.11,BROMLEY GP ALLIANCE,-0.033209,51.405232
1518.02,RYE MEDICAL CENTRE,0.730363,50.961944
2491.28,OAKLANDS HEALTH CENTRE,-1.784282,53.577106
3234.58,HIGH STREET SURGERY,1.756043,52.482123
1392.12,FAIRMORE MEDICAL PRACTICE,-2.280663,53.70081
984.34,DR VICTORIA MUIR'S PRACTICE,-0.151358,51.490651
4912.07,LINDEN AVENUE MEDICAL CENTRE,-0.716133,52.397046
1402.08,ALPHA MEDICAL PRACTICE,-1.856091,52.490749
240.06,NORTH TYNESIDE COMMUNITY SERVICE,-1.508192,55.020469
385.27,CONSULTANT DERMATOLOGIST(SUNDERLAND),-1.447219,54.926589
2370.41,THE STREET LANE PRACTICE,-1.513393,53.843234
2490.37,VINE HOUSE HEALTH CENTRE,-0.41878,51.70477
70.89,TONBRIDGE CLUSTER,0.277462,51.194717
3096.23,NEWBURY GREEN MEDICAL PRACTICE,-2.26047,53.506995
3657.8,TAUNTON ROAD MEDICAL CENTRE,-3.001634,51.124679
2549.75,CHARNWOOD MEDICAL GROUP,-1.22117,52.774303
3592.27,DONNINGTON MEDICAL PRACTICE,-2.437109,52.715179
13.86,WEST KENT GROUP,1.118942,51.075872
3041.57,MANOR DRIVE MEDICAL CENTRE,-0.248366,51.380785
488.93,DR NASAH & PARTNERS,0.505558,51.567734
6.47,NHS GLOUCESTERSHIRE CCG,-2.174623,51.848478
817.7,LINKS MEDICAL PRACTICE,-2.079024,52.487973
1609.95,PARK MEDICAL PRACTICE,-2.327843,53.401899
602,OLD TRAFFORD MEDICAL PRACTICE,-2.275745,53.458074
470.38,CATERHAM DENE RAC,-0.085202,51.283627
1534.03,HAVEN HEALTH,1.327039,51.96536
3153.12,CASTLE MEDICAL GROUP PRACTICE,-0.415501,51.875588
3409.96,SACRISTON MEDICAL CENTRE,-1.628413,54.819683
2723.06,SOUTHAM SURGERY,-1.385752,52.251212
2.94,ADDICTIONS SERVICE,-1.607294,54.973724
2066.83,NORVIC FAMILY PRACTICE,-1.960133,52.489728
2500.97,WINTERTON MEDICAL PRACTICE,-0.606876,53.652511
2054.84,STONEHAM LANE SURGERY,-1.378468,50.939305
1219.63,LILFORD PARK SURGERY,-2.511455,53.503236
5892.07,LINTONVILLE MEDICAL GROUP,-1.570274,55.183776
557.06,BLUEBELL SURGERY,0.921899,51.916473
2001.75,MANOR HOUSE SURGERY,-0.161227,51.916084
626.22,WEST KENT DERMATOLOGY,-0.364575,50.819326
1484.33,NEW ISLINGTON MEDICAL CENTRE,-2.219472,53.4829
2048.75,SEFTON PARK MEDICAL CENTRE,-2.934843,53.393088
1048.94,LATHOM ROAD MEDICAL CENTRE,0.052675,51.538066
3307.84,THE CAXTON SURGERY,-3.051276,52.861431
394.48,TOTTENHAM HALE MEDICAL PRACTICE,-0.058714,51.589477
3451.98,SALTERS MEADOW HEALTH CTR,-1.933023,52.68216
934.11,SURREY LODGE PRACTICE,-2.218728,53.458264
500.73,PLEASLEY SURGERY,-1.250873,53.175809
3754.29,LYTHAM ROAD SURGERY,-2.710575,53.77784
1180.96,MILLENNIUM FAMILY PRACTICE,-1.603663,54.962972
2263.68,PURTON SURGERY,-1.878078,51.585483
1849.85,BARRINGTON MEDICAL CENTRE,-2.352158,53.38672
497.64,HEDNESFORD MEDICAL PRACTICE,-2.000697,52.71233
4999.69,WALDERSLADE SURGERY,-1.43772,53.499821
1446.11,ABRIDGE SURGERY,0.12458,51.653631
48.57,GRANTHAM EXTENDED ACCESS K2,-0.639825,52.910073
942.72,ARTHINGTON MEDICAL CENTRE,-1.532912,53.77216
3313.31,SHIFNAL & PRIORSLEE MEDICAL PRACTICE,-2.376009,52.667675
3373.9,ASHWORTH STREET SURGERY,-2.165652,53.619565
16.71,MFT ADULT COMMUNITY SERVICES,-2.188524,53.446352
2753.66,THE LIGHTHOUSE GROUP PRACTICE,-1.080505,50.796551
5000.53,TESTVALE SURGERY,-1.489898,50.919405
1699.2,THE DOVE VALLEY PMS PRACTICE,-1.46034,53.529021
3273.79,PRIMARY CARE SEVEN DAY SERVICE,-0.059836,51.623784
5042.45,MILL ROAD SURGERY,0.896057,51.912436
2152.33,TONG MEDICAL PRACTICE,-1.716795,53.77049
2095.66,GODIVA GROUP PRACTICE,-1.482836,52.412774
2557.5,KINGSBRIDGE MEDICAL CENTRE,-2.226198,52.9927
59.47,THE ROYAL MEWS SURGERY,-0.145223,51.498764
45.97,ASHFORD HUB,-0.472813,51.444022
732.49,DR VARDHAN'S SURGERY,-2.447913,53.500769
1768.74,WELLS PARK PRACTICE,-0.063327,51.430508
1324.29,THE DOC'S SURGERY,-2.238064,53.476932
3382.9,HADLEIGH BOXFORD GROUP PRACTICE,0.953136,52.043021
4264.4,EAST NORFOLK MEDICAL PRACTICE,1.725527,52.619127
21.64,SCARBOROUGH EXTENDED ACCESS HUB,-0.416116,54.282229
15.38,HANCOCKS ME,-0.412964,53.782123
3196,THE MILTON SURGERY,-2.949198,51.352664
1190.41,BAKERSFIELD MEDICAL CENTRE,-1.104957,52.960219
973.15,RAINFORD HEALTH CENTRE,-2.781746,53.500694
1840.32,MARCHAM RD FAMILY HEALTH CENTRE,-1.302953,51.66958
2138.39,THE LAURELS SURGERY,0.544165,51.758518
4058.69,THE CAMBRIDGE PRACTICE,-0.76565,51.254364
1325.8,ROCKLEIGH COURT SURGERY,0.326872,51.63026
1338.48,IFIELD MEDICAL PRACTICE,-0.211874,51.121108
16.96,BRIMPTON HOUSE,0.699534,51.835776
3250.01,ST.STEPHENS HEALTH CENTRE,-0.031163,51.532455
1205.06,PARK ROAD MEDICAL CENTRE,-0.150952,51.363489
584.15,MANCHESTER MEDICAL,-2.23745,53.45875
2811.71,POUND HILL MEDICAL GROUP,-0.156409,51.118813
1804.14,SANDY LANE SURGERY,-1.182896,53.147091
13.61,BEALEY COMMUNITY HOSPITAL,-2.309285,53.565754
2670.41,LANGWORTHY MEDICAL PRACTICE,-2.294771,53.489371
1872.98,THE GOODINGE GROUP PRACTICE,-0.125442,51.54825
1186.97,NEMS CBS MID NOTTS OOH,-1.233579,53.134573
3336.37,ROLLE MEDICAL PARTNERSHIP,-3.401499,50.621139
566.5,RILLWOOD MEDICAL CENTRE,-0.835728,52.263295
673.7,THE MANSELL ROAD PRACTICE,-0.358969,51.525654
2188.43,FORESTSIDE MEDICAL PRACTICE,-1.416173,50.851823
566.17,TRINITY SURGERY,-1.650877,52.617569
3571.5,NORTHWOOD MEDICAL CENTRE,-1.932971,52.415485
1112.48,AUGHTON SURGERY,-2.902089,53.543684
710.9,CHATHAM STREET SURGERY,-0.981895,51.455924
500.36,SLAIDBURN HEALTH CENTRE,-2.444001,53.967313
2066.93,PETERLEE PRIMARY CARE SERVICES,-1.335627,54.758287
4371.66,FEARNHEAD CROSS MED.CTR.,-2.559106,53.411071
593.57,GREENFIELD MEDICAL CENTRE,-1.855764,52.491684
693.88,THE PROJECT SURGERY,0.020636,51.532273
882.55,THE VALE SURGERY,-0.251817,51.506454
14.22,TOTTON HEALTH CENTRE,-1.488789,50.92065
4380.9,HAVELOCK GRANGE PRACTICE,-1.214164,54.682342
173.23,LOCAL PRIMARY CARE NORTH LOCALITY SPOKE,-2.467263,53.758668
685.48,ST. LUKE'S SURGERY,-1.167635,52.956339
1399.97,CRICH MEDICAL PRACTICE,-1.482573,53.084327
3798.96,CHURCH STREET PRACTICE,-2.153433,51.99229
1064.01,GUTTERIDGE MEDICAL CENTRE,-2.691248,53.769881
3041.05,KIRKHAM HEALTH CENTRE,-2.878541,53.781939
23.72,EXTENDED ACCESS PCD CONISBROUGH GROUP,-1.237653,53.482282
1315.86,DR N NAGPAL'S PRACTICE,-2.467033,53.746299
4048.83,AINTREE PARK GROUP PRACTICE,-2.967297,53.462799
3195.75,THE RYAN MEDICAL CENTRE,-2.663635,53.730399
960.93,CAREPOINT PRACTICE,-0.411552,51.604465
2537.39,FLANSHAM PARK HEALTH CENTRE,-0.629205,50.794855
234.2,MOHANTY PRACTICE,-2.130534,53.53731
1716.88,CHORLEYWOOD HEALTH CENTRE,-0.520415,51.654714
7292.87,THE SWAN PRACTICE,-0.985664,52.001593
1464.24,KENSINGTON ROAD SURGERY,-1.532401,52.40257
1212.47,TONGE FOLD HEALTH CENTRE,-2.405772,53.579119
2936.44,GUISELEY AND YEADON MEDICAL PRACTICE,-1.684131,53.865295
513.46,HAROLD STREET MEDICAL CENTRE,-1.492871,53.393121
3795.58,SHERWOOD MEDICAL PARTNERSHIP,-1.137878,53.157488
30.96,NORTH COTSWOLDS IMPROVED ACCESS,-2.239997,51.862659
4193.69,CASTLE PRACTICE,-1.617531,51.256028
1748.06,CARDEN SURGERY,-0.126631,50.862197
289.84,LANCELOT MEDICAL CENTRE,-0.299498,51.552907
4683.3,ELLERGREEN MEDICAL CENTRE,-2.919309,53.445416
430.95,COMMUNITY DERMATOLOGY SERVICE NHS H&R,0.475497,50.850706
786.5,KIDDROW MEDICAL PRACTICE,-2.288626,53.795175
2891.44,THE VINE MEDICAL CENTRE,0.514909,51.270888
3166.32,THE SYMONS MEDICAL CENTRE,-0.73892,51.522782
6185.97,HARESFIELD HOUSE SURGERY,-2.202996,52.194829
2829.17,CENTRAL SURGERY,0.147747,51.812546
2565.7,QUEENHILL MEDICAL PRACTICE,-0.066791,51.34499
2406.83,GATEACRE BROW SURGERY,-2.8632,53.383291
2875.46,RED HOUSE SURGERY,0.129161,52.214906
1118.64,RUSH HILL SURGERY,-2.393951,51.365379
1179.75,OUT OF HOURS CENTRE,-1.842798,54.869081
1369.22,DR S PHILLIPS AND DR M PATEL PRACTICE,-0.027903,51.569142
2068.25,ST GEORGES MEDICAL CENTRE,0.762412,51.436183
1189.2,THE CHESSER SURGERY,-0.177303,51.374927
894.88,ASHURST PRIMARY CARE,-2.772723,53.563208
1348.89,TOWN HALL SURGERY,-2.092973,53.478374
1736.51,WHITE CLIFFS MEDICAL CENTRE,1.301586,51.12422
351.77,PARTNERSHIP SOUTH,-2.109085,52.810605
1024.96,ST ANDREWS EXTENDED ACCESS HUB,-0.013843,51.523897
1433.94,NORTH BEVERLEY MEDICAL CENTRE,-0.439008,53.857996
1822.06,KILLICK STREET HEALTH CENTRE,-0.119068,51.534237
1130.64,THE LILYVILLE SURGERY,-0.199155,51.47377
1228.98,BURNBRAE MEDICAL PRACTICE,-0.303885,53.760383
3921.85,TOPSHAM SURGERY,-3.462097,50.683825
384.36,FITZMAURICE (KEW),-0.283117,51.475875
1293.81,ST PETER'S SURGERY,1.41893,51.362936
1521.28,THE COURTYARD SURGERY,-0.328342,51.065411
214.62,BROOMFIELD DOCTOR IN ED,0.465993,51.774654
1703.41,SHIFA SURGERY,-2.475999,53.757295
5.88,AQP ANTICOAG QE HERITAGE BUILDING,-1.941776,52.450146
793.93,SHIPDHAM SURGERY,0.894462,52.628852
1334.88,OLD PARSONAGE SURGERY,0.460418,51.112785
1060.23,POPLAR PRIMARY CARE CENTRE,-1.890326,52.43631
827.51,SPITAL SURGERY,-3.003678,53.340977
1224.76,GRAVESEND MEDICAL CENTRE,0.369986,51.443932
290.36,THE KILLINGHOLME SURGERY,-0.260335,53.629908
2405.84,THEATRE ROYAL SURGERY,0.942383,52.683767
396.1,SOMERS TOWN MEDICAL CENTRE,-0.130607,51.529916
2260.59,THE SANDRINGHAM PRACTICE,-1.098266,53.533949
1116.62,BRANSTON & HEIGHINGTON FAMILY PRACTICE,-0.467988,53.195831
1767.12,THE BORCHARDT MEDICAL CENTRE,-2.237795,53.434307
1101.92,THE VILLAGE MEDICAL CTRE,-2.871986,53.374777
642.6,DR GT HENDOW'S PRACTICE,-0.32136,53.787408
347.82,WEST BROM P'SHIPS FOR HEALTH,-2.000605,52.517891
2263.85,ANGEL LANE SURGERY,0.362574,51.871967
2487.23,BUNGAY MEDICAL CENTRE,1.442974,52.44971
2970.34,NOTTINGHAM NHS URGENT CARE CENTRE,-1.139043,52.950139
422.97,ST MARY'S SURGERY,-2.000799,52.613174
423.31,BROOM ROAD MEDICAL PRACTICE,-0.030275,51.369778
654.65,ARDEN HEALTHCARE CENTRE,-1.508005,52.413401
1607.36,KIRKBY COMMUNITY PRIMARY CARE CENTRE (3),-1.248741,53.10176
916.73,VICTORIA MEDICAL CENTRE,-1.52187,54.97385
1565.19,THE RIGG-MILNER MEDICAL CENTRE,0.415644,51.48007
1810.88,SHROPSHIRE WALK IN HEALTH CENTRE,-2.738044,52.707892
509.56,KIRKGATE SURGERY,-1.667625,53.732234
33.92,ST CHRISTOPHER'S HOSPICE,-0.058693,51.421385
2320.81,FRIERN BARNET MEDICAL CENTRE,-0.155988,51.613267
1514.67,HOLLAND PARK SURGERY,-0.194435,51.501412
2317.57,WOODVILLE SURGERY,-1.536503,52.770685
4106.42,ELMHAM SURGERY,0.943019,52.752311
3159.96,CROWN SURGERY,-2.253515,52.859415
1100.04,REGENT STREET SURGERY,-2.283616,51.744168
1636,JUBILEE HEALTH CENTRE,-2.01963,52.551655
4411.57,GTD HEALTHCARE PRESTON OOH,-2.706842,53.791521
2089.39,DALTON SURGERY,-3.179816,54.155917
534.78,MAIDSTONE RD CHATHAM SURGERY,0.516708,51.361226
1388.43,SKEGBY FAMILY MEDICAL CENTRE,-1.273344,53.142337
25.37,HARROW HEALTH CIC - HAEMORRHOIDS SERVICE,-0.383747,51.594674
2026.82,THE WRITTLE SURGERY,0.426548,51.73248
4956.63,PARKBURY HOUSE SURGERY,-0.334063,51.756766
1288.05,BUCKFASTLEIGH MEDICAL CENTRE,-3.781989,50.480934
1739.97,CITY HEALTH PRACTICE LTD,-0.306816,53.756542
1121.03,VALLEY VIEW SURGERY,-1.731903,53.806791
1090.04,DR PCL KNIGHT,0.010023,51.541412
691.91,HORNSPIT MEDICAL CENTRE,-2.915341,53.436681
970.46,ARRAN MEDICAL CENTRE,-1.748679,52.503867
3740.2,THE MAPLES MEDICAL CENTRE,-2.286712,53.384846
1326.16,MILTON SURGERY,0.162445,52.241924
3895.88,DR G LEES & PARTNERS,-1.593212,53.796407
4542.12,THE SHRUBBERY SURGERY,0.351088,51.433242
487.22,SHIP STREET SURGERY,-0.141753,50.821384
687.89,NORTON CANES SURGERY,-1.970246,52.673977
1585.29,ST. LAURENCE'S MEDICAL CENTRE,-2.882285,53.475161
22.65,SALFORD DRUG SERVICE,-2.33719,53.482572
1638.1,THE BRIMINGTON SURGERY,-1.395708,53.257173
31.64,WHITBY MINOR INJURIES UNIT,-0.615671,54.48445
2927.11,MAYLANDS HEALTHCARE,0.190596,51.552912
2466.41,YORKLEIGH SURGERY(CT),-2.0847,51.900132
407.69,B&H EXTENDED HOURS SERVICE,-0.148293,50.838378
2052.73,LANTERN HEALTH-CARPENTERS PRACTICE,-0.003474,51.537165
225.28,WALTHAM ROAD MEDICAL CENTRE,0.584106,51.373869
3841.16,BURY OOH,-2.288591,53.59553
456.99,PARROCK STREET SURGERY,0.371171,51.441238
528.93,NEVILLE ROAD SURGERY,-0.443036,51.906419
152.65,CWP (WEST) PHYSICAL HEALTH,-2.897884,53.2088
148.79,WEST KENT HEALTH FEDERATION,0.277462,51.194717
756.31,CATER STREET SURGERY,-0.490495,52.119586
2431.61,WELLING MEDICAL PRACTICE,0.107972,51.460844
26.91,GP SERVICE ACCIDENT AND EMERGENCY,1.71798,52.561672
738.06,HILL BARTON SURGERY,-3.481689,50.723363
696.36,STACKYARD AND WOOLSTHORPE SURGERY,-0.7611,52.852515
3493.53,HEALDS ROAD SURGERY,-1.651637,53.700113
565.13,BRADFORD MOOR PRACTICE,-1.721849,53.797834
3869.45,DR SPENCER & PARTNERS,-0.677325,52.359891
1281.9,SMALLFIELD SURGERY,-0.118564,51.171722
3177.1,CHURCH STREET PRACTICE,-1.425847,51.598763
8.36,HUMBER ROAD SURGERY,0.48396,51.747558
168.75,PAT HMR COMMUNITY SERVICE,-2.229502,53.517882
2124.38,BALSALL COMMON & MERIDEN GROUP PRACTICE,-1.643862,52.394956
757.43,NORTH EAST ESSEX DIABETES SERVICE,0.921899,51.916473
0.7,PALLIATIVE CARE,-2.974618,53.633552
6814.17,CHELMER MEDICAL PARTNERSHIP,0.459513,51.749313
89.54,NHS EASTERN CHESHIRE CCG NMP'S,-2.12262,53.257964
3549.57,URGENT CARE CENTRE DARLINGTON OOH,-1.563733,54.530374
938.14,DR RC RAUTRAY'S PRACTICE,-2.475521,53.752542
3775.81,CLARENDON LODGE MEDICAL CENTRE,-1.531715,52.294043
1844.98,ORCHARD 2000 GROUP,-0.370022,53.786372
387.48,WESTCLIFFE HEALTH INNOVATIONS ENT,-1.712131,53.823092
2463.93,GOSPORT MEDICAL CENTRE,-1.147265,50.79354
387.15,LANGTHORNE SHARMA FAMILY PRACTICE,0.0021,51.555415
1684.7,FARMHOUSE SURGERY,-1.7595,50.736437
47.42,UHSM COMMUNITY SERVICES,-2.25528,53.390625
186.11,AR-RAZI MEDICAL CENTRE,-1.101204,52.623926
1651.7,TAMWORTH HOUSE MEDICAL CENTRE.,-0.146254,51.40122
3705.43,MANSFIELD MEDICAL CENTRE,-1.484577,52.405976
213.16,YATE MINOR INJURIES UNIT (MIU),-2.41621,51.540461
2569.11,BELMONT MEDICAL CENTRE,-0.385203,51.500848
2056.25,FAIRHILL MEDICAL PRACTICE,-0.282871,51.417069
28.61,SHROPSHIRE COMMUNITY HEALTH NHS TRUST,-2.789366,52.705844
1108.4,HENLEY GREEN MEDICAL CENTRE,-1.454284,52.428369
495.92,ADDINGTON MEDICAL PRACTICE,-0.018557,51.344382
2190.52,EDEN PARK SURGERY,-0.041426,51.399335
3715.99,CASTLE PLACE PRACTICE,-3.492865,50.908884
147.45,NORTH NORFOLK HUB 2 (BIRCHWOOD),1.38334,52.820065
2780.09,CROOKES PRACTICE,-1.502259,53.38366
4655.38,THE SIMPSON CENTRE,-0.651318,51.610791
967.38,UPTON LANE MEDICAL CENTRE,0.026394,51.5431
3854.06,MAYWOOD HEALTH CARE CENTRE,-0.693582,50.786664
1392.42,ASKERN MEDICAL PRACTICE,-1.148909,53.615496
3061.35,CAPTAIN FRENCH SURGERY,-2.748562,54.323429
34.76,THREE VALLEY HEALTHCARE,-1.91892,53.32331
643.75,THE NEW SURGERY,-0.660492,51.794471
5115.42,DENTON TURRET MEDICAL CENTRE,-1.686387,54.983928
1460.31,THE EUXTON MEDICAL CENTRE,-2.676836,53.669016
2521.73,FALMOUTH HEALTH CENTRE,-5.08602,50.156398
6433.67,MILLGATE HEALTHCARE PARTNERSHIP,-2.118464,53.455602
87.53,LUTHER STREET MEDICAL PRACTICE,-1.258255,51.747356
1042.83,SOUTHFIELD WAY SURGERY,-2.018733,52.658391
2915.57,NEW COURT SURGERY,-2.30878,52.113538
2648.51,WINDRUSH SURGERY,-1.343294,52.058899
1428.58,DR GC CHAJED'S PRACTICE,0.465396,51.564483
5951.59,STAR SCHEME EXTENDED,-1.068807,54.599299
1511.18,NORTH SHOEBURY SURGERY,0.784481,51.542211
2886.8,SPRINGS HEALTH CENTRE,-1.265531,53.27774
404.27,VERITAS HEALTH CENTRE,-1.481026,53.354257
1384.5,HEATH LANE MEDICAL CENTRE,-2.86384,53.188961
1815.52,CAMPINGLAND SURGERY,0.690978,52.645997
3163.92,PARK VIEW SURGERY,-2.77111,54.227652
384.13,AYLESTONE HEALTH CENTRE,-1.152678,52.605677
214.68,LCHS NMP,-0.52415,53.226467
815.84,CHOICE PLUS,-2.0815,51.906706
530.98,CHARMOUTH MEDICAL PRACTICE,-2.903858,50.738665
688.87,THE CRESCENT MEDICAL CTR.,-0.876393,52.250449
540.81,DERMATOLOGY SERVICES E&N,-0.222882,51.827958
393.19,NORTON CANES HEALTH CENTRE,-1.970246,52.673977
1772.9,VILLAGE SURGERY,-1.896468,50.741178
997.13,UNIVERSITY HEALTH CENTRE,-0.548748,53.229537
95.89,ISLINGTON PCCS,-0.091116,51.527895
2043.12,GORDON HOUSE SURGERY,-0.31522,51.509944
2838.85,FULLWELL CROSS MED. CTR.,0.083782,51.594621
1783.01,VISTA ROAD SURGERY,-2.645459,53.457808
1186.28,SANDS END HEALTH CLINIC,-0.191391,51.473128
849.57,WELLINGTON HEALTH CENTRE,-0.171284,51.532275
4418.46,BALL TREE SURGERY,-0.338832,50.831767
4624.79,KINGFISHER FAMILY PRACTICE,-0.950634,53.325451
2340.65,ABBEY ROAD SURGERY,-0.030102,51.684417
3305.42,LONDON LANE CLINIC,0.008653,51.415223
4666.68,IVY COURT SURGERY,0.690221,51.068039
983.28,THE SURGERY,-2.605295,53.024859
969.5,DR SHARMA & PARTNERS,0.447593,51.588181
1697.91,THE OAKS MEDICAL CENTRE,-1.215186,52.928031
4464.73,THE PARK MEDICAL PRACTICE,-2.739045,53.77018
549.45,WARRIOR SQUARE SURGERY,0.716503,51.539534
3518.8,CHOBHAM & WEST END MEDICAL PRACTICE,-0.602516,51.34981
15.93,HP NMP'S N & S CCG,-1.143101,53.130244
1948.08,NENE VALLEY SURGERY,-0.537451,52.399796
722.47,AILSWORTH MEDICAL CENTRE,-0.352472,52.577435
3770.91,BLOOMFIELD MEDICAL CENTRE,-3.043644,53.804417
1063.75,KINGS ROAD MEDICAL CENTRE,-0.184768,51.480355
7871.86,SEVERN VALLEY MEDICAL PRACTICE,-2.235045,52.190415
3261.6,HOCKLEY FARM MED PRACT (A NANA),-1.183899,52.630898
461.74,EAST ENFIELD PRACTICE,-0.046596,51.649065
1234.27,THE AZAD PRACTICE,0.044868,51.531234
2599.47,MELBOURNE PARK MEDICAL CENTRE,-1.192728,52.975767
4.42,BCH - THE HAVEN,-2.589454,51.466527
2780.89,THORPEWOOD MEDICAL GROUP,1.341071,52.641956
1381.08,ST.HELENS MEDICAL CENTRE,-1.109209,50.698751
837.48,EDEN SURGERY,-1.30159,52.962668
417.67,THE HOXTON SURGERY,-0.086829,51.533527
5.52,HALTON PRIMARY CARE DERMATOLOGY SERVICE,-2.727045,53.331865
489.36,DR MARKS PRACTICE,0.192379,51.572553
637.4,BRENTFORD FAMILY PRACTICE,-0.310054,51.48676
1976.16,MANOR AND PARK GROUP PRACTICE,-1.42716,53.373705
1801.33,BIRD-IN-EYE SURGERY,0.105639,50.96595
1120.19,LONGFIELD MEDICAL PRACTICE,-2.28357,53.533828
714.21,THE HALING PARK PARTNERSHIP,-0.098109,51.357113
69.39,SOUTH CHESHIRE & VALE ROYAL PCAH,-2.531272,53.1909
364.13,DR RB KUMAR PRACTICE,0.800566,51.327757
2386.93,HANDSWORTH MEDICAL PRACTICE,-1.383405,53.371708
2189.95,MOSBOROUGH HEALTH CENTRE,-1.364873,53.325238
1832.61,CRABBS CROSS SURGERY,-1.943704,52.281407
262.67,GP LED DERMATOLOGY SERVICE,-0.299929,51.390825
4800.64,I HEART BARNSLEY,-1.506899,53.547954
12445.58,MIDLANDS MEDICAL PARTNERSHIP,-1.81313,52.519802
882.21,THE HEALTH CARE SURGERY,-1.487911,53.42172
4.06,VIRGIN CARE (MIDDLESBROUGH),-1.235298,54.577005
1102.01,HYTHE MEDICAL CENTRE SURGERY,-0.526274,51.429608
452.71,THE LEIGH SURGERY,0.656153,51.555504
3190.25,WILLOW BANK SURGERY,-2.102853,52.97847
2.18,DMC COMMUNITY DERMATOLOGY SERVICE,0.021737,51.597442
1976.24,PARK MEDICAL CENTRE,-2.873099,53.202665
518.21,COMMUNITY SERVICES NURSE PRESCRIBERS,-0.487256,51.892609
2692.39,THE NEW CONINGSBY SURGERY,-0.173849,53.105092
1718.14,THE STATHAM GROVE SURGERY,-0.08946,51.557463
2691.65,CROWN HOUSE SURGERY,-0.950634,53.325451
718.82,BARN SURGERY,-0.447347,50.813953
534.32,PRIMARY CARE MANCHESTER LIMITED,-2.214292,53.489633
471.15,CRICKLADE SURGERY,-1.85646,51.640614
692.56,WOODGATE VALLEY HEALTH CENTRE,-1.991423,52.442663
20.83,ENFIELD COMMUNITY GYNAECOLOGY SERVICE,-0.101361,51.659225
1350.16,CROSS ROAD SURGERY,-2.464849,50.602187
1746.96,ST PETER'S MED CENTRE (MANSINGH & MEHRA),-1.119092,52.631036
129.64,HMR CCG HART,-2.152215,53.620446
1233.37,JRB HEALTHCARE BEECHDALE SURGERY,-1.198142,52.961504
4703.57,CHEETHAM HILL PRIMARY CARE CENTRE,-2.23526,53.501162
548.03,CROSSWAYS PRACTICE,-3.023992,53.484655
1157.91,HOUNSFIELD SURGERY,-0.811033,53.183702
2211.35,HADDENHAM MEDICAL CENTRE,-0.921732,51.777822
3512.46,LISTER HOUSE SURGERY,-0.227126,51.764574
3849.71,NETTLEHAM MEDICAL PRACTICE,-0.476253,53.262865
60.61,NORTH DEVON TRUST NMPS,-3.413654,50.729414
1082.29,CUMBERLAND MEDICAL CENTRE,0.026047,51.519716
5716.25,THE RIDINGS MEDICAL GROUP,-0.622066,53.765218
3036.46,STANMORE HOUSE SURGERY,-2.231468,52.391138
854.84,DR BK JAISWAL'S PRACTICE,0.125595,51.538934
4143.9,THE OVER-WYRE MED.CTR.,-2.976492,53.928203
5489.55,DOCTOR LANE HEALTH CENTRE,-1.696722,53.675715
5646.92,NEWPORT PAGNELL MED.CTR.,-0.725298,52.086465
5196.7,TRAFALGAR MEDICAL GROUP PRACTICE,-1.092485,50.785331
2986.95,LONDON ROAD SURGERY,0.519034,51.613356
3279.38,LEEDS CITY MEDICAL PRACTICE,-1.555879,53.778323
1717.85,NORTHGATE SURGERY,-1.866567,52.899272
3143.57,AMWELL SURGERY,-0.013312,51.759904
2379.16,THE VILLAGE PRACTICE,-3.014553,53.876825
1616.76,240 WEXHAM ROAD,-0.57838,51.516902
998.2,THE JUBILEE PRACTICE,-1.003945,53.013557
15.81,TENBURY COMMUNITY HOSPITAL WARD,-2.589551,52.315401
2461.81,LONG LANE,-2.925005,53.456024
3922.48,GREYSTOKE SURGERY,-1.683424,55.171694
1592.94,KINGSTON HEALTH CENTRE,-0.304894,51.414188
2788.32,NORTH TRAFFORD GROUP PRACTICE,-2.299481,53.453882
395.8,SMS MEDICAL PRACTICE,-0.306785,51.549713
2466.57,STRATTON MEDICAL CENTRE,-4.516205,50.830225
2058.63,PARK FARM MEDICAL CENTRE,-1.495809,52.94407
3277.73,42 KINGSWAY,-3.020167,53.481011
4767.18,HELSTON MEDICAL CENTRE,-5.270081,50.099592
1354.27,BURSLEDON SURGERY,-1.317111,50.890052
935.83,WYRESDALE ROAD SURGERY,-2.452196,53.581577
432.9,PRIMARY CARE DVT SERVICE,-2.473916,53.76497
1696.2,THE MEDICAL CENTRE,-0.476068,51.50442
4153.25,THE GLENFIELD SURGERY,-1.196305,52.655381
2857.84,TRENTSIDE MEDICAL GROUP,-1.074629,52.964659
2170.94,THE NEW FOLLY SURGERY,0.384799,51.669624
119.74,WHITBY GP OOH,-1.112167,53.976819
4739.9,SWANSCOMBE HEALTH CENTRE,0.28731,51.424657
1171.33,UPPER HALLIFORD MEDICAL CENTRE,-0.43115,51.411378
2348.76,NESTON MEDICAL CENTRE,-3.064349,53.291818
653.65,DROYLSDEN MEDICAL PRACTICE,-2.145664,53.487166
2631.43,CEDARS MEDICAL GROUP,-1.740442,54.90557
556.75,DR VM PATEL,0.228776,51.561113
1491.39,UNITY SURGERY,-1.103411,52.980422
2873.98,FOREST PRACTICE,0.075235,51.654789
2251.08,HOLTS HEALTH CENTRE,-2.406966,51.931555
10.41,NMP SOUTHERN HEALTH (WEST HANTS),-1.530052,50.9313
1085.86,GUN LANE MEDICAL CENTRE,0.493189,51.397398
6398.89,URGENT CARE CENTRE (ERITH),0.166643,51.477113
530.28,WESTFIELD MEDICAL CENTRE,-1.531703,53.817673
452.73,GOLDINGTON ROAD SURGERY,-0.456174,52.140172
491.37,PRESTON MEDICAL CENTRE,-0.292579,51.564335
1391.92,WOODHALL SPA NEW SURGERY,-0.207041,53.153263
4749.35,THE NEW SURGERY,1.181851,51.089152
1136.04,GLENDALE MEDICAL CENTRE,-0.434503,51.490429
5121.34,FRIARSGATE PRACTICE,-1.336797,51.074249
557.49,EHS DERMATOLOGY SERVICE,0.01426,50.873305
1389.69,VESTA ROAD SURGERY,-0.040618,51.468737
1594.24,GRAVEL HILL SURGERY,-2.185723,52.534052
2977.94,SHROPDOC OUT OF HOURS,-2.732712,52.740396
6142.42,LEACROFT MEDICAL PRACTICE,-0.196029,51.126566
3358.76,PEEL HALL MEDICAL CENTRE,-2.265017,53.379925
3483.27,TILEHURST VILLAGE SURGERY,-1.042269,51.461233
2507.54,BUDSHEAD MEDICAL PRACTICE,-4.150289,50.417443
613.83,SOUTH SAXON HOUSE SURGERY,0.526723,50.868702
600.76,ELTHAM PALACE PMS,0.053714,51.449946
3105.08,RIVERPORT MEDICAL PRACTICE,-0.075654,52.343316
1556.9,DR KK CHAN & PARTNERS,-2.489022,53.524185
1032.74,ROTTON PARK MEDICAL CENTRE,-1.947079,52.482162
4237.91,AYLMER LODGE COOKLEY PARTNERSHIP,-2.261095,52.38419
2452.41,FRAMLINGHAM SURGERY,1.334192,52.227216
434,LANCASTER GATE MEDICAL CENTRE,-0.183362,51.511753
585.1,PENNINE SURGERY,-2.103349,53.642995
2499.26,MARLBOROUGH SURGERY,-1.33549,54.835804
2143.72,DR INGRAM & PTRS,-1.526892,54.136451
1579.21,MOULTON MEDICAL CENTRE,-0.062945,52.79766
11.75,COMMUNITY NURSING (H&R),-1.438367,54.350666
1245.88,RAJ MEDICAL CENTRE,-0.113968,53.550655
1583.43,LINDEN ROAD SURGERY,-0.479248,52.14361
3548.81,DAWLEY MEDICAL PRACTICE,-2.466781,52.664322
7551.19,CHCP - URGENT CARE OOH,-0.373324,53.729806
1400.24,ST SAVIOURS SURGERY,-2.308488,52.130324
706.6,IC24 LTD (CRAWLEY OOH),0.891514,51.129106
829.1,THE GLEBE FAMILY PRACTICE,0.544473,51.383164
1031.51,WESTFIELD SURGERY,-2.458993,51.284957
2255.42,HILLSIDE PRACTICE,-0.981124,54.56313
2382.24,EAST PARK MEDICAL CENTRE,-1.514944,53.793168
3618.96,READING WALK-IN HTH CTR OOH,-0.975896,51.454809
1147.4,OAK GLEN SURGERY,-1.816352,53.854799
2590.6,HUC WEST ESSEX OOH,-0.191727,51.782567
3048.77,ROSEGARTH SURGERY,-1.871551,53.714895
1153.11,THE HOLLIES SURGERY,0.374326,52.603925
4488.15,ONGAR HEALTH CENTRE,0.246278,51.716938
2210.02,SUMMERTOWN HEALTH CENTRE,-1.26328,51.774383
1493.11,STANHOPE PARADE HEALTH CENTRE,-1.431179,54.984988
2800.49,BURLEIGH MEDICAL CENTRE,-1.477568,53.549879
5263.97,THE BOULEVARD MEDICAL PRACTICE,-1.86759,53.716715
310.42,BROADHURST ST MED PRACT (KS MORJARIA),-1.118671,52.653472
418.74,THE ACTON HEALTH CENTRE,-0.270199,51.506214
4774.63,SEVERN FIELDS MEDICAL PRACTICE,-2.721619,52.728047
566.38,KUDRA (WOODLAWN),-0.366673,51.444444
1213.6,GRAINGER & SCOTSWOOD MEDICAL PRACTICES,-1.640452,54.969316
433.76,GEORGE ELIOT MEDICAL CENTRE,-1.506534,52.419528
1811.35,ANFIELD GROUP PRACTICE,-2.945317,53.429436
1967.3,COLLIERY COURT MEDICAL GROUP,-1.460703,54.949762
624.53,GREENBANK DRIVE SURGERY,-2.930424,53.38977
37.45,GREENGATE MINOR SURGERY,0.027661,51.52521
2804.41,NEWTONS PRACTICE,-0.103899,51.000679
957.82,I J HEALTHCARE,-1.531354,54.88104
699,SCOTS GAP MEDICAL GROUP,-1.940563,55.172746
9.57,EPCS WOMENS HEALTH - WESTBOURNE GREEN,-1.77624,53.807296
20.36,GPSI DERMATOLOGY SERV EATON SOCON HUNTS,-0.286916,52.222579
4136.22,MORETON CROSS GROUP PRACTICE,-3.111975,53.403551
2044.26,SHERINGHAM MEDICAL PRACTICE,1.214777,52.939688
1142.31,GRANVILLE MEDICAL CENTRE,0.07096,51.563158
3516.45,JAMES WIGG PRACTICE,-0.139955,51.546404
1.88,ST GEMMA'S HOSPICE,-1.534179,53.84231
1385.2,THE WELLSPRING SURGERY,-1.136804,52.962324
21680.49,OCTAGON MEDICAL PRACTICE,-0.103578,52.622001
1947.1,LITTLEBURY MEDICAL CENTRE,0.01909,52.801863
1538.2,GROVE VILLAGE MEDICAL CENTRE,-0.43095,51.449161
500.77,COMMUNITY DERMATOLOGY SERVICE,-1.421662,53.698109
464.05,BRIGHTON STATION WALK-IN,-0.141323,50.827937
4703.95,COWPLAIN FAMILY PRACTICE,-1.017682,50.894248
3148.21,THE JUNCTION HC - UNREGISTERED PATIENTS,-0.170756,51.465228
2850.57,BOSWORTH MEDICAL CENTRE,-1.753633,52.480569
2593.24,THE HERON PRACTICE,-0.093757,51.568531
2068.03,WESTWAY MEDICAL CENTRE,-2.943932,53.515597
509.37,AL-WAQAS MEDICAL CENTRE,-1.108413,52.62906
3319.66,UPWELL HEALTH CENTRE,0.224238,52.59997
1652.05,RAMSEY HEALTH CENTRE,-0.108107,52.448482
4317.42,FAIRBROOK MEDICAL CENTRE,-0.272179,51.659777
669.74,PARTNERSHIP PRIMARY CARE CENTRE,-0.120993,51.554717
3039.67,PWE HEALTHCARE PENDLE,-2.21885,53.838042
1598.02,HIGHGREEN PRACTICE (KHAN),-1.171945,52.964495
970.77,GREEN PRACTICE,-0.371755,51.468263
831.4,AVHAC REGISTERED PATIENTS,-2.366921,53.759584
952.04,EAST END MEDICAL CENTRE,0.025228,51.537311
7.08,BOLTON OOH,-2.424635,53.592518
184.41,PRINGLE STREET SURGERY,-2.467594,53.742039
3161.52,THE LANGTON MEDICAL GROUP,-1.837644,52.696405
476.28,URGENT CARE CENTRE BISHOP AUCKLAND,-1.678547,54.655848
1369.69,SOUTHGLADE MEDICAL PRACTICE,-1.17363,52.99873
78.63,PURFLEET HUB,0.235437,51.489743
123.26,EXTENDED ACCESS PCD SAME DAY HC,-1.124432,53.522173
3281.26,GEORGE CLARE SURGERY,0.051852,52.457422
3109.04,ROWDEN SURGERY,-2.125101,51.453853
3886.72,THE LIGHTHOUSE MEDICAL PRACTICE,0.281363,50.765632
2984.59,STOKESLEY SURGERY,-1.194366,54.470898
304.64,DIABETES,-2.095555,52.599722
2.16,SHERWOOD LOCALITY EXTENDED ACCESS,-1.119194,53.100674
8.14,RICHARDSON COMMUNITY HOSPITAL,-1.916153,54.545708
947.38,BALLIOL ROAD SURGERY,-1.471449,52.415924
68.74,DERMATOLOGY GPSI (SUTTON),-0.183642,51.380313
2131.86,HORSMAN'S PLACE SURGERY,0.214952,51.442468
2336.66,THE VILLAGE SURGERIES GROUP,-2.771265,53.124246
26.58,COMMUNITY MEDICAL TEAM - EAST ELMBRIDGE,-0.357957,51.397382
745.72,MERTON CCG SLDUC OOH,-0.283378,51.412517
2399.98,THAXTED SURGERY,0.343457,51.95519
9167.18,EAST BERKS PRIMARY CARE OOH(WAM),-0.763252,51.415712
1150.63,SANDMERE PRACTICE,-0.127558,51.462594
22,LOCALA BRADFORD SEXUAL HEALTH SERVICE,-1.751023,53.793485
2028.56,THE GABLES MEDICENTRE,-1.508288,52.440912
3940.37,THE CASTLE MEDICAL GROUP,-2.3932,53.873954
1375.77,THE RIVERSIDE HEALTH CTR,1.060732,51.945725
1204.14,RYALLS PARK MEDICAL CENTRE  YEOVIL,-2.640872,50.951832
434.95,LIMBRICK WOOD SURGERY,-1.578558,52.406833
645.69,DARLASTON HEALTH CENTRE-KHAN,-2.036323,52.56617
1406.94,WOLSTON SURGERY,-1.392727,52.376806
979.28,JAUNTY SPRINGS HEALTH CENTRE,-1.417896,53.347684
2294.5,THE PRACTICE HEART OF HOUNSLOW,-0.371755,51.468263
1248.58,NETHERTON HEALTH CENTRE,-2.079024,52.487973
3200.25,FOREST HOUSE SURGERY,-1.287289,52.766681
61.6,LOCALA KIRKLEES SEXUAL HEALTH SERVICE,-1.634884,53.689744
3538.2,NEWBOLD SURGERY,-1.450706,53.256108
1531.09,LONGSHORE SURGERIES,1.717841,52.420772
1201.82,BARBARA CASTLE HEALTH CENTRE,0.073795,51.748894
181.9,AT HOME SERVICE,-0.10603,51.438104
1806.42,THORNBURY HEALTH CENTRE - BURNEY,-2.517723,51.612861
4891.15,CHARTER MEDICAL CENTRE,-0.156741,50.831254
5550.65,VINE MEDICAL GROUP,-1.035063,50.878251
2483.54,PRIORY ROAD MEDICAL CENTRE,-1.747812,51.552763
511.05,DR JO ARAYOMI'S PRACTICE,0.505558,51.567734
5937.53,GRAFTON MEDICAL PARTNERS,-0.171386,51.424951
1299.76,LABURNUM SURGERY,-1.56822,55.182043
1.05,CORNWALL IMPROVED ACCESS SCHEME,-5.097984,50.265937
3534.74,GLENROYD MEDICAL CENTRE,-3.033503,53.849555
3061.05,WATERLOO HOUSE SURGERY,-3.268021,54.20894
1184.23,ELM LANE SURGERY,-1.460525,53.421626
19.13,DERMATOLOGY SERVICE,-1.597685,54.851721
1510.18,LISSON GROVE HEALTH CENTRE,-0.169323,51.524736
1708.38,HAMMERSMITH & FULHAM CENTRES FOR HEALTH,-0.234721,51.51742
328.96,HOUNSLOW COMMUNITY DERMATOLOGY SERVICE,-0.08431,51.500087
3278.7,MANOR SURGERY,-1.215037,51.761474
810.91,COCKHEDGE MEDICAL CENTRE,-2.589833,53.390932
5.64,SMITHDOWN CHILDRENS NHS WALK IN CENTRE,-2.934843,53.393088
3688.88,SEASIDE MEDICAL CENTRE,0.294614,50.773566
2101.81,GLEADLESS MEDICAL CENTRE,-1.451325,53.356551
909.98,BROOKSIDE SURGERY,-1.399088,52.35048
2054.7,LUNESDALE SURGERY,-2.602213,54.200573
921.97,HAZELDENE MEDICAL CENTRE,-0.275394,51.547592
3.61,GREENWICH COMMUNITY HEALTH SERVICES,0.174741,51.434795
1510.94,GUDGEHEATH LANE SURGERY,-1.205575,50.859752
2094.73,ST GEORGE'S MEDICAL CENTRE PMS PRACTICE,-1.482825,53.57906
4494.04,PARK SURGERY,-0.327381,51.064354
2522.81,LILLIPUT SURGERY,-1.954229,50.711523
644.26,PEDMORE MEDICAL PRACTICE,-2.118211,52.457029
1235.49,DISHLEY GRANGE MEDICAL PRACTICE,-1.240459,52.779192
317.87,ST. KATHERINE'S DOCK PRACTICE,-0.068285,51.506983
3372.33,CHAPELTHORPE,-1.507287,53.644526
7029.04,BADGER GROUP OOH,-1.877826,52.477589
1156.27,RAYMOND ROAD SURGERY,-1.419748,50.91941
6.02,JULIAN HOUSE HEALTHCARE SERVICE,-2.356708,51.378725
604.95,2/IRLAM MEDICAL PRACTICE,-2.432258,53.437925
7542.69,BEDWORTH HEALTH CENTRE,-1.472657,52.478626
5750.23,LIGHTWATER SURGERY,-0.664016,51.351903
623.79,SUNRISE MEDICAL CENTRE,-0.382255,51.51087
1873.13,NEWPORT SURGERY,0.208995,51.982816
1895.35,THE GLEBE PRACTICE,-0.670912,53.270911
1396.89,BRICKFIELDS SURGERY,0.605168,51.653143
2932.17,LANGPORT SURGERY,-2.827561,51.037993
15.32,COMMUNITY ENT SERVICE,-1.310932,53.52812
1189.19,BARNSLEY ROAD SURGERY,-1.45693,53.425089
1378.23,LISTER HOUSE SURGERY,-0.4515,51.89192
31.87,SUNDERLAND COMMUNITY PAEDIATRICS TEAM,-1.410327,54.902214
2999.75,GRAHAM ROAD SURGERY,-2.97439,51.34467
911.2,HILL TOP SURGERY,-2.100756,53.52011
1789,GRANGEWOOD SURGERY,-1.498711,54.866414
1916.5,STABLE FOLD SURGERY,-2.52343,53.552405
1061.47,CITY ROAD MEDICAL CENTRE,-0.091116,51.527895
2810.28,CONISTON MEDICAL PRACTICE,-2.584043,51.538567
2325.64,PARKFIELD MED CTR,-3.00005,53.363076
1781.85,GRANGE ROAD SURGERY,-2.61945,51.413052
4161.71,THE HAWTHORNS SURGERY,-1.825965,52.538746
934.59,DR RAHIL'S SURGERY,-2.693285,53.464803
1460.68,CASTLEFIELDS,-2.129518,52.801013
1236.85,SHEET STREET SURGERY,-0.605507,51.479648
1184.54,GLOUCESTER HOUSE MEDICAL CENTRE,-2.352599,53.447337
6.64,MSK CATS DERBY,-1.477949,52.90097
13730.95,HEREFORD MEDICAL GROUP,-2.720274,52.058534
3503.3,CLAYPATH & UNIVERSITY MEDICAL GROUP,-1.56716,54.7787
2247.4,HEATH HAYES HEALTH CENTRE,-1.988284,52.69062
656.16,SHAKESPEARE HEALTH CENTRE,-0.437018,51.498422
15.33,COMMUNITY OPHTHALMOLOGY SERV,-1.508005,52.413401
2668.29,OXFORD STREET SURGERY,-3.550576,54.64373
855.19,HOLMLANDS MED CTR,-3.060475,53.37273
4323.74,LONGFIELD MEDICAL CENTRE,0.678834,51.729336
1053.11,NORTON CANES PRACTICE,-1.970246,52.673977
2793.58,THE ENDEAVOUR PRACTICE,-1.235397,54.575047
1611.16,COWGILL SURGERY,-1.814543,53.781952
691.37,DR MB GHAFOOR & PARTNERS,-2.154239,53.611617
1936.26,BLYTH ROAD MEDICAL CENTRE,-1.20365,53.422231
207.33,KADIM PRIMECARE MEDICAL CENTRE,0.330602,51.479903
1012.85,THE MOUNTFIELD SURGERY,-0.19422,51.595001
2166.97,WOOLTON HOUSE MEDICAL CTR,-2.867143,53.375388
1926.22,THE CENTRAL SURGERY,-1.082204,52.598976
1485.39,ELLIS PRACTICE,-0.276552,51.563894
4443.74,PRIORY MEDICAL GROUP,-1.450123,55.010031
1021.78,THE CHESTNUTS & HALLGATE SURGERY,-0.403621,53.778985
1109.49,RUSSELL STREET SURGERY,-0.982888,51.452326
796.82,RUGBY ROAD SURGERY,-1.419352,52.476714
2119.19,TADCASTER MEDICAL CENTRE,-1.25824,53.885494
2435.18,CLARENDON MEDICAL PRACTICE,-2.284742,53.488361
4105.65,WARDERS MEDICAL CENTRE,0.279212,51.19741
1074.79,RIVERSIDE PARTNERSHIP,-0.893061,51.043814
270.6,PLUMBRIDGE MEDICAL CENTRE,-0.013986,51.473207
1065.2,BERINSFIELD HEALTH CENTRE,-1.176774,51.663989
2027.3,ELLIOTT HALL MEDICAL CTR.,-0.362526,51.608476
1442.47,ROYTON MEDICAL CENTRE,-2.12386,53.565731
11.11,FRESHNEY PELHAM CARE LIMITED,-0.112579,53.564436
3257.03,LUDLOW - PORTCULLIS,-2.715958,52.368905
108.2,ESTUARY MEDICAL PRACTICE,-3.183089,53.373492
922.7,COLNEY HATCH LANE SURGERY,-0.147555,51.600731
2393.44,NORWOOD SURGERY,-2.97819,53.650008
429.42,BINBROOK SURGERY,-0.178896,53.42766
3556.21,CHEADLE MEDICAL PRACTICE,-2.213539,53.393745
3338.37,CUMBERLAND HOUSE SURGERY,-2.990437,53.638743
995.98,WOLSELEY MEDICAL CENTRE,-0.355069,53.746195
2261.53,THE ARGYLE SURGERY,-0.322592,51.520337
4312.89,PROSPECT MEDICAL CENTRE,-1.646189,54.974185
2107.53,THORNDIKE SURGERY,0.502879,51.380805
2310.89,MOORE STREET MEDICAL CENTRE,-3.002523,53.458715
1611.93,CHURCH WALK SURGERY,-0.39973,53.13783
789.25,DR GUPTA,0.164714,51.582916
2767.16,HUCKNALL ROAD MEDICAL CENTRE,-1.168398,52.990092
2467.93,HARTSHILL MEDICAL CENTRE,-2.210624,53.009925
1789.26,THE CROFT MEDICAL CENTRE,-1.068661,52.5939
2.13,COMM GYNAECOLOGY CLINIC2,-0.302218,51.724886
1474.46,YELVERTON SURGERY,-4.082824,50.491344
84.99,PC EXT ACCESS CHILTERN VALE HEALTH,-0.525854,51.884638
1651.96,THE BILLESDON SURGERY,-0.93947,52.618174
2131.37,BATTERSEA FIELDS PRACTICE,-0.154867,51.473666
1.44,MALLING CLUSTER,0.277462,51.194717
862.55,STIRLING MEDICAL CENTRE (MATHEWS),-0.05904,53.573513
1586.65,TODDINGTON MEDICAL CENTRE,-0.530482,51.945856
619.35,PARSONS GREEN WIC,-0.199155,51.47377
2361.2,THE GREENS HEALTH CENTRE,-2.099175,52.529005
1353.73,HOPE HOUSE SURGERY,-2.447646,51.291794
1628.83,THE SURGERY,-1.367146,52.726986
2363.34,ABBEY MEDICAL CENTRE,-0.185132,51.537921
1580.74,WINSCOMBE SURGERY,-2.830537,51.315196
4039.71,LANGLEY HEALTH CENTRE,-0.541284,51.495313
5415.96,CROWN HEIGHTS MEDICAL CENTRE,-1.086312,51.267188
2166.35,MERTON LODGE SURGERY,0.173148,53.259654
2713.46,THE WATERLOO PRACTICE,-1.737438,53.645186
1718.51,MARTLESHAM SURGERY,1.272068,52.061314
1601.95,WARWICK GATES FAM.HTH.CTR,-1.53869,52.268666
2124.18,MIDDLEWAY SURGERY,-4.713217,50.356439
1167.94,SWINGBRIDGE SURGERY,-0.662707,52.901355
6087.01,NEWGATE MEDICAL GROUP,-1.123405,53.301065
1876.81,NORTHFIELD SURGERY,-0.966348,53.613648
1574.61,HEALD GREEN HEALTH CENTRE 1,-2.229276,53.369878
891.06,HOWARD STREET MEDICAL PRACTICE,-1.94969,53.445062
688.19,QUINCY RISE SURGERY,-2.129544,52.467436
2906.82,ALVASTON MEDICAL CENTRE,-1.429622,52.893808
498.81,GILLMOSS MEDICAL CENTRE,-2.897849,53.459458
1933.28,ST EDWARDS MEDICAL CENTRE,0.181741,51.580341
2602.48,PRACTICE TWO,-0.201064,54.084715
2366.12,3/SPRINGFIELD HOUSE MEDICAL PRACTICE,-2.362019,53.480252
1336.42,MILLBANK MEDICAL CENTRE,-0.130231,51.49403
3083.28,PARKLANDS MEDICAL PRACTICE,-1.781051,53.761106
3776.06,WELLINGTON ROAD SURGERY,-2.3789,52.764241
1574.78,PARK LANE SURGERY,-2.12262,53.257964
2219.02,THE LENNARD SURGERY,-2.613084,51.425915
789.28,DR SEABROOK,-2.632499,53.55143
1663.91,MILDMAY MEDICAL PRACTICE,-0.085731,51.552474
2727.49,STILLMOOR HOUSE MEDICAL PRACTICE,-4.720038,50.471929
9.08,COMMUNITY SERVICES,-0.175694,51.426682
772.75,ALLERTON MEDICAL CENTRE,-1.533879,53.826921
186.36,CLIFFORD HOUSE MEDICAL CENTRE,-0.406678,51.447323
460.86,FOUNTAINS MEDICAL PRACTICE,-2.892972,53.195093
5553.84,ORCHARD CROFT,-1.54984,53.660001
1573.11,CROWN STREET SURGERY,-0.2738,51.507391
3704.76,ST HELENS ROTA OOH,-2.750335,53.45324
2524.59,COLNE VALLEY GROUP PRACTICE,-1.928213,53.602096
2475.86,SOUTH PARK SURGERY,-2.12262,53.257964
661.32,BERE REGIS SURGERY,-2.219824,50.752538
495.28,SHIRLAND ROAD MEDICAL CENTRE,-0.203904,51.5292
1429.56,THE ISLAND SURGERY,0.591014,51.520226
1093.41,FAMILY PRACTICE,-2.216357,53.554714
35.35,SOUTH WORCESTERSHIRE COUNTYWIDE NURSES,-2.213008,52.19506
2581.25,CHURCHILL MEDICAL CENTRE,-0.288192,51.413388
1010.69,BROADWAY (SWBCCG) MALLING HEALTH OOH,-2.02775,52.527792
4988.66,WARWICKSHIRE GP OOH,-1.478439,52.51258
1898.69,THE WINDMILL PRACTICE,-1.13475,52.951951
14.21,TUDOR COURT,-2.224848,53.590211
2074.06,HOLLY BANK SURGERY,-2.724149,53.454211
3671.09,HALL GROVE GROUP PRACTICE,-0.181801,51.78932
1212.8,RUTLAND HOUSE SURGERY,-0.14424,51.594563
2547.06,PEMBROKE ROAD SURGERY,-2.618518,51.464336
1925.7,OLD TOWN SURGERY,-1.796355,51.550429
2125.2,PUTNOE MEDICAL CENTRE WALK IN CENTRE,-0.438308,52.147939
509.51,MEDICUS HEALTH PARTNERS-RILEY HOUSE,-0.043984,51.664416
17.63,TOGETHER4HEALTHCARE LIMITED (DKA),-1.997982,52.516003
876.96,ANDOVER MEDICAL CENTRE,-0.116461,51.561766
2042.85,CHURCH STRETTON MEDICAL CENTRE,-2.806169,52.537286
2032.87,BARLBOROUGH MEDICAL PRACTICE,-1.284471,53.289528
968.14,HOSSAIN PRACTICE,-2.156747,53.509855
555.6,DR P & S POOLOGANATHAN,0.175968,51.560718
393.02,PRIMARY HEALTHCARE DARLINGTON,-1.561958,54.528141
4569.26,NEW COLLEGIATE MEDICAL CENTRE,-2.236077,53.504378
1725.01,MANCHESTER ROAD SURGERY,-1.521086,53.380573
4.06,AQP ANTICOAG SANDWELL HOSPITAL,-1.988866,52.528091
2646.16,FRESSINGFIELD MEDICAL CENTRE,1.310808,52.347219
66.03,INTEGRATED COMMUNITY DERMATOLOGY SERVICE,-2.455551,53.733223
2760.68,THE CROFT SURGERY,-0.657769,50.841375
2057.1,WEST TIMPERLEY MEDICAL CENTRE,-2.353117,53.402699
769.7,QUEENS AVENUE PRACTICE,-0.147916,51.591852
4743.31,NORTHUMBERLAND HOUSE SURGERY,-2.261095,52.38419
67.09,DIABETES SERVICE TMH,-0.340999,51.425838
3163.39,OXTED HEALTH CENTRE,9.9e-05,51.257686
3242.8,MUCH WENLOCK & CRESSAGE MEDICAL PRACTICE,-2.559942,52.595605
691.04,BURMA HILL PRACTICE,-0.824887,51.417902
442.95,THE MANOR PARK PRACTICE,0.057339,51.55393
3651.32,KNOWLE HOUSE SURGERY,-4.134098,50.40863
286.2,DR A PATEL,0.140105,51.573716
1299.96,FRIENDS ROAD MEDICAL PRACTICE,-0.094795,51.371276
572.91,DR A ARIF,0.115343,51.551395
1089.15,BEAUMONT LODGE MEDICAL PRACTICE,-1.160488,52.658279
