total_cost,name,longitude,latitude
3347.55,COLVILLE HEALTH CENTRE,-0.206231,51.515837
4787.16,RICHMOND MEDICAL GROUP,-0.267239,51.465848
2042.84,ARCHWAY MEDICAL CENTRE,-0.126124,51.562541
1116.73,ATHENA MEDICAL CENTRE,-0.053257,51.554943
11434.99,LAKE ROAD PRACTICE,-1.078356,50.804825
4995.19,ROUNDWELL MEDICAL CENTRE,1.203795,52.648844
13193.46,ST.JAMES SURGERY,1.147433,51.787326
5129.57,THE MAYFLOWER MEDICAL PRACTICE,-1.01945,53.431872
3899.99,HYLTON MEDICAL GROUP,-1.414195,54.908604
6394.51,EDENFIELD ROAD SURGERY,-2.188671,53.622297
1532.78,THE EXMOOR SURGERY,-0.217218,51.522362
7930.6,CLEVEDON MEDICAL CENTRE,-2.84572,51.437228
5558.82,ST ALBANS SURGERY,0.133341,51.537112
1.5,NDUC NORTH TYNESIDE OOH,-1.58819,55.01932
1665.54,COLLINGWOOD FAMILY PRACTICE,-1.903405,52.55667
6,PETERSFIELD GP EXTENDED ACCESS HUB,-0.942399,51.003885
4446.29,POPLAR HOUSE SURGERY,-3.03076,53.754721
6952.07,MARTON MEDICAL PRACTICE,-3.034524,53.812843
3252.49,OAKRIDGE PARK MEDICAL CENTRE,-0.777853,52.068655
609.16,THE TUDOR HOUSE MEDICAL CENTRE,-0.266689,51.564495
3448.67,GRANGE STREET SURGERY,-0.335878,51.757298
10305.56,THE PARK SURGERY,1.729276,52.606218
6291.97,BIDDULPH VALLEY SURGERY,-2.178498,53.116111
507.47,THE BALAJI SURGERY  THE SPARKBROOK CHC,-1.871333,52.462659
1613.6,HARLEY GROVE MEDICAL CTR.,-0.027752,51.527964
2058.69,STREATFIELD HEALTH CENTRE,-0.30812,51.593812
4560.26,THE LIMES SURGERY MEDICAL CENTRE,-2.114052,52.456884
1739.73,STAVERTON SURGERY,-0.22584,51.544182
4641.15,SPRINGWELL MEDICAL GROUP,-1.422181,54.890239
4532.16,DR WS RIDDELL'S PRACTICE,-1.223723,53.260141
2951.94,VIOLET LANE MEDICAL PRACTICE,-0.107972,51.360366
3277.34,PARKSIDE GROUP PRACTICE,-0.098549,51.350645
2235.23,BEDFORD HILL FAMILY PRACTICE,-0.149067,51.44085
6266.95,KINGS MEDICAL CENTRE,-1.216402,54.571717
4228.53,SILVERDALE PRACTICE,-0.121708,50.952843
4179.67,PENNY'S HILL PRACTICE,-1.894499,50.801788
4899.45,APPLEBY SURGERY,-1.456596,55.011193
2306.09,ASHWELL MEDICAL CENTRE,-1.778612,53.803786
174.23,BARTON SURGERY,-4.088247,50.359085
4230.32,AVON VALLEY PRACTICE,-1.812104,51.294105
9387.88,THE ARMADA FAMILY PRACTICE,-2.571861,51.413438
4652.66,WOODVIEW MEDICAL CENTRE,-0.841889,52.268682
6277.66,PRINCES GARDENS SURGERY,-0.766458,51.250407
10039.22,WELLFIELD HEALTH CENTRE,-2.147479,53.606581
1834.22,BRAITHWAITE RD SURGERY,-2.574985,53.477412
4715.15,SEDLESCOMBE & WESTFIELD SURGERIES,0.534725,50.934129
34.5,PDS MEDICAL OOH,-3.023363,53.797158
2786.3,RIVERSIDE SURGERY,0.180773,51.479567
5581.85,RIDGEWAY VIEW FAMILY PRACTICE,-1.791571,51.524175
3877.45,SCHOPWICK SURGERY,-0.299293,51.645362
61.16,URGENT CARE CENTRE HRCH,-0.324434,51.473648
23.48,WORTHING MIAMI GP ACCESS HUB,-0.390026,50.823979
2750.14,THE WOOTTONS SURGERY,0.437136,52.790343
1499.95,THE WILLOWS MEDICAL PRACTICE,-2.309137,53.485461
1246.79,STRATFORD VILLAGE SURGERY,0.006461,51.542096
4279.59,MIRFIELD SURGERY,-1.776956,52.469072
3452.99,COMMONWEALTH HEALTH CENTRE,0.36308,51.463166
1234.17,HENDON WAY SURGERY,-0.241873,51.579182
3185.74,JUBILEE HEALTHCARE,-1.518884,52.403423
4728.88,THE ELMS MEDICAL CENTRE,0.557729,51.4201
1711.91,WIGMORE MEDICAL CENTRE,0.588765,51.352272
7242.25,VICTORIA ROAD SURGERY,1.716498,52.471024
145.71,INTEGRATED CARE 24 LTD (CWSX OOH),0.891514,51.129106
2730.84,CHURCH HILL SURGERY,1.229008,52.428527
4404.65,E HARLING & KENNINGHALL MEDICAL PRACTICE,0.932279,52.43909
4456.85,WATLING MEDICAL CENTRE,-0.262021,51.603291
1.5,SUSSEX BEACON,-0.112934,50.838597
2674.23,OXFORD ROAD MEDICAL PRACTICE,-1.603365,54.699579
1346.92,DR SURYANI,-2.070174,52.552984
16760.74,CARN TO COAST HEALTH CENTRES,-5.268154,50.226222
4920.45,OLD HARLOW HEALTH CENTRE,0.134039,51.784038
7431.62,NORTHAM SURGERY,-4.215465,51.038082
3574.7,KIRKDALE MEDICAL CENTRE,-2.973842,53.433523
7084.64,WEAVERS MEDICAL,-0.733538,52.401531
7219.16,LITTLEWICK MEDICAL CENTRE,-1.304838,52.966452
7162,ST JAMES' MEDICAL CENTRE,-2.289474,53.708959
3204.92,REVEL SURGERY,-1.361421,52.41228
895.91,RUDGWICK MEDICAL CENTRE,-0.450643,51.090073
4450.31,COACHMANS MEDICAL PRACTICE,-0.203875,51.096335
7309.93,BISHOPS CLOSE MEDICAL PRACTICE,-1.599142,54.699817
3621.23,DR YADAVA N PRACTICE,0.334586,51.476703
2840.03,LONG CLAWSON MEDICAL PRACTICE,-0.923909,52.839215
4568.11,ABBEY MEDICAL PRACTICE,-1.951015,52.091043
4127.04,REDBURN PARK MEDICAL CENTRE,-1.474775,55.00092
3031.06,THE DENSHAM SURGERY,-1.318986,54.561625
1364.71,ROSERTON STREET SURGERY,-0.010049,51.498482
3925.6,DR FIRTH AND PARTNERS,-0.608263,51.713308
9962.73,QUEENSWAY  MEDICAL CENTRE,0.714012,51.541786
4.5,GLOUCESTERSHIRE CARE SERVICES NHS TRUST,-2.176389,51.847073
871.31,BRUCE GROVE PRIMARY HEALTH CARE CTR,-0.070141,51.592004
5195.43,KEATS GROVE SURGERY,-2.099546,52.614561
1483.37,CRICK MEDICAL PRACTICE,-1.135861,52.343212
1483.82,SILTON SURGERY,-2.315694,51.074742
3338.1,FISHERGATE HILL SURGERY,-2.714363,53.754455
1.5,WWL NURSES,-2.629091,53.55774
3161.14,APPLETREE MEDICAL PRACTICE,-1.486919,52.985104
10471.02,SOUTH LEWISHAM GROUP PRACTICE,-0.013043,51.430269
769.72,NAYAR JK,-0.368366,53.768793
2669.57,SPEKE HC - DR SINGH & DR BICHA,-2.838793,53.340911
248.91,BRADFORD STUDENT HEALTH SERVICE,-1.768359,53.785323
17776.56,STANMORE MEDICAL GROUP,-0.204612,51.913274
1855.74,HARTLAND SURGERY,-4.482549,50.992721
1478.05,KIRPAL MEDICAL PRACTICE,-1.934945,52.503094
140.96,RICHMOND GP ALLIANCE,-0.313083,51.415592
3907.4,FARNHAM DENE MEDICAL PRACTICE,-0.777405,51.200549
2162.7,THE ADDERLANE SURGERY,-1.845745,54.962605
2804.83,DR BAKER & PARTNERS,0.548167,51.570733
2612.95,THE PANTON PRACTICE,-1.862595,50.72093
12835.79,CLEVELEYS GROUP PRACTICE,-3.042545,53.875111
1559.73,BRAMLEY AVENUE SURGERY,-0.141707,51.323235
5952.51,THE WEARDALE PRACTICE,-2.002656,54.746005
2217.75,LEA ROAD MEDICAL PRACTICE,-2.140864,52.575971
2189.26,THE ROBINS SURGERY  HAROLD HILL HEALTH C,0.224895,51.606266
1515.93,THE CEDAR PRACTICE,-0.093757,51.568531
381.93,BOLEYN ROAD PRACTICE,0.031124,51.538882
9681.52,DMC ST MARYS ISLAND SURGERY,0.538105,51.406776
11379.24,TAMAR VALLEY HEALTH,-4.320073,50.503476
3658.24,THE ROEHAMPTON SURGERY,-0.242431,51.451154
2158.93,ROYAL CRESCENT,-2.078966,51.900098
3975,CHURCHWOOD MEDICAL PRACTICE,0.539934,50.878228
1181.75,AKSYR MEDICAL PRACTICE,-0.263604,51.542472
1052.04,NEWNHAM WALK SURGERY,0.110503,52.199281
4933.39,MARKET SURGERY,1.253177,52.791348
2633.49,THE MEDICAL CENTRE BUNTINGFORD,-0.02183,51.949019
4018.01,PARK LANE SURGERY,-0.021245,51.746514
1621,COVENT GARDEN MEDICAL CENTRE,-0.123689,51.515564
3,NEAS NORTH TYNESIDE CCG,-1.712365,54.969713
1617.36,WINDSOR MEDICAL CENTRE,-1.622157,53.693875
3261.68,THE VILLAGE MEDICAL CENTRE,-0.647436,51.51295
5532.29,WHITBURN SURGERY,-1.364667,54.952795
9935.51,ABBEY SURGERY,-4.150401,50.546904
135.13,URGENT CARE CENTRE (NELFT),0.002638,51.578831
4568.29,HAMPSTEAD GROUP PRACTICE,-0.163076,51.553171
360.4,CITY REACH HEALTH SERVICES,1.288137,52.633042
340.49,EAST LANCS MEDICAL SERVICE OOH,-2.442698,53.747769
2266.53,NEW FOREST MEDICAL GROUP,-1.576665,50.81471
2738.06,DISTINGTON SURGERY,-3.541351,54.595305
8805.7,ROSEDALE SURGERY,1.705996,52.457187
2824.6,DRS RAJCHOLAN & GEORGE,-2.057836,52.613672
1676.99,GREEN LANE  GOODMAYES MEDICAL PRACTICE,0.113559,51.563316
3846.41,NORTHBROOK HEALTH CENTRE,-1.821273,52.419657
7514.09,GORTON MEDICAL CENTRE,-2.171985,53.463168
1778.58,YEADING MEDICAL CENTRE,-0.397019,51.533634
3705.93,BEESTON VILLAGE SURGERY,-1.569152,53.772415
503.92,MATLOCK ROAD SURGERY,-0.157915,50.843638
141.93,CBS OOH,-1.233579,53.134573
3882.19,WATERFRONT AND SOLENT SURGERY,-1.403379,50.870013
2254.31,GARSTON FAMILY HEALTH CENTRE,-2.89683,53.353909
2454.33,NORTHERN MOOR MEDICAL PRACTICE,-2.285109,53.408049
2473.94,EMERSONS GREEN MEDICAL CENTRE,-2.477023,51.492762
6508.05,THE GREEN HOUSE SURGERY,-1.068807,54.599299
1731.24,BATTERSEA RISE GROUP PRACTICE,-0.163474,51.460833
7.44,RESPIRATORY CLINIC,-2.095555,52.599722
8272.9,DRAYTON MEDICAL PRACTICE,1.226086,52.679249
685.64,HAVERFIELD SURGERY,-0.449803,51.711933
4022.57,GLOUCESTER HEALTH ACCESS CENTRE,-2.239997,51.862659
4.5,WOKING COMMUNITY HOSPITAL WIC,-0.556304,51.315132
4.5,NL EXTENDED ACCESS,-0.647232,53.568261
7113.24,ST STEPHENS GATE MEDICAL PARTNERSHIP,1.286835,52.623967
7595.39,MARKET CROSS SURGERY,0.510146,52.343506
11687.57,STOCKPORT MEDICAL GROUP,-2.177788,53.402873
2734.58,EMPINGHAM MEDICAL CENTRE,-0.593784,52.667718
3475.86,FOSSE MEDICAL CENTRE (GK SHARMA),-1.152153,52.636707
5126.5,FARROW MEDICAL CENTRE,-1.74312,53.802511
10797.09,THE HAYMARKET HEALTH CTR,-2.211781,53.060343
734.95,CHARLOTTE STREET SURGERY,-2.424635,53.592518
4444.74,SHERBOURNE MEDICAL CENTRE,-1.532618,52.29289
3063.15,CHURCH LANGLEY MEDICAL PRACTICE,0.132734,51.767477
2202.45,ELGIN CLINIC,-0.198468,51.524818
7172.6,COWES MEDICAL CENTRE,-1.302115,50.75145
12246.74,THE BRIDGE GROUP PRACTICE,-0.375759,53.787555
442.71,DUDLEY URGENT CARE CENTRE OOH,-2.118518,52.502944
4629.21,PADDOCK AND LONGWOOD FAMILY PRACTICE,-1.80546,53.642119
4437.13,DYKES HALL MEDICAL CENTRE,-1.506024,53.40514
2361.11,ALBION STREET SURGERY,-0.133965,50.827627
1.5,RIPON OOH,-1.527195,54.135436
2839.89,WIVENHOE SURGERY,0.961234,51.856059
4002.2,BRIGSTOCK & SOUTH NORWOOD PARTNERSHIP,-0.109304,51.395046
1509.38,BROOKFIELD PARK SURGERY,-0.142656,51.563724
4987.54,ALBION PLACE MEDICAL PRACTICE,0.529542,51.274206
1345.01,BROADMEAD MEDICAL CENTRE,-2.58948,51.457392
36.6,PGPA IMPROVED ACCESS CENTRAL,-1.892899,53.721064
991.55,DR SJC CLAY'S PRACTICE,-1.216618,52.72642
3204.08,WEOBLEY & STAUNTON ON WYE SURGERIES,-2.87187,52.159258
1948.4,THORNTON & VALLEY PARK SURGERY,-0.120709,51.388871
5908.88,LITTLE LONDON SURGERY,-1.979284,52.574984
2107.06,MULBERRY HOUSE SURGERY,-1.402391,50.931652
10420.15,BEDLINGTONSHIRE MED.GROUP,-1.598682,55.1322
4858.5,MILLVIEW SURGERY,-1.203958,53.144123
6.35,NDUC GP OUT OF HOURS SERVICE (OOH),-1.372186,54.879952
1528.93,COURT THORN SURGERY,-2.826247,54.801828
14453.4,COASTAL VILLAGES PRACTICE,1.685649,52.674686
1613.69,CROSTON MEDICAL CENTRE,-2.773743,53.666146
1951.51,PARK VIEW SURGERY,-0.435833,53.72979
3,MARTIN HOUSE HOSPICE,-1.344259,53.900051
1.5,COMMUNITY INTERMEDIATE CARE SERVICE,-2.455551,53.733223
8188.57,CORNERWAYS MEDICAL CENTRE,-2.85592,53.422901
2656.51,BRENTFIELD MEDICAL CENTRE,-0.260251,51.550588
49.5,SUCCESS CENTRE - MOREDON,-1.807069,51.582197
3412.82,ASHFIELD HOUSE (ANNESLEY),-1.256047,53.07651
2037.36,EASTHAMPSTEAD SURGERY,-0.753965,51.405543
319.51,ACTON TOWN MEDICAL CENTRE,-0.28217,51.50246
9584.13,ST MARY'S SURGERY,0.258109,52.398364
3269.92,SOUTHVIEW MEDICAL PRACTICE,-0.559823,51.313647
3650.82,SMA MEDICAL PRACTICE,-0.008594,51.571154
4780.37,HUMBERSTONE MEDICAL CENTRE (IP JONES),-1.089641,52.645126
2841.33,CHACEWATER HEALTH CENTRE,-5.155777,50.25596
9874.12,DR MAASSARANI & PARTNERS,-2.88656,53.495201
2137.66,UPMINSTER BRIDGE SURGERY,0.235279,51.558957
1427.84,DR DEVARAJA VC PRACTICE,0.44359,51.520015
5141.38,HENFIELD MEDICAL CENTRE,-0.275597,50.936107
3325.69,CHEDDAR MEDICAL CENTRE,-2.775544,51.274669
2493.9,BEACONSFIELD MEDICAL PRACTICE,-0.148293,50.838378
1351.25,QUEENS ROAD MEDICAL CENTRE,-0.02047,51.579799
61.6,RDASH FT COMMUNITY NURSING,-1.146558,53.497488
6020.55,STENNACK SURGERY,-5.484395,50.210854
696.58,ROCHESTER ROAD SURGERY,0.390394,51.435136
507.96,MINSTER MEDICAL CENTRE,0.793061,51.415409
1218.7,BROOKLANDS HEALTH CENTRE,-0.675657,52.044408
2759.48,WIDDRINGTON SURGERY,-1.62051,55.240248
2638.94,HARBURY SURGERY,-1.458027,52.236759
645.13,THE ALLENDALE ROAD SURGERY,-0.319827,51.551186
402.14,BEGG PRACTICE,-0.179391,51.459968
4209.03,PARKGATE SURGERY,-2.882743,53.564772
187.21,FRIMLEY PRIMARY CARE OOH,-0.742029,51.319666
49.8,LEIGH NHS WIC,-2.511455,53.503236
2467.07,ALL SAINTS SURGERY,-1.644121,52.794285
1300.22,KNOCKIN MEDICAL CENTRE,-2.993042,52.79343
3785.82,LIME GROVE MEDICAL CENTRE,-1.55303,53.139004
3234.58,DEVONSHIRE GREEN MEDICAL CENTRE,-1.477593,53.379509
8552.19,3/LOWER BROUGHTON MEDICAL PRACTICE,-2.258808,53.49359
2884.78,DR NAVIN KUMAR,0.70187,51.544989
1878.56,THE MEADOWS SURGERY,-0.53774,52.399512
313.64,MAYFAIR MEDICAL CENTRE,-0.150172,51.513536
3622.93,ST LEONARDS PRACTICE,-3.522731,50.723743
3812.73,HELSBY STREET MED/CTR,-2.576324,53.39498
10900.78,BISHOPGATE MEDICAL CENTRE,-1.676211,54.659158
7289.14,WOKINGHAM MEDICAL CENTRE,-0.831068,51.411661
7845.39,HOLYCROFT SURGERY,-1.914477,53.863828
1585.72,HOLBORN MEDICAL CENTRE,-0.118539,51.522233
1952.44,ALVERTHORPE,-1.518486,53.685476
4957.14,ROMAN ROAD HEALTH CENTRE,-2.472202,53.728431
3897.54,IVRY STREET MEDICAL PRACTICE,1.148624,52.064021
3300.46,ASHLEY CENTRE SURGERY,-0.270061,51.33244
3637.58,DOCTORS' SURGERY,-2.187672,53.55683
2619.78,DUNCHURCH SURGERY,-1.290193,52.337874
18.3,ACE LTD OOH,0.296471,51.626042
791.64,THE GREENHOUSE WALK-IN,-0.055343,51.538827
5068.65,HANDFORTH HEALTH CENTRE,-2.214647,53.347874
2972.57,ENDERBY MEDICAL CENTRE,-1.211488,52.587061
597.44,ABBEY MEDICAL CENTRE,-0.982406,51.453949
25.29,HOSPITAL AT HOME,-0.831575,51.410524
4105.97,THE GRANGE MEDICAL CENTRE,-1.458215,52.526837
5969.03,BIRCHWOOD MEDICAL PRACTICE,-0.605376,53.215749
5878.01,THE GABLES MEDICAL GROUP,-1.564429,55.140811
7451.6,THE HAMILTON PRACTICE,0.114548,51.757005
5237.72,GRAYSHOTT SURGERY,-0.745626,51.110093
4584.1,LITTLEBOROUGH GROUP PRACTICE,-2.103349,53.642995
5136.14,BROWNLOW HEALTH  @ PRINCES PARK,-2.95165,53.391535
7.5,PATHFINDER GP,-2.512253,53.504428
5304.97,CENTRAL UXBRIDGE SURGERY,-0.475739,51.546229
4.5,MEDICUS HEALTH PARTNERS-GREEN STREET,-0.044502,51.657069
4492.43,PENKRIDGE MEDICAL PRACTICE,-2.118352,52.725728
8545.89,BECCLES MEDICAL CENTRE,1.562886,52.453288
2732.14,ST JAMES MEDICAL PRACTICE2,-2.097323,52.514234
1790.21,GLADSTONE ROAD SURGERY,-0.608263,51.713308
3485.14,KEYWORTH MEDICAL PRACTICE,-1.093411,52.871477
570.86,KEELE PRACTICE,-2.273581,53.003262
7018.94,BRIDGNORTH MEDICAL PRACTICE,-2.422947,52.537874
4313.13,BENHILL & BELMONT PRACTICE,-0.19029,51.366603
6.3,CANNOCK MINOR INJURIES UNIT,-2.030614,52.693241
53.86,GP SERVICES - GP HUBS,-0.175734,51.240416
3132.83,DATCHET HEALTH CENTRE,-0.576314,51.482057
1036.08,ROOD END MEDICAL PRACTICE,-1.999691,52.494094
204.79,NEMS OOH,-1.146156,52.947802
348.82,BUCKS UTC & OOH,-0.771127,51.633345
3022.85,TUDOR HOUSE MEDICAL PRACTICE,-1.149856,52.990599
4378.38,THE ROBERT DARBISHIRE PRACTICE,-2.226177,53.454626
2947.21,WENTWORTH MEDICAL PRACTICE.,-0.187898,51.607748
3649.39,DOWNSFIELD MEDICAL CENTRE,-1.77969,52.466938
12073.88,MARYPORT HEALTH SERVICES,-3.494531,54.706432
2512.63,HOPWOOD HOUSE MEDICAL PRACTICE,-2.095467,53.542109
5576.81,LANE ENDS SURGERY,-2.727014,53.770173
896.37,TEMPLE FORTUNE MEDICAL GROUP,-0.197845,51.581101
3673.35,LYDDEN SURGERY,1.23991,51.163193
2288.9,DMC CHADWICK ROAD,-0.074257,51.467864
3642.25,MILLSTREAM MEDICAL CENTRE,-1.797547,51.071683
5094.41,HELSBY HEALTH CENTRE,-2.770522,53.270467
3416.26,DR AP KUMAR,-0.05904,53.573513
5542.91,COMMONFIELD RD SURGERY,-3.086369,53.370187
2033.08,STATION SURGERY,-2.690615,53.698033
7514.39,APPLETON VILLAGE SURGERY,-2.729552,53.371391
5179.44,CALOW AND BRIMINGTON PRACTICE,-1.396121,53.257848
5929.12,FIRTH PARK SURGERY,-1.445847,53.417523
1714.49,BOTOLPH BRIDGE COMMUNITY HEALTH CENTRE,-0.261557,52.562595
822.06,SPRINGFIELD MEDICAL PRACT,-1.859629,52.444953
5398.9,ROCK COURT SURGERY,-2.916187,53.411597
653.55,BRIGHTON STATION HEALTH CENTRE,-0.141323,50.827937
3008.54,VILLAGE SURGERY,-0.350376,51.023691
2019.05,STUBLEY MEDICAL CENTRE,-1.488541,53.304986
5813.56,NEWTON HEATH MEDICAL CENTRE,-2.181199,53.500995
1904.16,NORTHWAY MEDICAL CENTRE,-2.130997,52.548105
17.1,DR ST GEORGES MIU/OOH,-1.532085,53.747855
1014.25,SHREEJI MEDICAL CENTRE,-0.606689,51.518363
490,KIYANI MEDICAL PRACTICE,0.0021,51.555415
6402.39,TONBRIDGE MEDICAL GROUP,0.275507,51.185826
1515.9,DERBYSHIRE ROAD SOUTH SURGERY,-2.310144,53.416957
4466.15,RITCHIE STREET GROUP PRACTICE,-0.107858,51.53474
3712.6,CENTRAL SURGERY - SOUTHCHURCH BLVD,0.739537,51.54219
11122.93,FOREST MEDICAL,-1.205754,53.14969
1536.46,CATHERINE HOUSE SURGERY,-3.683479,50.429832
5149.65,EAST LEAKE MEDICAL GROUP,-1.177129,52.83403
3591.86,PENDLE VIEW MEDICAL CTRE,-2.232263,53.826018
878.28,GREYSTONES MEDICAL CENTRE,-1.510002,53.363853
3875.49,KING EDWARD ROAD SURGERY,-0.866422,52.242766
1234.43,BOUNDARY COURT SURGERY,-0.059836,51.623784
69.03,THANET INTEGRATED ACUTE RESPONSE,1.387926,51.377178
843.72,BLAYDON GP LED PRACTICE,-1.696266,54.958098
3207.74,SHEERNESS HEALTH CENTRE,0.766639,51.436119
4266.65,ALCONBURY SURGERY,-0.256797,52.371699
4274.63,ORCHARD SURGERY MELBOURN,0.020092,52.080651
8760.24,NUNWELL SURGERY,-2.507177,52.187931
636.53,SOMERSET FHP O,-0.369034,51.523141
9207.01,DR L FREEMAN & PARTNERS,-1.449442,53.752493
2668.7,THE BASSINGHAM SURGERY,-0.636987,53.126641
3453.04,LONGLEVENS SURGERY,-2.212032,51.875911
2391.97,NANTWICH HEALTH CENTRE,-2.518506,53.068155
2702,ESTOVER SURGERY,-4.0952,50.411271
4626.29,SUNNY MEED SURGERY,-0.551243,51.315439
3299.39,SEA MILLS SURGERY,-2.649928,51.484587
2562.91,THE SYMONDS GREEN HEALTH CENTRE,-0.22159,51.91302
3193.8,RIDGE GREEN MEDICAL PRACTICE,-1.836242,51.567683
4.5,H&R P C SPECIAL SCHEME,0.578137,50.857944
3150.19,BALMORAL GARDENS,0.547786,51.385637
13133.26,STONYHILL MEDICAL PRACTICE,-3.047383,53.781401
9158.75,FURLONG MEDICAL CENTRE,-2.208139,53.063325
815.21,THE SURGERY (BARRETTS GROVE),-0.078285,51.5522
1590.32,STILLINGTON SURGERY,-1.108927,54.103615
5554.26,BARNARD CASTLE SURGERY,-1.916153,54.545708
3441.44,CROSSROADS MEDICAL PRACTICE,-0.587134,53.183432
2336.57,PRINCES MEDICAL CENTRE,-0.359925,53.753343
3984.73,TWYFORD SURGERY,-0.862762,51.481804
24,PML NEIGHBOURHOOD HUB (BANBURY),-1.349027,52.057771
1039.03,HIGHTOWN VILLAGE SURGERY,-3.058369,53.530081
16030.53,BURNLEY GROUP PRACTICE,-2.238948,53.791326
4841.68,BARBOURNE HEALTH CENTRE,-2.224952,52.208752
22.97,GRANTHAM OOH,-0.640714,52.921087
84.01,NHS SOUTH CHESHIRE CCG NMP'S,-2.45397,53.098813
1659.18,SUDBURY & ALPERTON MEDICAL CENTRE,-0.298046,51.536916
2338.79,THORNS ROAD SURGERY,-2.109345,52.472042
1168.48,ALDERSBROOK MEDICAL CENTRE,0.038356,51.560671
3150.43,QUARRY BANK MEDICAL CENTRE,-2.102402,52.471845
1399.12,OLD SCHOOL SURGERY,0.535827,51.09887
1234.78,GROBY SURGERY,-1.225017,52.661865
1866.16,HIGH STREET MEDICAL CENTRE,-2.282777,51.747097
1482.46,MEVAGISSEY SURGERY,-4.788601,50.270644
313.65,BRISDOC HEALTHCARE SERVICES OOH,-2.596274,51.428746
1435.41,REGENCY SURGERY,-0.136165,50.82196
1976.07,THE SLIEVE SURGERY,-1.927168,52.520008
9485.69,KING'S MEDICAL PRACTICE,-1.419613,53.700643
11930.51,EASTWOOD PRIMARY CARE CENTRE,-1.307753,53.016064
10708.83,TODMORDEN GROUP PRACTICE,-2.092159,53.713651
3953.58,THE ALMONDBURY SURGERY,-1.751311,53.631868
39.3,ST CHARLES UCC CENTRE WIC,-0.217218,51.522362
1951.63,MARPLE BRIDGE SURGERY,-2.053323,53.400594
6289.37,STRAND MEDICAL GROUP,-0.41094,50.818463
6833.94,THORNTON MEDICAL CENTRE,-1.576209,53.791908
2755.6,CHEVELEY PARK MEDICAL CTR,-1.525818,54.7856
4173.91,THE RED PRACTICE WALTON,-0.406024,51.380924
2653.18,HIGH STREET SURGERY,-0.037483,51.708474
1816.36,THE INGHAM SURGERY,-0.57717,53.336945
2584.9,SADDLERS HEALTH CENTRE,-1.979464,52.587684
30.3,NSC BOSWORTH HUB,-1.753633,52.480569
8282.86,THE GLEN MEDICAL GROUP,-1.52187,54.97385
2444.83,HILLINGDON HEALTH CENTRE,-0.448053,51.551621
3131.56,BROCKWORTH SURGERY,-2.156696,51.844575
7.5,WATERLOOVILLE GP EXTENDED ACCESS HUB,-1.033601,50.891899
144.17,DMC SHEPPEY-W.I. CLINIC,0.793061,51.415409
2393.22,GRANGE ROAD MEDICAL PRACTICE,-1.763413,54.972384
11121.75,WESTERHOPE MEDICAL GROUP,-1.686811,54.997777
36.4,MODALITY AWC EXTENDED ACCESS,-1.889371,53.858954
2666.38,BROUGHTON HOUSE SURGERY,-1.636312,53.713801
1887.02,WESTCROFT HEALTH CENTRE,-0.795699,52.006367
7391.96,THE WALL HOUSE SURGERY,-0.208192,51.241304
7870.32,THE DUNSTAN PARTNERSHIP,-2.384279,53.582354
4080.35,ODIHAM HEALTH CENTRE,-0.94103,51.254544
341.49,SHAKESPEARE WIC,-1.525196,53.802098
1664.84,CENTRAL CLINIC,-2.075775,52.507977
2643.62,ROYAL ARSENAL MEDICAL CENTRE,0.073476,51.493492
8527.99,HEACHAM GROUP PRACTICE,0.491184,52.90988
3858.79,OLD ROAD WEST SURGERY,0.367195,51.433655
5551.41,LONG CATLIS ROAD SURGERY,0.595579,51.348325
15358.14,THE GRANGE MEDICAL CENTRE,-1.354248,53.611836
2931.57,CHASE CROSS MEDICAL CENTRE,0.164796,51.600118
26041.8,PRIORY MEDICAL GROUP,-1.129435,53.949388
39.67,DODDINGTON LUCS,0.058102,52.497587
3954.83,BEECHWOOD SURGERY,0.292731,51.608567
4442.42,ST GEORGE'S MEDICAL CENTRE,-2.189031,53.509666
3173.48,YORK ROAD SURGERY,-1.348576,53.435091
16114.69,SOUTH GRANGE MEDICAL GROUP PRACTICE,-1.166506,54.569955
1636.65,ASHCROFT SURGERY,-0.71666,51.898041
7645.51,WESTBOURNE MEDICAL CENTRE,-1.90343,50.723515
3409.35,EAST BARNET HEALTH CENTRE,-0.166424,51.646339
10791.51,LITCHDON MEDICAL CENTRE,-4.041711,51.069586
1202.73,OPEN DOOR,-0.068703,53.572249
9011.76,SALFORD PRIMARY CARE TOGETHER,-2.423902,53.529872
2142.8,GROVE HILL MEDICAL CENTRE,-0.457357,51.772315
479.16,HOUNSLOW FAMILY PRACTICE,-0.366799,51.471773
591.78,HILLTOP MEDICAL PRACTICE,-0.263604,51.542472
6450.22,FRIARY HOUSE SURGERY,-4.128292,50.37266
5716.12,MYTHE MEDICAL PRACTICE,-2.153433,51.99229
16135.51,WILLIAM BROWN CENTRE,-1.33142,54.757994
284.82,UNIVERSITY HEALTH SERVICE HEALTH CENTRE,-1.482709,53.380323
5197.25,HT PRACTICE,-2.110496,53.478305
2099.78,BARNT GREEN SURGERY,-1.991028,52.35999
1926.2,NEASDEN MEDICAL CENTRE,-0.247382,51.559667
2283.1,LANGLEY MEDICAL PRACTICE,-0.299929,51.390825
5150.23,BILLINGSHURST SURGERY,-0.445798,51.024981
4268.65,DROYLSDEN RD FAMILY PRACTICE,-2.175662,53.499916
4123.07,GADE SURGERY,-0.481406,51.636736
2194.68,FERRY ROAD HEALTH CENTRE,0.728076,50.951404
2603.03,SPRING HOUSE SURGERY,-2.463553,53.588374
7157.66,WELL CLOSE MEDICAL GROUP,-2.006127,55.772458
4987.2,PROSPECT SURGERY,-1.235397,54.575047
220.1,BEECHCARE & PGU,0.25484,51.420223
3,REDDITCH & BROMSGROVE COMMUNITY NURSES,-2.055662,52.344136
3,ST HELENS OUT OF HOSPITAL SERVICE,-2.723398,53.418906
4084.01,THE TOLLERFORD PRACTICE,-2.571586,50.778924
4561.32,DENMARK ROAD MEDICAL CENTRE,-1.876102,50.747031
1356.39,WEST GREEN ROAD SURGERY,-0.092209,51.58587
6674.26,SPINNEY BROOK MEDICAL CENTRE,-0.614041,52.32438
2990.96,EVERSLEY MEDICAL CENTRE,-0.111913,51.388514
1987.4,LANGSTONE WAY SURGERY,-0.210815,51.606981
9802.41,BEECH HILL MEDICAL PRACTICE,-2.644352,53.555654
4376.05,BELLEVUE MEDICAL CENTRE,-1.900852,52.465393
2517.11,ILKESTON HEALTH CENTRE,-1.308041,52.968251
1020.47,ALEXANDRA MEDICAL CENTRE,-2.063026,52.454036
9103.98,THE ARNEWOOD PRACTICE MILTON MEDICAL CEN,-1.657992,50.756444
1707.32,KENNETH MACRAE MED CENTRE,-2.786435,53.49903
1121.53,STANLEY CORNER MEDICAL CENTRE,-0.296619,51.544251
987.45,SOUTH NORWOOD HILL MEDICAL CENTRE,-0.080772,51.403169
1917.7,GREENWICH PENINSULA,0.012038,51.493258
7.5,DCHS DERBY CITY,-1.441882,53.221288
12866.91,FROME MEDICAL CENTRE,-2.311568,51.237318
12423.5,ROYAL MANOR HEALTH CARE,-2.437275,50.544008
13543.15,EXCEL PRIMARY CARE,-2.758901,53.538343
10687.95,BARTON SURGERY,-3.473818,50.579848
3602.85,BAMPTON SURGERY,-1.55034,51.729032
22.69,HASTINGS AND ROTHER OOH,0.891514,51.129106
1105.49,SCOTT PARK SURGERY,0.669733,51.571078
4.5,LOCAL PRIMARY CARE EAST/WEST SPOKE,-2.486748,53.750552
5851.94,WITTON MEDICAL CENTRE,-2.507553,53.740232
2750.74,THE PRACTICE ALBERT ROAD,0.053108,51.501557
5886.28,CORNERSTONE PRACTICE,0.091322,52.548858
218.26,KINGSTON PRIMARY CARE EXTENDED SERVICE,-0.304894,51.414188
2036.14,THE CHURCH VIEW PRACTICE,0.609995,51.363412
5546.16,HAYDOCK MEDICAL CENTRE,-2.656554,53.468334
65.1,BRACKNELL URGENT CARE CENTRE WIC,-0.735982,51.413263
84.84,COMMUNITY MATRONS,-2.095555,52.599722
7103.91,THE OAKS MEDICAL CENTRE,-1.895827,52.552454
6659.95,EAST NORWICH MEDICAL PARTNERSHIP,1.337135,52.637255
15119.86,TOWER FAMILY HEALTHCARE,-2.341432,53.614725
2362.88,THE MILLER PRACTICE,-0.092165,51.551419
8850.55,DRUID GROUP,-1.942009,52.486277
3865.71,FRONT STREET SURGERY,-1.126923,53.954403
640.99,FULHAM CROSS MEDICAL CENTRE,-0.214067,51.482774
234.81,GREAT HARWOOD SURGERY,-2.414211,53.768459
5128.52,CASTLECROFT MEDICAL PRACTICE,-2.189808,52.57877
4965.82,BRIERCLIFFE SURGERY,-2.212859,53.810388
8436.34,THATCHAM HEALTH CENTRE,-1.262387,51.404018
4080.43,WATLINGTON MEDICAL CENTRE,0.391163,52.666799
4316.54,THE ROSEBERRY PRACTICE,-1.292215,54.611726
4491.59,ASPULL SURGERY,-2.586036,53.569599
4457.66,GRESLEYDALE HEALTHCARE CENTRE,-1.576841,52.760758
5903.53,WINCOBANK MEDICAL CENTRE,-1.416316,53.419405
2887.74,THE WRAGBY SURGERY,-0.301337,53.287948
2397.46,ROYAL DOCKS MEDICAL PRACTICE,0.062932,51.50946
1851.33,ALVELEY MEDICAL PRACTICE,-2.353309,52.454738
517.16,ST WERBURGH'S MEDICAL PRACTICE HOMELESS,-2.890684,53.194463
12335.01,LISTER MEDICAL CENTRE,0.090365,51.754515
5078.54,STURRY SURGERY,1.130308,51.304473
6222.07,PUTNOE MEDICAL CENTRE PARTNERSHIP,-0.438308,52.147939
5550.39,BURVILL HOUSE SURGERY,-0.22721,51.761302
3035.31,PRIORS FIELD SURGERY,0.124169,52.388951
5573.3,AXMINSTER MEDICAL PRACTICE,-2.999226,50.780899
6863,CENTRAL PARK MEDICAL CENTRE,-3.045864,53.415672
2037.26,MALTHOUSE MEADOWS SURGERY,-2.568038,50.668698
3009.2,THE SPRINGFIELD SURGERY (BINGLEY),-1.827829,53.846937
3093.25,HOOK SURGERY,-0.312059,51.359148
1248.88,NT&H COMM RESP N,-1.227837,54.702398
2152.47,BHARANI MEDICAL CENTRE,-0.647828,51.520652
4397.74,DR LONGFIELD AND PARTNERS,-0.759425,52.997585
18.95,IC24-CANTERBURY CCG-OOH,0.891514,51.129106
7664.35,SANDY LANE SURGERY,-2.694715,53.689488
678.68,HATTON MEDICAL PRACTICE,-0.433285,51.457879
1518.79,BECKETT HOUSE PRACTICE,-0.123521,51.469491
627.17,HINDON SURGERY,-2.130793,51.095814
3451.09,THE RANGE MEDICAL CENTRE,-2.257066,53.452309
2977.91,MARSHALLS ROAD SURGERY,-0.539225,52.344743
3080.45,ARDINGLY COURT SURGERY,-0.132888,50.82118
2665.3,HUNTINGDON ROAD SURGERY,0.11009,52.214035
3723.26,WICKHAM MARKET MEDICAL CENTRE,1.363674,52.151842
1227.75,STRETTON MEDICAL CENTRE,-2.577017,53.339489
422.58,DR U AKBAR,-1.777945,53.803569
5208.47,WIGTON GROUP MEDICAL PRACTICE,-3.159002,54.820303
3,EXTENDED ACCESS PCD LAKESIDE PRACTICE,-1.148909,53.615496
536.98,YARDLEY MEDICAL CENTRE,-1.828397,52.463189
3187.28,PENN MANOR MEDICAL PRACTICE,-2.14981,52.559823
658.3,THE PRACTICE COLLEGE ROAD,-0.539824,51.322572
7656.56,MERIDIAN SURGERY,-0.000811,50.796102
5368.75,HOMESTEAD,-1.518747,53.68227
1079.41,ALLENBY CLINIC,-0.376261,51.531514
418.4,BSW IUC OOH,-2.122946,51.473348
9231.63,WELLINGTON MEDICAL PRACTICE,-2.514204,52.699878
367.55,NARBOROUGH ROAD SURGERY,-1.153521,52.624383
5092.94,LAMBGATES HEALTH CENTRE,-1.970153,53.463477
11332.87,THE DEEPINGS PRACTICE,-0.316194,52.683726
4252.5,MIDWAY SURGERY,-0.355421,51.733852
3310.09,SOOD (THE GREEN & FIR ROAD),-0.340635,51.443826
1543.31,THE LINDLEY VILLAGE SURG.,-1.82571,53.661331
4244.5,HIGH OAK SURGERY,-2.13113,52.500707
2482.91,WESTWOOD PRIMARY CARE CENTRE,-1.110806,53.296468
12.22,NHS FYLDE & WYRE CCG,-2.881037,53.789498
3589.95,POTTERIES MEDICAL CENTRE,-2.136838,53.020074
1904.43,THE OLD COLE HOUSE PRACTICE,-1.475043,52.477262
4514.36,SOUTHWAY SURGERY,-4.133237,50.427678
5788.95,GUARDIAN STREET MED/CTR,-2.606297,53.391901
1840.03,BRANDON STREET SURGERY,-1.122261,52.648042
1.5,M & A LTC PALLIATIVE CARE NURSE,-1.238124,52.98146
6581.73,HIGH PASTURES SURGERY,-2.946534,53.519395
5575.82,PLANE TREES GROUP PRACTICE,-1.894437,53.730448
1712.96,MICKLEOVER SURGERY,-1.53732,52.907481
5150.74,CROCUS MEDICAL PRACTICE,0.238729,52.025067
2324.58,ASH SURGERY,1.27891,51.279887
1559.1,DELTA HEALTHCARE,-0.292835,53.764281
2864.3,SWANWOOD PARTNERSHIP,0.519034,51.613356
3391.17,BROOK GREEN MEDICAL CENTRE,-0.220945,51.495163
7502.73,WHADDON MEDICAL CENTRE,-0.766276,52.000308
141.62,KINGS HEALTH & LINGS BROOK PRACTICE,-0.922279,52.256829
3022.42,THE NEW BREWERY LANE SURG,-1.636835,53.67243
1828.36,GROVE SURGERY,-0.01097,51.579197
2439.59,CRESSEX HEALTH CENTRE,-0.778801,51.617114
1151.93,DR SATHANANDANS PRACTICE,0.650261,51.555142
694.91,THE PRACTICE SURGERIES LTD,-0.099109,51.370492
6611.63,ST JOHNS MEDICAL CENTRE,-2.352158,53.38672
28.5,NORTH SATELLITE UNIT,-1.487911,53.42172
8266.66,UNDERCLIFFE SURGERY,-1.67818,53.707224
765,ST LUKE'S SURGERY,-0.0358,50.8023
4518.29,DR ARORA RK,-1.997982,52.516003
4773.66,ODDFELLOWS HALL & ST CLEMENTS,0.327906,51.480703
3108.04,SPINNEY SURGERY,-0.077762,52.33533
10.97,ACUTE GP REFERRAL SERVICE,-4.113684,50.41672
3927.91,WARWICK ROAD SURGERY,-2.928541,54.893858
3281.75,THE PETWORTH SURGERY,-0.607135,50.983365
3465.6,SLEIGHTS AND SANDSEND MEDICAL PRACTICE,-0.659645,54.452005
3597.51,WIDE WAY MEDICAL CENTRE,-0.134454,51.401824
7.5,ARUN MIAMI GP ACCESS HUB,-0.531673,50.808759
5038.51,RIVER LODGE SURGERY,0.018818,50.874836
6714.97,CLOVER GROUP PRACTICE,-1.40885,53.384843
1987.39,WOODBANK SURGERY,-2.308802,53.60507
9617.07,CRUDDAS PARK SURGERY,-1.630965,54.968173
2308.37,OAKHILL MEDICAL PRACTICE,-1.458311,53.305662
6590.9,PARK PRACTICE,0.277898,50.794441
4399,HAZELDENE HOUSE SURGERY,-2.004496,52.800688
2244.73,DR. MASTERTON'S SURGERY,-0.130137,51.430487
6474.38,KINGS NORTON SURGERY,-1.930753,52.404588
831.36,NASEBY MEDICAL CENTRE,-1.844953,52.489175
1128.93,YEADING COURT SURGERY,-0.40009,51.528299
1611.93,PRIME PRACTICE PARTNERSHIP,0.152111,51.535187
281.49,ADULT COMMUNITY NURSING,-0.086794,51.503466
985.03,HEADSTONE ROAD SURGERY,-0.340912,51.583768
4143.4,OAKLANDS SURGERY,-2.617414,50.954243
2111.11,BELSIZE PRIORY MEDICAL PRACTICE (GROUP),-0.188014,51.539773
242.38,DR SKS SWEDAN,0.024864,51.550554
4.5,MEDWAY PRACTICES ALLIANCE (MPA),0.546037,51.326929
4838.54,CASTLE HEALTHCARE PRACTICE,-1.144908,52.930476
1522.66,MONTPELIER SURGERY,-0.149079,50.827148
57.28,SOUTH SEFTON GP EXTRA SERVICE,-3.002733,53.472727
57.09,THE TOWN SURGERY,-0.378104,51.512512
3513,EVERGREEN OAK SURGERY,-1.958467,50.723629
5885.27,DR JK MARSDEN'S PRACTICE,-0.436528,51.894968
3359.34,CEDAR BROOK PRACTICE,-0.414132,51.534092
3705.65,SOLWAY HEALTH SERVICES,-3.551342,54.642687
12879.44,ALMA MEDICAL CENTRE,-1.317648,54.56949
2900.4,COLLINGHAM CHURCH VIEW SURGERY,-1.408994,53.908099
2732.5,INTRAHEALTH PLATT BRIDGE,-2.595925,53.522279
4.67,JOHN TAYLOR HOSPICE,-1.823564,52.527352
6980.65,MERCHISTON SURGERY,-1.749007,51.587527
1519.25,THE BROOK SURGERY,-1.871333,52.462659
2293.01,THE YELLOW PRACTICE,-0.406024,51.380924
2329.47,BROKEN CROSS SURGERY,-2.12262,53.257964
7451.81,WARLEY MEDICAL CENTRE,-2.006757,52.468122
388.28,ROTH. NHS FT COMM. SERV,-1.358666,53.434741
479.87,GOVIND HEALTH CENTRE,-1.532784,52.400277
840.77,WILLIAM HARVEY SURGERY,0.597963,51.593347
2188.08,TRI-LINKS MEDICAL PRACTICE,-1.664038,52.634849
7.8,OLDHAM 7 DAY ACCESS HUB3 OOH,-2.156747,53.509855
1618.99,THE SURGERY FODEN STREET,-2.188242,52.997045
1141.43,MAYTREES MEDICAL PRACTICE,-2.563371,51.470243
2862.22,APPLEBY MEDICAL PRACTICE,-2.492993,54.578082
7690.7,CENTRAL GATESHEAD MEDICAL GROUP,-1.604307,54.956479
3507.98,TORRIDON ROAD MEDICAL PRACTICE,-0.002112,51.44011
1767.08,THE WHITE HOUSE SURGERY,0.088164,51.534004
3817.03,BIRCHES HEAD MEDICAL CTR.,-2.154096,53.035667
19487.52,HAXBY GROUP PRACTICE,-1.081866,54.019329
1750.35,VALE DRIVE MEDICAL PRACTICE,-0.194727,51.648828
4900.65,THE ERIC MOORE PARTNERSHIP,-2.59716,53.393404
1500.87,DR DP SHAH'S PRACTICE,0.160037,51.545122
2702.82,PRESCOTT SURGERY,-2.852689,52.784345
6018.47,DR AHMAD & PTNRS,-2.595925,53.522279
656.82,HORNE STREET SURGERY,-1.871717,53.725678
314.5,COMMUNITY COPD SERVICES,-1.508005,52.413401
5480.34,CHISLEHURST MEDICAL PRACTICE,0.066938,51.419678
5000.14,THE REDWELL MEDICAL CENTRE,-0.701555,52.314792
7301.76,THE ALDERGATE MED.PRACT.,-1.695644,52.639079
6867.14,POCKLINGTON GROUP PRACTICE,-0.781336,53.924503
9465.9,LOCKFIELD SURGERY,-2.057135,52.585445
464.56,DR SOOD'S PRACTICE,-0.382386,51.483967
4708.9,MOUNT FARM SURGERY,0.742641,52.245214
10047.86,VALENTINE HEALTH PARTNERSHIP,0.061519,51.49221
1716.45,DR AHMED & PARTNERS,-1.782551,53.655615
1616.15,NORTH CHELMSFORD NHS HCC,0.510815,51.750584
4571.06,THE OAKWOOD SURGERY,-1.073937,53.506609
8195.97,CENTRE PRACTICE,-1.17634,50.853776
5050.7,MORETON HEALTH CLINIC,-3.112556,53.400453
5123.23,JUBILEE STREET PRACTICE,-0.050552,51.513595
4540.32,HIGH STREET MEDICAL CENTRE,-2.595495,53.47988
2208.14,DERWENT MEDICAL CENTRE,-1.480751,52.929325
395.92,BARDOC GP OOH,-2.427769,53.590447
4321.16,SHEEPCOT MEDICAL CENTRE,-0.412898,51.695192
3616.43,DEER PARK FAMILY MEDICAL PRACTICE,-1.230829,52.949242
6966.58,THE MEDICAL CENTRE  DRIFFIELD,-0.439676,54.006257
1622.56,THE NEW SURGERY,-0.235578,51.506058
3138.47,LAMBETH WALK GROUP PRACTICE,-0.112591,51.495609
1417.7,LEANDER ROAD SURGERY,-0.117457,51.399457
3862.15,CHELSFIELD SURGERY,0.104017,51.355726
5792.16,CANFORD HEATH GROUP PRACT,-1.964765,50.741327
6550.57,YAXLEY GROUP PRACTICE,-0.251101,52.516866
2548.56,BOLTON MEDICAL CENTRE,-2.431399,53.56543
168.54,CORNWALL 111 OOH,-5.097984,50.265937
3640.02,TEMPLE HOUSE PRACTICE,-2.498229,51.409833
1501.5,THE CRANE,0.535827,51.09887
28.8,EAST HULL FAMILY PRACTICE,-0.268619,53.77908
7647.42,MANOR HOUSE LANE SURGERY,-1.802707,52.461306
3448.96,BRIDGE STREET SURGERY,-0.495121,53.551684
1748.93,MELROSE SURGERY,-1.287301,54.609397
1524.64,MEDICAL CENTRE CAMELFORD (DR GARROD),-4.676789,50.624027
5682.94,MACKLIN STREET SURGERY,-1.481767,52.92115
6614.7,POLDEN MEDICAL PRACTICE,-2.87579,51.150216
28.5,RUNCORN GP EXTRA,-2.727045,53.331865
5420.5,LIMES MEDICAL CENTRE,-1.387885,53.098493
151.62,WASHWOOD HEATH URGENT CARE CENTRE,-1.849921,52.487617
8250.26,ABBEY MEADS MEDICAL PRACT,-1.792794,51.597826
9464.5,CHEVIOT ROAD SURGERY,-1.455974,50.921365
43.82,CRISIS RESPONSE TEAM,-2.186902,53.52264
9178.55,ST NEOTS SURGERY,-4.160899,50.387979
13.8,NEWARK ACUTE HOME VISITING SERVICE,-1.238124,52.98146
1187,SHEERWATER HEALTH CENTRE,-0.530722,51.334156
5474.5,LIQUORPOND SURGERY,-0.025925,52.9735
2955.66,FORDINGTON SURGERY,-2.42746,50.713004
12412.24,SHAFTESBURY MEDICAL CTR.,-1.497858,53.800234
2168.39,BURNSIDE SURGERY,-2.424635,53.592518
3860.64,HIGHGROVE SURGERY,0.098727,51.538564
3401.93,MEDICENTRE,-2.643055,53.494018
1884.3,MARKET OVERTON & SOMERBY SURGERIES,-0.684769,52.739345
3298.38,RICHMOND MEDICAL CENTRE,-2.384874,53.752328
1407.76,TWIN OAKS MEDICAL CENTRE,-1.737739,50.781308
3463.03,STONELEIGH SURGERY,-2.770704,54.227277
5451.19,WESTMINSTER MEDICAL CENTRE,-2.97836,53.44083
1824.49,DESFORD MEDICAL CENTRE,-1.296116,52.627473
2698.47,WILMSLOW HEALTH CENTRE,-2.237324,53.322922
5273.23,MANOR FARM MEDICAL CENTRE,0.690513,52.648544
7631.63,RAVENSWOOD MEDICAL PRACTICE,1.199377,52.030367
3706.85,CHESSINGTON PARK SURGERY,-0.312059,51.359148
62.29,ASHTON  LEIGH & WIGAN OOH,-2.614585,53.534922
6594.11,DR SINHA & PARTNERS,0.100204,53.030138
1809.48,ROSEWORTH SURGERY,-1.61867,55.001366
2936.97,THORPE HESLEY SURGERY,-1.432602,53.458647
1825.01,BANK HOUSE SURGERY,0.069949,51.359218
3488.41,STATION ROAD SURGERY,0.102029,51.431445
6004.84,ADDISON HOUSE - HAQUE PRACTICE,0.088979,51.770891
2371,CALDBECK SURGERY,-3.050622,54.749864
91.92,NON MEDICAL PRESCRIBERS,-0.801989,51.797983
2871.28,AWBURN HOUSE MEDICAL PRACTICE,-2.011,53.458105
43.36,IC24-ASHFORD CCG-OOH,0.891514,51.129106
1608.13,DR COLLINS AND CARRAGHER,-0.311771,52.006602
7457.33,MOUNT CHAMBERS MEDICAL PRACTICE,0.552722,51.879812
78.44,DR A K JHA (SH),-2.164492,53.856587
1766.81,HOWELL SURGERY,0.398895,51.150874
134.83,SOUTHAMPTON PRIMARY CARE HUBS,-1.317099,50.913217
30.3,EDGWARE WIC,-0.271242,51.606493
1723.29,THE MUSWELL HILL PRACTICE,-0.141215,51.59225
2527.31,THE BARKANTINE PRACTICE,-0.025725,51.500806
4499.59,ABBEY ROAD SURGERY,-3.224778,54.109942
4360.13,MANOR PRIMARY CARE,-2.764643,53.549695
46.64,7 DAY ACCESS MIDDLETON HC,-2.172588,53.54895
3888.65,CONSTABLE COUNTRY RURAL MEDICAL PRACTICE,1.026191,51.977179
4099.47,BEECH HOUSE MEDICAL PRACT,-2.118146,53.379406
10286.05,COQUET MEDICAL GROUP,-1.580504,55.332599
7022.84,WARLINGHAM GREEN MED PRAC,-0.057218,51.312278
7424.6,THE MANOR HOUSE SURGERY,-1.159231,54.557403
2822.39,THE SURGERY - 48 MULGRAVE ROAD,-0.196293,51.358332
2027.83,WEST TOWN SURGERY,-0.443862,53.685751
1274.4,HOLLINGTON SURGERY,0.872487,51.151423
3108.56,WAKE GREEN SURGERY,-1.883357,52.446103
69,CROYDON SOUTH & CENTRAL EXTENDED ACCESS,-0.114466,51.34074
2067.87,MEDICAL CENTRE CAMELFORD (DR NASH),-4.676789,50.624027
2011.04,FALLODON WAY MEDICAL CENTRE,-2.609541,51.483068
4105.1,HIGHCROFT SURGERY,-1.12882,53.00411
1805.11,RIVERSIDE FAMILY PRACTICE,-2.238948,53.791326
3800.32,DALTON SURGERY,-1.751038,53.644598
915.23,HOUNSLOW MEDICAL CENTRE,-0.37684,51.469395
5072.49,THE CEDARS SURGERY,0.173742,51.395873
940.4,KINCORA DOCTORS SURGERY,-0.412216,51.511666
4473.16,LARKSFIELD SURGERY MEDICAL PARTNERSHIP,-0.235113,52.017132
6193.89,SPRING TERRACE HEALTH CENTRE,-1.450673,55.010941
73.8,MIAMI CLINIC - ST LAWRENCE SURGERY,-0.390026,50.823979
4180.18,NORTHGATE VILLAGE SURGERY,-2.892972,53.195093
2044.89,CROSLAND MOOR SURGERY,-1.809637,53.63841
4628.61,HARCOURT MEDICAL CENTRE,-1.800762,51.067489
19654.61,PEMBROKE MEDICAL GROUP,-3.560246,50.445527
1049.05,HORNDON-ON-THE-HILL SURGERY,0.405746,51.523749
3498.5,AELFGAR SURGERY,-1.937701,52.763581
6934.22,ORCHARD MEDICAL CENTRE,-2.510659,51.462087
4878.04,WEST END SURGERY,-1.327291,50.928501
2704.36,LAKESIDE,-2.203683,52.595468
1993.05,CHURCH END MEDICAL CENTRE,-0.253241,51.54757
3210.34,WILLIAM FISHER MED.CTR.,0.826913,51.662819
6585.33,GREAT BRIDGE P/SHIP FOR HEALTH,-2.032577,52.528908
6.6,TORBAY NMP SPECIALIST,-3.552785,50.48778
4032.76,THE REYNARD SURGERY,0.484029,52.302685
3,MYDDLETON ROAD SURGERY,-0.115662,51.606554
4731.42,ENDERLEY ROAD MEDICAL CENTRE,-0.340469,51.601872
9118.58,THE GRANGE GROUP PRACTICE,-1.781351,53.662292
2865.79,ELIZABETH AVENUE GROUP PRACTICE,-0.091905,51.539023
1249.12,ECCLES GATEWAY MEDICAL CENTRE,-2.339314,53.48253
55,NORTHVILLE FAMILY PRACTICE,-2.570103,51.50079
4726.39,HALESOWEN MEDICAL PRACTICE,-2.059137,52.444056
2784.86,HIGHERLAND SURGERY,-2.232632,53.009021
8808.31,FAILSWORTH GROUP PRACTICE,-2.156747,53.509855
3453.36,FELDON LANE PRACTICE,-2.028271,52.467325
4062.86,DRS CHALMERS & MEIER,-0.066189,53.557292
3572.04,PRICES MILL SURGERY,-2.224938,51.693801
422.62,PELC REDBRIDGE OOH,0.066648,51.55684
1014.78,SAXENA L,-2.668958,53.521291
2049.09,CRADLEY SURGERY,-2.402119,52.118284
9949.02,LORDSWOOD HOUSE GROUP MEDICAL PRACTICE,-1.961221,52.459054
4133.26,STOCKTON HEATH MED.CENTRE,-2.582161,53.37195
5745.06,CENTRAL SURGERY,-2.74261,53.456686
2479.25,CROSBY HOUSE SURGERY,-0.599437,51.517962
278.57,GLOUCESTER ROAD SURGERY,-0.183052,51.647272
6252.97,THREE VILLAGES MEDICAL PRACTICE,-2.146398,52.465406
137.06,MEDICUS HEALTH PARTNERS-MOORFIELD ROAD,-0.047082,51.660296
3747.58,SWANSWELL MEDICAL CENTRE,-1.816529,52.432515
2426.45,TOOTING SOUTH MEDICAL CENTRE,-0.161461,51.421738
5310.64,STAPENHILL MEDICAL CENTRE,-1.624908,52.785524
4671.9,DENMEAD HEALTH CENTRE,-1.067347,50.904386
1369.14,SOUTH PARK MEDICAL PRACTICE,0.189702,51.270005
12367.49,AW SURGERIES,-2.122432,52.482313
2035.45,WAYSIDE MEDICAL PRACTICE,-0.165912,51.173238
33.52,SOUTH HORNCHURCH WALK IN CENTRE,0.192085,51.533441
5061.29,COTSWOLD MEDICAL PRACTICE,-1.75678,51.886317
6401.99,MOUNT PLEASANT MED CENTRE,-1.637294,53.707036
879.63,THE LORDSHIP LANE SURGERY,-0.073221,51.448369
8528.17,NEASHAM ROAD SURGERY,-1.542648,54.517256
5573.19,SWINESHEAD SURGERY,-0.158921,52.940616
6241.44,KING GEORGE SURGERY,-0.206096,51.907416
3397.78,MAWBEY GROUP PRACTICE,-0.125232,51.479283
4796.91,THE KAKOTY PRACTICE,-1.473444,53.5464
6735.55,NEW SOUTHGATE SURGERY,-1.50415,53.692762
3065.58,HALDON HOUSE SURGERY,-3.416301,50.619764
4400.52,MARKFIELD MEDICAL CENTRE,-1.272985,52.685255
6439.73,THE ROCKWELL AND WROSE PRACTICE,-1.744408,53.822997
2204.42,ASHLEY SURGERY,-2.355514,52.925782
274.8,ROSSLYN HILL SURGERY,-0.170852,51.554201
1183.34,CHILDS (THAMESIDE),-0.326599,51.427449
5666.62,THE GROUP PRACTICE ALFRED SQUIRE ROAD,-2.080754,52.599417
4682.27,DR M ASLAM'S PRACTICE,0.510532,51.57811
1.5,GAINSEA,-0.780581,53.411776
1766.16,NORTHLANDS WOOD SURGERY,-0.081209,50.996531
3706.6,BROOK HOUSE SURGERY,-1.445882,50.921794
5046.93,WEST ROAD SURGERY,0.70187,51.544989
24634.14,WHITSTABLE MEDICAL PRACTICE,1.012662,51.340885
2949.08,EARLS BARTON MEDICAL CENTRE,-0.758162,52.264648
1469.9,GREAT HOLLANDS PRACTICE,-0.770726,51.398661
6833.53,VEOR SURGERY,-5.299615,50.209958
1811.72,HEATHWAY MEDICAL CENTRE,0.152111,51.535187
1682.89,BIRTLE VIEW MEDICAL PRACTICE,-2.2277,53.595186
3973.8,RIVER PLACE HEALTH CENTRE,-0.09656,51.540513
2585.85,MILLBROOK SURGERY  CASTLE CARY,-2.51716,51.087618
4460.87,BLACKETTS MEDICAL PRACTICE,-1.559007,54.527221
971.89,AL-SHIFA MEDICAL CENTRE,-2.229695,53.433705
3030.58,SUN LANE,1.087469,51.071536
219.88,TORBAY AND SOUTHERN DHCT,-3.552785,50.48778
2335.1,KINGSWOOD SURGERY,-1.517051,53.991495
11256.7,CROFT MEDICAL CENTRE,-1.727743,52.477876
2238.65,KNIGHTWICK SURGERY,-2.394831,52.200399
3465.9,ST ANDREWS MEDICAL PRACTICE.,-0.17238,51.630138
3252.64,CHAPEL ROW SURGERY,-1.17086,51.425877
3226.51,BELMONT & SHERBURN MEDICAL GROUP,-1.52816,54.786148
1292.57,UEA MEDICAL CENTRE,1.241391,52.622369
3344.79,STAUNTON GROUP PRACTICE,-0.112926,51.599388
1797.55,MODALITY DARLASTON PRACTICE,-2.036323,52.56617
3474.99,BROCKHURST MEDICAL CENTRE,-1.15337,50.808243
3456.57,HADEN VALE SURGERY,-2.073333,52.466347
5251.55,KESTON MEDICAL PRACTICE,-0.114466,51.34074
3720.06,HEATHCOTE MEDICAL CENTRE,-0.228084,51.294799
8914.9,THE AVENUE MEDICAL CENTRE,-2.211676,53.533178
2401.96,DR CURRAN & PARTNERS,-0.136034,51.465148
18.96,NCH&C COMMUNITY NURSES (WEST),0.410147,52.749129
4507.32,HAPPY HOUSE SURGERY,-1.422785,54.885012
5871.79,PRIORY FIELDS SURGERY,-0.179856,52.332272
1688.95,SOUTHEND MEDICAL CENTRE,0.708516,51.540069
8849.19,BLACKWATER MEDICAL CENTRE,0.68095,51.728379
46,HOMERTON NMP'S,-0.046099,51.550634
88.24,HARROGATE OOH,-1.517573,53.993807
5730.49,TUDOR MEDICAL CENTRE,-2.136002,52.594673
6409.93,MARTONSIDE MEDICAL CENTRE,-1.220329,54.553175
1332.45,THE MOORINGS MEDICAL PRACTICE,-0.095892,51.322229
6383.61,BRADSHAW MEDICAL CENTRE,-2.688594,53.537889
8813.67,COLLEGE SURGERY PARTNERSHIP,-3.392716,50.864169
3939.72,ELMS MEDICAL PRACTICE,-0.352007,51.818895
5549.12,THE RED HOUSE GROUP,-0.317147,51.68273
4963.41,MILL BANK,-2.118627,52.80489
4025.21,ST JOHNS MEDICAL CENTRE,-0.0222,51.467393
652.59,THE CIVIC MEDICAL CENTRE,-0.337497,51.587155
1108.2,ISLIP MANOR MEDICAL CENTRE,-0.372994,51.547315
6233.26,LOVEMEAD GROUP PRACTICE,-2.202601,51.31857
8451.57,CROUCH OAK FAMILY PRACTICE,-0.490757,51.371507
5281.23,NORTH THORESBY SURGERY,-0.056751,53.46502
4727.29,KINGSFIELD MEDICAL CENTRE,-1.89301,52.427278
1433.99,PARLIAMENT HILL SURGERY,-0.145468,51.555169
3518.99,PARKFIELD MEDICAL CENTRE,-0.179588,51.695129
1738.63,THE PINE MEDICAL CENTRE,-0.416838,51.527591
3638.41,BURDWOOD SURGERY,-1.244202,51.396133
1239.76,MEDIC HOUSE,0.362131,51.462932
4767.63,BELMONT MEDICAL CENTRE,-2.739476,52.041288
624.45,ARDEN MEDICAL CENTRE,-1.744762,52.379799
7161.98,CASTLE PARTNERSHIP,1.298303,52.633973
52.3,COMMUNITY COPD CLINIC,-1.435213,53.333016
861.29,NEW ROAD MEDICAL CENTRE,-1.939238,52.648704
36.5,SUSSEX DOWN AND WEALD SPECIAL SCHEME,0.294614,50.773566
7123.94,SANDY LANE SURGERY,-1.937103,52.75674
1365.74,CHOLMLEY GARDENS SURGERY,-0.195423,51.552261
4.5,LOUGH OOH,-0.008582,53.37101
928.71,MITCHLEY AVENUE SURGERY,-0.092485,51.32998
1776.8,GATEACRE MEDICAL CENTRE,-2.85753,53.385435
7624.4,BEACON HEALTH GROUP-DANBURY MEDICAL CTR,0.587566,51.716669
3305.96,THE SUMMERHILL SURGERY,-2.171615,52.496514
722.59,SCHOOL LANE PMS PRACTICE,0.749246,52.412444
5089.88,BELLINGHAM GREEN SURGERY,-0.02426,51.430378
5182.49,BOUNDARY HOUSE MEDICAL CENTRE,-2.288936,53.415635
2765.93,HILL LANE SURGERY,-1.41571,50.915802
349.45,AVENUE MEDICAL PRACTICE,-1.603419,54.988036
2931.21,SPRING HALL GROUP PRACTICE,-1.892899,53.721064
2509.7,KINGSHOLM SURGERY,-2.239023,51.868028
7273,SILVERDALE MEDICAL CENTRE,-2.267264,53.015627
5271.49,ARLINGTON ROAD SURGERY,0.277559,50.768189
3201.91,THE SHREWSBURY CENTRE,0.043312,51.540929
8454.78,LEEN VIEW SURGERY,-1.196589,52.998051
8942.71,HEATHERVIEW MEDICAL CTR.,-1.913033,50.739773
6,GP EXTENDED ACCESS - HARROGATE,-1.529793,53.996354
1513.65,CONNAUGHT SQUARE PRACTICE,-0.164264,51.513974
4104.13,ABERCROMBY FAMILY PRACTICE,-2.961744,53.399032
2795.47,BRIDGE HOUSE MEDICAL CENTRE,-1.709788,52.190536
6.27,AQP ANTICOAG SOUTH DOC DOVECOTE SURGERY,-1.994863,52.464059
5416.08,CAVERSHAM GROUP PRACTICE,-0.138116,51.550467
3171.95,COUNTESTHORPE HEALTH CENTRE,-1.136767,52.554536
619.73,THE GOLBORNE MEDICAL CENTRE,-0.206303,51.524023
2087.01,CHARNOCK HEALTH PRIMARY CARE CENTRE,-1.420724,53.342996
3599.99,PARKFIELDS SURGERY,-1.432388,52.898298
6,THE HEATON MEDICAL PRACTICE,-1.808133,53.81642
1373.68,CHAPELTOWN FAMILY SURGERY,-1.526199,53.811432
1604.41,DR VASANTH,-2.500811,53.527489
1032.11,DR GI JONES' PRACTICE,-1.471058,53.166526
2972.61,RIVERBANK MEDICAL SERVICES,-1.152629,53.207243
1810.65,HARDEN HEALTH CENTRE,-1.985958,52.608552
1932.51,HARSTON SURGERY,0.073806,52.138364
971.12,HOYLAND HOUSE,-2.194177,51.790995
1016.52,HATCH END MEDICAL CENTRE,-0.377077,51.606242
9712.11,WIBSEY & QUEENSBURY MED P,-1.779715,53.767225
7962.8,JORVIK GILLYGATE PRACTICE,-1.077772,53.959168
1256.13,VALLEY ROAD SURGERY,-0.119424,51.428616
3601.11,CHATSWORTH ROAD MEDICAL CENTRE,-1.467337,53.231374
6972.76,PRESTON GROVE MEDICAL CENTRE  YEOVIL,-2.644279,50.94185
13111.15,NORTH CLACTON MEDICAL PRACTICE,1.162631,51.818131
6607.26,FINCHAMPSTEAD PRACTICE,-0.858066,51.375104
4833.05,SHERBURN GROUP PRACTICE,-1.253519,53.798594
2340.05,BOURN SURGERY,-0.063404,52.193155
6072.07,DR BHATE SURGERY,-1.37324,54.905516
9536.23,OSMASTON SURGERY,-1.467954,52.911084
5476.97,BISHOPS WALTHAM SURGERY,-1.212149,50.95528
6986.71,BROOK SQUARE SURGERY,-0.409328,54.281789
1201.35,BORSTAL VILLAGE SURGERY,0.482446,51.372102
2903.23,BROOK MEDICAL CENTRE,-0.803796,52.255823
1187.32,THE MARSHSIDE SURGERY,-2.963125,53.671433
935.99,CITY OF COVENTRY HEALTH CENTRE,-1.508005,52.413401
2636.47,ULLAH M,-2.595925,53.522279
3591.38,ST.MARY'S MEDICAL CENTRE,0.497526,51.397836
1742,WALSALL WOOD HEALTH CENTRE,-1.927755,52.629621
3233.63,MADELEY PRACTICE,-2.345126,52.999856
25.1,THE SHELDON PRACTICE,-0.215603,51.555924
2679.26,SHADBOLT PARK HOUSE SURG,-0.252507,51.376451
7396.3,HILDENBOROUGH MEDICAL GROUP,0.243873,51.215118
358.85,THE MATTHEWMAN PRACTICE,-0.149281,51.545823
3053.43,CHURCH LANE - KHAN,-1.793962,52.487056
3997.02,DEVON SQUARE SURGERY,-3.60508,50.529985
1986.13,UPWELL STREET SURGERY,-1.434724,53.406424
8374.89,EAST LINDSEY MEDICAL GROUP,0.002264,53.362241
3884.88,MATTISHALL SURGERY,1.034195,52.658795
12666.32,ASHFORD MEDICAL PARTNERSHIP,0.898839,51.136741
6792.89,LOW MOOR SURGERY,-1.769897,53.75385
2689.54,ST ELIZABETH'S MEDICAL CENTRE (JA WOOD),-1.061189,52.648257
2143.57,PENNINE DRIVE PRACTICE,-0.208882,51.568477
4161.07,THE CEDARS SURGERY,-0.72004,51.52561
5014.4,LONGTON HEALTH CENTRE,-2.780194,53.727756
2989.37,OWLTHORPE MEDICAL CENTRE,-1.375862,53.33869
2437.05,ST ANDREWS HEALTH CENTRE,-0.014302,51.523949
5922.85,WONERSH SURGERY,-0.545609,51.197393
21.6,RAINBOW HEALTH CENTRE,-0.109304,51.395046
2747.73,HOLLIES MEDICAL CENTRE,-1.494834,53.363179
9.17,COMMUNITY HEALTH NEWHAM,-0.072273,51.516339
9238.49,GALLERIES MEDICAL PRACTICE,-1.531242,54.898814
25.97,SUFFOLK GP FEDERATION OOH,1.164244,52.044508
1945.46,GLEN ROAD MEDICAL CENTRE,0.03253,51.522221
4304.12,THE WOLDS VIEW PRIMARY CARE CENTRE,-0.215754,54.086552
1523.02,COMMUNITY HEALTH CENTRE (ZS OSAMA),-1.113421,52.632387
5674.73,CHURCHILL MEDICAL CENTRE,-0.018466,51.618226
161.53,THE PINN UNREGISTERED WIC,-0.382232,51.595076
6166.88,NAVENBY CLIFF VILLAGES SURGERY,-0.526297,53.103518
5064.75,PRINCE OF WALES GROUP SURGERY,-0.147117,51.546913
2085.07,WEST POINT MEDICAL CENTRE,-2.197586,53.445978
7007.71,DURNFORD MEDICAL CENTRE,-2.197033,53.554038
3175.06,TRINITY MEDICAL CENTRE,-0.158437,51.437554
104.3,HOMELESS AND VIOLENT PATIENT SERVICE,-2.238316,51.866796
7947.96,THE DICCONSON GROUP PRACTICE,-2.644891,53.549467
10152.68,TALBOT MEDICAL CENTRE,-1.908934,50.748888
926.19,CAMDEN HEALTH IMPROVEMENT PRACTICE,-0.138243,51.528275
5920.5,WHITLEY ROAD MEDICAL CENTRE,-2.2227,53.49493
33.6,LONG EATON ON DAY SERVICE,-1.272531,52.901553
5826.72,AVISFORD MEDICAL GROUP,-0.61388,50.822687
11105.94,ASHVILLE MEDICAL CENTRE PMS PRACTICE,-1.4569,53.543072
840.47,CARRFIELD MEDICAL CENTRE,-1.465061,53.358636
1760.02,WALNUT TREE PRACTICE,-2.357425,51.68003
269.29,URGENT CARE CENTRE NORTHWICK PARK HOSP,-0.322037,51.575407
292.43,SIBFORD SURGERY,-1.479244,52.037614
3172.63,THE GAINSBOROUGH PRACTICE,-0.73138,51.426252
8427.45,PORTISHEAD MEDICAL GROUP,-2.767318,51.482805
3849.66,HONOR OAK GROUP PRACTICE,-0.041114,51.458097
2975.89,FEATHERSTONE,-2.089566,52.645773
5488.17,STUBBINGTON MEDICAL PRACTICE,-1.215422,50.825008
124.03,GP CARE WAKEFIELD OOH,-1.494838,53.679942
6997.42,FISHER MEDICAL CENTRE,-2.021408,53.96167
2041.15,HORNDEAN SURGERY,-0.991298,50.914995
4634.54,MARKET STREET MEDICAL PRACTICE,-2.145635,53.478959
12774.54,LIBRARY HOUSE SURGERY,-2.633893,53.650664
3513.73,GOSSOPS GREEN MEDICAL CTR,-0.21648,51.107248
3483.12,STROUD PRACTICE,-2.024533,52.58916
12064.45,CASTLEFIELDS HEALTH CENTRE,-2.691794,53.338807
8284.43,BLACK COUNTRY FAMILY PRACTICE,-2.071182,52.528846
8635.52,MARK STREET SURGERY,-2.144639,53.62423
2514.07,LAUNCESTON CLOSE SURGERY,-2.542488,53.183101
8243.97,CARITAS GENERAL PRACTICE PARTNERSHIP,-2.134599,53.395928
12.68,COMPTON PALLIATIVE CARE TEAM,-2.172068,52.585801
4145.91,COLNE ROAD SURGERY,-2.236848,53.801226
5115.78,CASTLE GARDENS SURGERY,-4.140046,50.951639
4819.26,WATERSIDE MEDICAL CENTRE,-1.529997,52.283202
11902.73,THREE CHEQUERS MEDICAL PRACTICE,-1.794625,51.071924
1708.22,GANTS HILL MEDICAL CENTRE,0.064452,51.577157
3125.4,SOUTH WIGHT MEDICAL PRACTICE,-1.287022,50.587616
3850.28,HOPWOOD MEDICAL CENTRE,-2.212052,53.587143
2398.7,THORNTREE SURGERY,-1.18346,54.565208
5715.34,AIR BALLOON SURGERY,-2.531438,51.459
4443.76,MINET GREEN HEALTH PRACTICE,-0.105204,51.475715
3082.97,KINGSNORTH MEDICAL PRACTICE,0.859919,51.1207
583.58,27 BEAUMONT STREET,-1.26216,51.755081
3540.86,LANE END MEDICAL GROUP,-0.274866,51.615287
6039.15,LAUREL HOUSE SURGERY,-1.692825,52.636563
1593.77,RADFORD MEDICAL PRACTICE (KAUR),-1.167635,52.956339
5082.24,MCKENZIE GROUP PRACTICE,-1.239266,54.660465
5949.96,BLUE DYKES SURGERY,-1.414353,53.167483
13385.98,ASPEN MEDICAL PRACTICE,-2.225797,51.865969
2437.89,REDFERN HEALTH CENTRE,-3.769118,50.238912
12.6,HAVERING CCG,0.179796,51.579247
15180.64,BEACHES MEDICAL CENTRE,1.727734,52.577124
2126.54,WOOTTON VALE HEALTHY LIVING CENTRE,-0.527951,52.093688
3186.39,HILLSIDE HOUSE SURGERY,-2.842807,53.419526
8620.83,CHURCHFIELDS MEDICAL PRACTICE,-1.180398,52.978865
2928.26,ST LAWRENCE ROAD SURGERY,-1.387829,53.180152
2330.06,MILL ROAD SURGERY,0.150585,52.197163
2768.17,POTTERELLS MEDICAL CENTRE,-0.208602,51.726922
76.5,NEWCASTLE GP IN A&E SERVICE,-1.618869,54.98022
98.3,CAMDEN EXTENDED ACCESS SERVICE,-0.130607,51.529916
5925.91,HORTON PARK MEDICAL PRACTICE,-1.772791,53.785161
16297.31,ST AUSTELL HEALTH GROUP,-4.760416,50.344296
11462.89,WHITBY GROUP PRACTICE,-0.62317,54.485919
980.16,FELTON SURGERY,-1.7113,55.298652
2532.03,SWARLAND AVENUE SURGERY,-1.578629,55.006365
4811.44,CLAY LANE MEDICAL PRACTICE,-1.482836,52.412774
97.87,MARILLAC HOSPITAL,0.307264,51.621757
6596.01,WHICKHAM COTTAGE MEDICAL CENTRE,-1.677226,54.94538
4149.82,POVEREST MEDICAL CENTRE,0.101265,51.39001
984.39,INGLETON AVENUE SURGERY,0.104087,51.454007
975.27,STUART CRESCENT HEALTH CENTRE,-0.110172,51.600434
4092.27,WAYFIELD ROAD SURGERY,0.530781,51.359826
2126.15,MATCHING GREEN SURGERY,0.481244,51.582852
175.15,ZAIN MEDICAL CENTRE,-0.271242,51.606493
4173.11,MITCHELDEAN SURGERY,-2.488369,51.865935
2196.52,WATERS EDGE MEDICAL CENTRE,-2.443972,53.192336
2568.29,BROWNLOW AT MARYBONE,-2.987806,53.411269
1643.24,NORTH LEVERTON SURGERY,-0.822245,53.332038
5220.09,WELTON FAMILY HEALTH CENTRE,-0.484843,53.306584
2117.27,ORRELL PARK MEDICAL CENTRE,-2.962942,53.462025
3287.15,TINKERS LANE SURGERY,-1.900604,51.543578
1331.5,FAMILY DOCTORS,-1.440964,53.798248
2815.5,BRACONDALE MEDICAL CENTRE,-2.147089,53.393998
5662.36,DENTON PARK MEDICAL GROUP,-1.698725,54.993108
2689.44,BURTON CROFT SURGERY,-1.57692,53.820807
1258.54,NORHEADS LANE SURGERY,0.026739,51.314542
6196.96,THE SPINNEY MEDICAL CTR.,-2.757627,53.442443
5046.46,HUNGERFORD MEDICAL CENTRE,-2.427003,53.09787
2917.61,CHURCH STREET PRACTICE,-0.459783,51.37345
1752.68,OMBERSLEY MEDICAL CENTRE,-2.229023,52.276554
2572.86,MONKFIELD MEDICAL PRACTICE,-0.065978,52.218778
3886.75,IMEARY STREET PRACTICE,-1.424863,54.98753
2814.12,THE OLD SCHOOL MEDICAL PRACTICE,-1.142404,53.916163
5203.34,SALTERS MEDICAL PRACTICE,-2.153493,52.266877
6161.88,NEWBURN SURGERY,-1.743614,54.985644
1026.19,WARLEY ROAD SURGERY,-1.993726,52.490193
2038.17,ROSEHEATH SURGERY,-2.82558,53.359024
404.96,THE SURGERY (BROOKE ROAD),-0.070755,51.560052
5711.84,BLAKEWATER HEALTH CENTRE,-2.473916,53.76497
2893.78,ST.PAUL'S WAY MEDICAL CTR,-0.024483,51.517862
1635.1,GREAT BARFORD SURGERY,-0.351406,52.156171
4762.41,ST.AGNES SURGERY,-5.202589,50.310768
7220.91,THE WHITFIELD PRACTICE,-1.526509,53.779894
3155.24,ST MELOR HOUSE SURGERY,-1.777291,51.171219
6407.92,MEDLOCK VALE MEDICAL PRACTICE,-2.142502,53.479062
4747.76,BEDMINSTER FAMILY PRACTICE,-2.594216,51.444159
1069.63,ABBEYSLADE PMS (DR CHAND),0.107443,51.487796
12904.4,BOROUGHBURY MEDICAL CENTRE,-0.245486,52.577858
4030.01,THE NAYAR PRACTICE,-1.193379,53.480824
4078.63,QUAYSIDE MEDICAL PRACTICE,-2.156747,53.509855
10721.94,FARNHAM ROAD PRACTICE,-0.617796,51.530427
5329.13,THE ELMS MEDICAL CENTRE,-2.892972,53.195093
16224.32,WELLWAY MEDICAL GROUP,-1.689718,55.169477
1246.8,WESTBURY MEDICAL CENTRE,-2.955353,52.67874
3495.05,ARTHUR MEDICAL CENTRE,-1.422636,53.001503
9210.97,IRIDIUM MEDICAL PRACTICE  RICHMOND PCC,-1.817518,52.478024
883.49,SPRING GROVE MEDICAL PRACTICE,-0.345443,51.474432
437.98,HILL TOP PRACTICE,-2.011775,52.537791
4231.25,THE BLITHEHALE MED.CTR.,-0.065196,51.523775
6225.81,THE KIRTON LINDSEY AND SCOTTER SURGERY,-0.594073,53.474089
2557.65,UNITY HEALTH,-1.029922,53.950316
5206.41,WALLACE HOUSE,-0.081701,51.796317
1086.96,MONMOUTH SURGERY,-2.367579,51.383191
6075.67,WHITTINGTON MOOR SURGERY,-1.431065,53.260996
2547.5,ARUNDEL SURGERY,-0.567268,50.852881
624.02,CLAPHAM JUNCTION MEDICAL PRACTICE,-0.173908,51.465969
2427.41,FOWNHOPE MEDICAL CENTRE,-2.594618,52.007664
1289.94,DR JEHANGIR (SH),-2.21885,53.838042
5518.86,RIVERBANK MEDICAL CENTRE,-0.735087,50.993474
3017.3,ST HILARY GROUP PRACTICE,-3.06136,53.422188
5539.06,WYCHALL LANE SURGERY,-1.935566,52.409967
1248.4,ROWLANDS ROAD SURGERY,-1.806157,52.463271
4107.05,DOWNING STREET GROUP PRACTICE,-0.798901,51.212905
5386.19,THE SALTSCAR SURGERY,-1.073638,54.616282
6327.49,CEDAR MEDICAL PRACTICE,-0.655287,53.570914
5575.88,PULBOROUGH MEDICAL GROUP,-0.509104,50.961138
2689.31,MARKET QUARTER MEDICAL PRACTICE,-1.252936,52.377534
3537.53,WHITCHURCH SURGERY,-1.340372,51.230256
1157.8,PIKE MEDICAL PRACTICE,-2.045643,53.517861
19.9,WYRE FOREST COMMUNITY NURSES,-2.244954,52.387785
1746.93,FALMOUTH ROAD GROUP PRACTICE,-0.093122,51.496427
5490.8,LOCKSTOWN PRACTICE,-2.057135,52.585445
1950.5,SIMMONDLEY MEDICAL PRACTICE,-1.969041,53.43954
15131.28,THE PEARTREE PRACTICE,-1.339341,50.900324
577.84,DR SP TALPAHEWA,-0.260303,51.616115
10164.72,TROWBRIDGE HEALTH CENTRE,-2.206779,51.325271
3096.33,THE WHITELEY SURGERY,-1.266072,50.88262
6134.93,CUMBERLAND HOUSE SURGERY,-2.12262,53.257964
3291.9,SONNING COMMON HEALTH CTR,-0.982114,51.515603
32.7,7 DAY GP SERVICE,-3.011356,53.629265
3962.14,GARSWOOD SURGERY,-2.681273,53.496386
1416.77,DR N SADDIQ'S PRACTICE,-1.605537,53.744776
4.5,MINOR INJURIES UNIT,-0.152663,52.802684
1936.74,CLOVER HEALTH CENTRE,0.068593,51.490359
3322.29,DEMONTFORT MEDICAL CENTRE,-1.938869,52.09226
2407.71,CASSIO SURGERY,-0.401058,51.656689
5048.14,LATCHFORD MEDICAL CENTRE,-2.561658,53.381001
6,WEALD CLUSTER,0.277462,51.194717
4415.78,LONGROVE SURGERY,-0.204664,51.654244
26,SOUTH COTSWOLD LOCALITY NURSE PRESCRIBER,-2.176389,51.847073
4028.51,STONEBRIDGE SURGERY,-2.608242,53.827609
4735.44,PROSPECT SURGERY,-1.583343,53.681523
5798.89,FORDINGBRIDGE SURGERY,-1.793531,50.928159
1218.62,DR MAHMOOD & PARTNERS,-1.661589,53.677829
12748.08,THE PENDLE MEDICAL PARTNERSHIP,-2.144307,53.915882
2024.47,THE PHOENIX PRACTICE,-0.223569,51.587311
7598.03,OAKESWELL HEALTH CENTRE,-2.013776,52.5542
1286.41,CHARLTON HOUSE MEDICAL CENTRE,-0.069309,51.595299
3124.26,SUTTON VALENCE GROUP PRACTICE,0.59403,51.211195
7158.24,KINGSWOOD SURGERY,-1.754341,51.556256
2168.66,CARNON DOWNS SURGERY,-5.091905,50.22345
4440.16,LONGVIEW MEDICAL CENTRE,-2.825032,53.415399
4098.92,LAVANT ROAD SURGERY,-0.781051,50.853385
10765.14,TANFIELD VIEW MEDICAL GROUP,-1.701373,54.869939
24.5,SWADLINCOTE EXTENDED ACCESS,-1.559331,52.774889
3906.8,BRIDGE LANE GROUP PRACTICE,-0.167394,51.474142
2603.57,WINTON HEALTH CENTRE,-1.876372,50.739605
2233.56,BHF LUNDWOOD SURGERY,-1.438538,53.557711
197.47,PHOENIX WALK IN CENTRE,-2.095555,52.599722
36,IC24 LTD (HORSHAM & MID SUSSEX OOH),0.891514,51.129106
3630.2,PADGATE MEDICAL CENTRE,-2.556188,53.406509
774.05,THE BEDFORD PARK SURGERY,-0.262302,51.49598
1243.35,GARRETTS GREEN LANE SURGERY,-1.788691,52.468447
3516.04,SUTHERLAND LODGE SURGERY,0.482571,51.725662
14595.21,EASTGATE MEDICAL GROUP  HORNSEA,-0.16825,53.915277
5659.53,WESTBOURNE MEDICAL GROUP,-1.495464,54.866868
2052.12,THE HOLLIES FAMILY SURGERY,-3.061442,53.55525
13273.24,MIRIAM PRIMARY CARE GROUP,-3.04649,53.398246
1914.12,HUNTLEY MOUNT MEDICAL CENTRE,-2.27859,53.600201
4134.96,THE ORCHARD PRACTICE,-0.303542,51.369116
3172.37,LAKENHAM SURGERY,1.296577,52.6183
49,B'WATER CH CN WARRINGTON,-2.628343,53.415482
115.86,SPECIALIST SERVICES,-1.441882,53.221288
2502.48,THE ACORN & GAUMONT HOUSE SURGERY,-0.06645,51.474157
17513.29,THE ADAM PRACTICE,-2.07822,50.757881
5529.99,NEWTOWN MEDICAL PRACTICE,-2.669697,53.538479
5918.58,MATHER AVENUE SURGERY,-2.892382,53.365377
928.33,WESTCOTES GP SURGERY (TWO),-1.15115,52.628609
4937.37,MARSH MEDICAL PRACTICE,0.143689,53.445069
6,HMP HEWELL,-1.986589,52.324784
1037.83,PALMERSTON ROAD SURGERY,0.044819,51.626871
10683.26,BIRTLEY MEDICAL GROUP,-1.576441,54.891881
4271.72,TOWNHILL MEDICAL PRACTICE,-0.102825,51.290561
3094.19,DORRIDGE SURGERY,-1.752074,52.372757
4452.43,THE CORINTHIAN SURGERY,-2.0815,51.906706
496.66,BROMLEY GP ALLIANCE,-0.033209,51.405232
5614.1,RYE MEDICAL CENTRE,0.730363,50.961944
3642.63,OAKLANDS HEALTH CENTRE,-1.784282,53.577106
10798.49,HIGH STREET SURGERY,1.756043,52.482123
3811.82,FAIRMORE MEDICAL PRACTICE,-2.280663,53.70081
1421.77,DR VICTORIA MUIR'S PRACTICE,-0.151358,51.490651
8831.25,LINDEN AVENUE MEDICAL CENTRE,-0.716133,52.397046
1250.28,ALPHA MEDICAL PRACTICE,-1.856091,52.490749
3,NORTH TYNESIDE COMMUNITY SERVICE,-1.508192,55.020469
5187.58,THE STREET LANE PRACTICE,-1.513393,53.843234
4407.05,VINE HOUSE HEALTH CENTRE,-0.41878,51.70477
4.5,TONBRIDGE CLUSTER,0.277462,51.194717
7736.71,NEWBURY GREEN MEDICAL PRACTICE,-2.26047,53.506995
8673.85,TAUNTON ROAD MEDICAL CENTRE,-3.001634,51.124679
5427.33,CHARNWOOD MEDICAL GROUP,-1.22117,52.774303
10155.81,DONNINGTON MEDICAL PRACTICE,-2.437109,52.715179
46,WEST KENT GROUP,1.118942,51.075872
5392.01,MANOR DRIVE MEDICAL CENTRE,-0.248366,51.380785
3227.75,DR NASAH & PARTNERS,0.505558,51.567734
3,NHS GLOUCESTERSHIRE CCG,-2.174623,51.848478
2001,LINKS MEDICAL PRACTICE,-2.079024,52.487973
1379.25,PARK MEDICAL PRACTICE,-2.327843,53.401899
1633.62,OLD TRAFFORD MEDICAL PRACTICE,-2.275745,53.458074
13.5,CATERHAM DENE RAC,-0.085202,51.283627
3947.94,HAVEN HEALTH,1.327039,51.96536
6027.91,CASTLE MEDICAL GROUP PRACTICE,-0.415501,51.875588
6762.99,SACRISTON MEDICAL CENTRE,-1.628413,54.819683
4397.43,SOUTHAM SURGERY,-1.385752,52.251212
6710.75,NORVIC FAMILY PRACTICE,-1.960133,52.489728
6158.06,WINTERTON MEDICAL PRACTICE,-0.606876,53.652511
6390.46,STONEHAM LANE SURGERY,-1.378468,50.939305
3017.57,LILFORD PARK SURGERY,-2.511455,53.503236
15140.35,LINTONVILLE MEDICAL GROUP,-1.570274,55.183776
998.61,BLUEBELL SURGERY,0.921899,51.916473
2573.57,MANOR HOUSE SURGERY,-0.161227,51.916084
5350.49,NEW ISLINGTON MEDICAL CENTRE,-2.219472,53.4829
3788.79,SEFTON PARK MEDICAL CENTRE,-2.934843,53.393088
1455.77,LATHOM ROAD MEDICAL CENTRE,0.052675,51.538066
6874.05,THE CAXTON SURGERY,-3.051276,52.861431
157.62,TOTTENHAM HALE MEDICAL PRACTICE,-0.058714,51.589477
7466.89,SALTERS MEADOW HEALTH CTR,-1.933023,52.68216
2480.18,SURREY LODGE PRACTICE,-2.218728,53.458264
1262.53,PLEASLEY SURGERY,-1.250873,53.175809
5302.79,LYTHAM ROAD SURGERY,-2.710575,53.77784
2991.77,MILLENNIUM FAMILY PRACTICE,-1.603663,54.962972
4842.47,PURTON SURGERY,-1.878078,51.585483
2168.59,BARRINGTON MEDICAL CENTRE,-2.352158,53.38672
1256.04,HEDNESFORD MEDICAL PRACTICE,-2.000697,52.71233
8826.03,WALDERSLADE SURGERY,-1.43772,53.499821
1845.97,ABRIDGE SURGERY,0.12458,51.653631
6,GRANTHAM EXTENDED ACCESS K2,-0.639825,52.910073
5506.07,ARTHINGTON MEDICAL CENTRE,-1.532912,53.77216
4136.46,SHIFNAL & PRIORSLEE MEDICAL PRACTICE,-2.376009,52.667675
6073.39,ASHWORTH STREET SURGERY,-2.165652,53.619565
44.5,MFT ADULT COMMUNITY SERVICES,-2.188524,53.446352
9660.86,THE LIGHTHOUSE GROUP PRACTICE,-1.080505,50.796551
9204,TESTVALE SURGERY,-1.489898,50.919405
11590.37,THE DOVE VALLEY PMS PRACTICE,-1.46034,53.529021
440.96,PRIMARY CARE SEVEN DAY SERVICE,-0.059836,51.623784
4322.39,MILL ROAD SURGERY,0.896057,51.912436
6221.65,TONG MEDICAL PRACTICE,-1.716795,53.77049
6033.23,GODIVA GROUP PRACTICE,-1.482836,52.412774
4566.7,KINGSBRIDGE MEDICAL CENTRE,-2.226198,52.9927
214.52,THE ROYAL MEWS SURGERY,-0.145223,51.498764
2110.16,DR VARDHAN'S SURGERY,-2.447913,53.500769
4207.37,WELLS PARK PRACTICE,-0.063327,51.430508
943.67,THE DOC'S SURGERY,-2.238064,53.476932
6973.04,HADLEIGH BOXFORD GROUP PRACTICE,0.953136,52.043021
15776.2,EAST NORFOLK MEDICAL PRACTICE,1.725527,52.619127
3,SCARBOROUGH EXTENDED ACCESS HUB,-0.416116,54.282229
3,HANCOCKS ME,-0.412964,53.782123
6437.25,THE MILTON SURGERY,-2.949198,51.352664
1686.07,BAKERSFIELD MEDICAL CENTRE,-1.104957,52.960219
2418.63,RAINFORD HEALTH CENTRE,-2.781746,53.500694
4889.07,MARCHAM RD FAMILY HEALTH CENTRE,-1.302953,51.66958
4111.42,THE LAURELS SURGERY,0.544165,51.758518
11463.47,THE CAMBRIDGE PRACTICE,-0.76565,51.254364
2086.97,ROCKLEIGH COURT SURGERY,0.326872,51.63026
4677.7,IFIELD MEDICAL PRACTICE,-0.211874,51.121108
6.3,PRIME ENDOSCOPY (BRISTOL),-2.601961,51.449773
5624.48,ST.STEPHENS HEALTH CENTRE,-0.031163,51.532455
1753.47,PARK ROAD MEDICAL CENTRE,-0.150952,51.363489
2704.92,MANCHESTER MEDICAL,-2.23745,53.45875
4823.68,POUND HILL MEDICAL GROUP,-0.156409,51.118813
3413.13,SANDY LANE SURGERY,-1.182896,53.147091
3,BEALEY COMMUNITY HOSPITAL,-2.309285,53.565754
5609.86,LANGWORTHY MEDICAL PRACTICE,-2.294771,53.489371
5148.16,THE GOODINGE GROUP PRACTICE,-0.125442,51.54825
44.96,NEMS CBS MID NOTTS OOH,-1.233579,53.134573
5413.17,ROLLE MEDICAL PARTNERSHIP,-3.401499,50.621139
997.05,RILLWOOD MEDICAL CENTRE,-0.835728,52.263295
1662.16,THE MANSELL ROAD PRACTICE,-0.358969,51.525654
1.5,CONTINENCE PRESCRIPTION SERVICE,-1.162019,52.97426
6089.97,FORESTSIDE MEDICAL PRACTICE,-1.416173,50.851823
2147.85,TRINITY SURGERY,-1.650877,52.617569
5226.21,NORTHWOOD MEDICAL CENTRE,-1.932971,52.415485
2330.72,AUGHTON SURGERY,-2.902089,53.543684
1778.16,CHATHAM STREET SURGERY,-0.981895,51.455924
718.19,SLAIDBURN HEALTH CENTRE,-2.444001,53.967313
58.96,PETERLEE PRIMARY CARE SERVICES,-1.335627,54.758287
8520.11,FEARNHEAD CROSS MED.CTR.,-2.559106,53.411071
664.63,GREENFIELD MEDICAL CENTRE,-1.855764,52.491684
1535.79,THE PROJECT SURGERY,0.020636,51.532273
872.96,THE VALE SURGERY,-0.251817,51.506454
1.5,TOTTON HEALTH CENTRE,-1.488789,50.92065
12985.36,HAVELOCK GRANGE PRACTICE,-1.214164,54.682342
13.36,LOCAL PRIMARY CARE NORTH LOCALITY SPOKE,-2.467263,53.758668
1174.82,ST. LUKE'S SURGERY,-1.167635,52.956339
3233.77,CRICH MEDICAL PRACTICE,-1.482573,53.084327
6794.39,CHURCH STREET PRACTICE,-2.153433,51.99229
2949.82,GUTTERIDGE MEDICAL CENTRE,-2.691248,53.769881
4971.38,KIRKHAM HEALTH CENTRE,-2.878541,53.781939
1.5,EXTENDED ACCESS PCD CONISBROUGH GROUP,-1.237653,53.482282
2503.93,DR N NAGPAL'S PRACTICE,-2.467033,53.746299
9571.36,AINTREE PARK GROUP PRACTICE,-2.967297,53.462799
5261.42,THE RYAN MEDICAL CENTRE,-2.663635,53.730399
1960.79,CAREPOINT PRACTICE,-0.411552,51.604465
6456,FLANSHAM PARK HEALTH CENTRE,-0.629205,50.794855
954.2,MOHANTY PRACTICE,-2.130534,53.53731
51.3,THE LEGER CLINIC,-1.124029,53.525476
2475.09,CHORLEYWOOD HEALTH CENTRE,-0.520415,51.654714
9486.75,THE SWAN PRACTICE,-0.985664,52.001593
1883.79,KENSINGTON ROAD SURGERY,-1.532401,52.40257
3569.08,TONGE FOLD HEALTH CENTRE,-2.405772,53.579119
4685.37,GUISELEY AND YEADON MEDICAL PRACTICE,-1.684131,53.865295
1390.33,HAROLD STREET MEDICAL CENTRE,-1.492871,53.393121
9394.47,SHERWOOD MEDICAL PARTNERSHIP,-1.137878,53.157488
9.61,NORTH COTSWOLDS IMPROVED ACCESS,-2.239997,51.862659
6404.05,CASTLE PRACTICE,-1.617531,51.256028
2883.5,CARDEN SURGERY,-0.126631,50.862197
705.21,LANCELOT MEDICAL CENTRE,-0.299498,51.552907
10813.67,ELLERGREEN MEDICAL CENTRE,-2.919309,53.445416
3689.14,KIDDROW MEDICAL PRACTICE,-2.288626,53.795175
3685.89,THE VINE MEDICAL CENTRE,0.514909,51.270888
3011.39,THE SYMONS MEDICAL CENTRE,-0.73892,51.522782
6962.79,HARESFIELD HOUSE SURGERY,-2.202996,52.194829
3512.89,CENTRAL SURGERY,0.147747,51.812546
2658.31,QUEENHILL MEDICAL PRACTICE,-0.066791,51.34499
5261,GATEACRE BROW SURGERY,-2.8632,53.383291
2832.48,RED HOUSE SURGERY,0.129161,52.214906
1909.21,RUSH HILL SURGERY,-2.393951,51.365379
28.8,OUT OF HOURS CENTRE,-1.842798,54.869081
1535.42,DR S PHILLIPS AND DR M PATEL PRACTICE,-0.027903,51.569142
10608.86,ST GEORGES MEDICAL CENTRE,0.762412,51.436183
3672.74,THE CHESSER SURGERY,-0.177303,51.374927
2991.02,ASHURST PRIMARY CARE,-2.772723,53.563208
1998.12,TOWN HALL SURGERY,-2.092973,53.478374
7112.61,WHITE CLIFFS MEDICAL CENTRE,1.301586,51.12422
83.99,PARTNERSHIP SOUTH,-2.109085,52.810605
59.1,ST ANDREWS EXTENDED ACCESS HUB,-0.013843,51.523897
1986.43,NORTH BEVERLEY MEDICAL CENTRE,-0.439008,53.857996
2725.67,KILLICK STREET HEALTH CENTRE,-0.119068,51.534237
1972.78,THE LILYVILLE SURGERY,-0.199155,51.47377
3502.09,BURNBRAE MEDICAL PRACTICE,-0.303885,53.760383
3999.16,TOPSHAM SURGERY,-3.462097,50.683825
736.29,FITZMAURICE (KEW),-0.283117,51.475875
3325.71,ST PETER'S SURGERY,1.41893,51.362936
4112.85,THE COURTYARD SURGERY,-0.328342,51.065411
10.38,BROOMFIELD DOCTOR IN ED,0.465993,51.774654
2917.21,SHIFA SURGERY,-2.475999,53.757295
1952.45,SHIPDHAM SURGERY,0.894462,52.628852
1514.74,OLD PARSONAGE SURGERY,0.460418,51.112785
1178.62,POPLAR PRIMARY CARE CENTRE,-1.890326,52.43631
1554.24,SPITAL SURGERY,-3.003678,53.340977
4318.79,GRAVESEND MEDICAL CENTRE,0.369986,51.443932
1239.54,THE KILLINGHOLME SURGERY,-0.260335,53.629908
4011.01,THEATRE ROYAL SURGERY,0.942383,52.683767
2068.53,SOMERS TOWN MEDICAL CENTRE,-0.130607,51.529916
7751.22,THE SANDRINGHAM PRACTICE,-1.098266,53.533949
2777,BRANSTON & HEIGHINGTON FAMILY PRACTICE,-0.467988,53.195831
5979.12,THE BORCHARDT MEDICAL CENTRE,-2.237795,53.434307
2638.03,THE VILLAGE MEDICAL CTRE,-2.871986,53.374777
2896.99,DR GT HENDOW'S PRACTICE,-0.32136,53.787408
1774.36,WEST BROM P'SHIPS FOR HEALTH,-2.000605,52.517891
2539.79,ANGEL LANE SURGERY,0.362574,51.871967
6212.69,BUNGAY MEDICAL CENTRE,1.442974,52.44971
109.97,NOTTINGHAM NHS URGENT CARE CENTRE,-1.139043,52.950139
2549.77,ST MARY'S SURGERY,-2.000799,52.613174
1039.87,BROOM ROAD MEDICAL PRACTICE,-0.030275,51.369778
793.93,ARDEN HEALTHCARE CENTRE,-1.508005,52.413401
3569.84,KIRKBY COMMUNITY PRIMARY CARE CENTRE (3),-1.248741,53.10176
3688.9,VICTORIA MEDICAL CENTRE,-1.52187,54.97385
4237.12,THE RIGG-MILNER MEDICAL CENTRE,0.415644,51.48007
131.9,SHROPSHIRE WALK IN HEALTH CENTRE,-2.738044,52.707892
2951.26,KIRKGATE SURGERY,-1.667625,53.732234
3067.61,FRIERN BARNET MEDICAL CENTRE,-0.155988,51.613267
1787.01,HOLLAND PARK SURGERY,-0.194435,51.501412
5189.43,WOODVILLE SURGERY,-1.536503,52.770685
6018.67,ELMHAM SURGERY,0.943019,52.752311
2872.02,CROWN SURGERY,-2.253515,52.859415
2258.12,REGENT STREET SURGERY,-2.283616,51.744168
3018.34,JUBILEE HEALTH CENTRE,-2.01963,52.551655
66.9,GTD HEALTHCARE PRESTON OOH,-2.706842,53.791521
3854.06,DALTON SURGERY,-3.179816,54.155917
1833.32,MAIDSTONE RD CHATHAM SURGERY,0.516708,51.361226
4474.55,SKEGBY FAMILY MEDICAL CENTRE,-1.273344,53.142337
3,HARROW HEALTH CIC - HAEMORRHOIDS SERVICE,-0.383747,51.594674
3645.51,THE WRITTLE SURGERY,0.426548,51.73248
5253.45,PARKBURY HOUSE SURGERY,-0.334063,51.756766
2703.65,BUCKFASTLEIGH MEDICAL CENTRE,-3.781989,50.480934
8083.51,CITY HEALTH PRACTICE LTD,-0.306816,53.756542
2102.52,VALLEY VIEW SURGERY,-1.731903,53.806791
1612.02,DR PCL KNIGHT,0.010023,51.541412
2415.69,HORNSPIT MEDICAL CENTRE,-2.915341,53.436681
3258.96,ARRAN MEDICAL CENTRE,-1.748679,52.503867
6514.68,THE MAPLES MEDICAL CENTRE,-2.286712,53.384846
1472.84,MILTON SURGERY,0.162445,52.241924
9514.79,DR G LEES & PARTNERS,-1.593212,53.796407
6487.13,THE SHRUBBERY SURGERY,0.351088,51.433242
1195.38,SHIP STREET SURGERY,-0.141753,50.821384
1711.64,NORTON CANES SURGERY,-1.970246,52.673977
7811.16,ST. LAURENCE'S MEDICAL CENTRE,-2.882285,53.475161
5107.24,THE BRIMINGTON SURGERY,-1.395708,53.257173
6.3,WHITBY MINOR INJURIES UNIT,-0.615671,54.48445
8722.41,MAYLANDS HEALTHCARE,0.190596,51.552912
4333.21,YORKLEIGH SURGERY(CT),-2.0847,51.900132
82.8,B&H EXTENDED HOURS SERVICE,-0.148293,50.838378
2849.73,LANTERN HEALTH-CARPENTERS PRACTICE,-0.003474,51.537165
1431.89,WALTHAM ROAD MEDICAL CENTRE,0.584106,51.373869
110.89,BURY OOH,-2.288591,53.59553
782.52,PARROCK STREET SURGERY,0.371171,51.441238
937.55,NEVILLE ROAD SURGERY,-0.443036,51.906419
1.5,CWP (WEST) PHYSICAL HEALTH,-2.897884,53.2088
3,WEST KENT HEALTH FEDERATION,0.277462,51.194717
1377.91,CATER STREET SURGERY,-0.490495,52.119586
5577.07,WELLING MEDICAL PRACTICE,0.107972,51.460844
1465.97,HILL BARTON SURGERY,-3.481689,50.723363
1599.93,STACKYARD AND WOOLSTHORPE SURGERY,-0.7611,52.852515
3405.83,HEALDS ROAD SURGERY,-1.651637,53.700113
939.64,BRADFORD MOOR PRACTICE,-1.721849,53.797834
7525.02,DR SPENCER & PARTNERS,-0.677325,52.359891
3509.02,SMALLFIELD SURGERY,-0.118564,51.171722
4958.88,CHURCH STREET PRACTICE,-1.425847,51.598763
6,HUMBER ROAD SURGERY,0.48396,51.747558
540.13,PAT HMR COMMUNITY SERVICE,-2.229502,53.517882
5583.33,BALSALL COMMON & MERIDEN GROUP PRACTICE,-1.643862,52.394956
27.5,RESPIRATORY CNS (AWC),-1.962695,53.898015
12116.47,CHELMER MEDICAL PARTNERSHIP,0.459513,51.749313
303,NHS EASTERN CHESHIRE CCG NMP'S,-2.12262,53.257964
184.64,URGENT CARE CENTRE DARLINGTON OOH,-1.563733,54.530374
2024.34,DR RC RAUTRAY'S PRACTICE,-2.475521,53.752542
4367.17,CLARENDON LODGE MEDICAL CENTRE,-1.531715,52.294043
11174.82,ORCHARD 2000 GROUP,-0.370022,53.786372
7364.46,GOSPORT MEDICAL CENTRE,-1.147265,50.79354
692.17,LANGTHORNE SHARMA FAMILY PRACTICE,0.0021,51.555415
3600.54,FARMHOUSE SURGERY,-1.7595,50.736437
9.05,UHSM COMMUNITY SERVICES,-2.25528,53.390625
213.04,AR-RAZI MEDICAL CENTRE,-1.101204,52.623926
3617.98,TAMWORTH HOUSE MEDICAL CENTRE.,-0.146254,51.40122
4345.11,MANSFIELD MEDICAL CENTRE,-1.484577,52.405976
9.3,YATE MINOR INJURIES UNIT (MIU),-2.41621,51.540461
999.81,BELMONT MEDICAL CENTRE,-0.385203,51.500848
3218.39,FAIRHILL MEDICAL PRACTICE,-0.282871,51.417069
21.83,SHROPSHIRE COMMUNITY HEALTH NHS TRUST,-2.789366,52.705844
5814.5,HENLEY GREEN MEDICAL CENTRE,-1.454284,52.428369
1674.5,ADDINGTON MEDICAL PRACTICE,-0.018557,51.344382
3072.22,EDEN PARK SURGERY,-0.041426,51.399335
7083.24,CASTLE PLACE PRACTICE,-3.492865,50.908884
13.8,NORTH NORFOLK HUB 2 (BIRCHWOOD),1.38334,52.820065
2270.88,CROOKES PRACTICE,-1.502259,53.38366
5097.64,THE SIMPSON CENTRE,-0.651318,51.610791
1238.17,UPTON LANE MEDICAL CENTRE,0.026394,51.5431
7717.05,MAYWOOD HEALTH CARE CENTRE,-0.693582,50.786664
6785.8,ASKERN MEDICAL PRACTICE,-1.148909,53.615496
4133.44,CAPTAIN FRENCH SURGERY,-2.748562,54.323429
1038.55,THE NEW SURGERY,-0.660492,51.794471
6227.04,DENTON TURRET MEDICAL CENTRE,-1.686387,54.983928
2853.09,THE EUXTON MEDICAL CENTRE,-2.676836,53.669016
6206.75,FALMOUTH HEALTH CENTRE,-5.08602,50.156398
17117.59,MILLGATE HEALTHCARE PARTNERSHIP,-2.118464,53.455602
283.93,LUTHER STREET MEDICAL PRACTICE,-1.258255,51.747356
2470.17,SOUTHFIELD WAY SURGERY,-2.018733,52.658391
4135.33,NEW COURT SURGERY,-2.30878,52.113538
5179.72,WINDRUSH SURGERY,-1.343294,52.058899
3865.52,DR GC CHAJED'S PRACTICE,0.465396,51.564483
297.19,STAR SCHEME EXTENDED,-1.068807,54.599299
3261.95,NORTH SHOEBURY SURGERY,0.784481,51.542211
8666.9,SPRINGS HEALTH CENTRE,-1.265531,53.27774
308.86,VERITAS HEALTH CENTRE,-1.481026,53.354257
2832.73,HEATH LANE MEDICAL CENTRE,-2.86384,53.188961
5485.16,CAMPINGLAND SURGERY,0.690978,52.645997
3064.09,PARK VIEW SURGERY,-2.77111,54.227652
1262.98,AYLESTONE HEALTH CENTRE,-1.152678,52.605677
386,LCHS NMP,-0.52415,53.226467
189.16,CHOICE PLUS,-2.0815,51.906706
1354.81,CHARMOUTH MEDICAL PRACTICE,-2.903858,50.738665
1674.13,THE CRESCENT MEDICAL CTR.,-0.876393,52.250449
2080.95,NORTON CANES HEALTH CENTRE,-1.970246,52.673977
4349.37,VILLAGE SURGERY,-1.896468,50.741178
161.7,UNIVERSITY HEALTH CENTRE,-0.548748,53.229537
6.3,ISLINGTON PCCS,-0.091116,51.527895
4115.86,GORDON HOUSE SURGERY,-0.31522,51.509944
5430.21,FULLWELL CROSS MED. CTR.,0.083782,51.594621
5657.07,VISTA ROAD SURGERY,-2.645459,53.457808
3365.81,SANDS END HEALTH CLINIC,-0.191391,51.473128
733.21,WELLINGTON HEALTH CENTRE,-0.171284,51.532275
11649.89,BALL TREE SURGERY,-0.338832,50.831767
7763.5,KINGFISHER FAMILY PRACTICE,-0.950634,53.325451
3640.65,ABBEY ROAD SURGERY,-0.030102,51.684417
4520.07,LONDON LANE CLINIC,0.008653,51.415223
7585.74,IVY COURT SURGERY,0.690221,51.068039
2276.42,THE SURGERY,-2.605295,53.024859
1828.46,DR SHARMA & PARTNERS,0.447593,51.588181
2558.67,THE OAKS MEDICAL CENTRE,-1.215186,52.928031
9449.64,THE PARK MEDICAL PRACTICE,-2.739045,53.77018
1349.35,WARRIOR SQUARE SURGERY,0.716503,51.539534
3467.52,CHOBHAM & WEST END MEDICAL PRACTICE,-0.602516,51.34981
165.25,HP NMP'S N & S CCG,-1.143101,53.130244
3067.59,NENE VALLEY SURGERY,-0.537451,52.399796
1508.06,AILSWORTH MEDICAL CENTRE,-0.352472,52.577435
14219.05,BLOOMFIELD MEDICAL CENTRE,-3.043644,53.804417
2214.82,KINGS ROAD MEDICAL CENTRE,-0.184768,51.480355
6771.16,SEVERN VALLEY MEDICAL PRACTICE,-2.235045,52.190415
9310.71,HOCKLEY FARM MED PRACT (A NANA),-1.183899,52.630898
494.91,EAST ENFIELD PRACTICE,-0.046596,51.649065
2308.54,THE AZAD PRACTICE,0.044868,51.531234
4709.14,MELBOURNE PARK MEDICAL CENTRE,-1.192728,52.975767
5153.78,THORPEWOOD MEDICAL GROUP,1.341071,52.641956
3768.54,ST.HELENS MEDICAL CENTRE,-1.109209,50.698751
1888.11,EDEN SURGERY,-1.30159,52.962668
1743.99,THE HOXTON SURGERY,-0.086829,51.533527
1.5,S. LEEDS CAMHS - PARKSIDE,-1.547737,53.771599
1209.95,DR MARKS PRACTICE,0.192379,51.572553
1059.73,BRENTFORD FAMILY PRACTICE,-0.310054,51.48676
8432.54,MANOR AND PARK GROUP PRACTICE,-1.42716,53.373705
2863.17,BIRD-IN-EYE SURGERY,0.105639,50.96595
2763.48,LONGFIELD MEDICAL PRACTICE,-2.28357,53.533828
1764.24,THE HALING PARK PARTNERSHIP,-0.098109,51.357113
1454.79,DR RB KUMAR PRACTICE,0.800566,51.327757
5631.57,HANDSWORTH MEDICAL PRACTICE,-1.383405,53.371708
4176.83,MOSBOROUGH HEALTH CENTRE,-1.364873,53.325238
2619.44,CRABBS CROSS SURGERY,-1.943704,52.281407
218.56,I HEART BARNSLEY,-1.506899,53.547954
34547.09,MIDLANDS MEDICAL PARTNERSHIP,-1.81313,52.519802
3618.17,THE HEALTH CARE SURGERY,-1.487911,53.42172
2389.23,HYTHE MEDICAL CENTRE SURGERY,-0.526274,51.429608
1132,THE LEIGH SURGERY,0.656153,51.555504
7648.34,WILLOW BANK SURGERY,-2.102853,52.97847
4310.96,PARK MEDICAL CENTRE,-2.873099,53.202665
85.53,COMMUNITY SERVICES NURSE PRESCRIBERS,-0.487256,51.892609
3964.31,THE NEW CONINGSBY SURGERY,-0.173849,53.105092
2205.68,THE STATHAM GROVE SURGERY,-0.08946,51.557463
6271.63,CROWN HOUSE SURGERY,-0.950634,53.325451
2007.2,BARN SURGERY,-0.447347,50.813953
90,PRIMARY CARE MANCHESTER LIMITED,-2.214292,53.489633
639.72,CRICKLADE SURGERY,-1.85646,51.640614
3364.52,WOODGATE VALLEY HEALTH CENTRE,-1.991423,52.442663
4103.36,CROSS ROAD SURGERY,-2.464849,50.602187
2188.77,ST PETER'S MED CENTRE (MANSINGH & MEHRA),-1.119092,52.631036
14.52,HMR CCG HART,-2.152215,53.620446
3985.97,JRB HEALTHCARE BEECHDALE SURGERY,-1.198142,52.961504
5754.47,CHEETHAM HILL PRIMARY CARE CENTRE,-2.23526,53.501162
1481.2,CROSSWAYS PRACTICE,-3.023992,53.484655
1456.93,HOUNSFIELD SURGERY,-0.811033,53.183702
2759.16,HADDENHAM MEDICAL CENTRE,-0.921732,51.777822
5478.04,LISTER HOUSE SURGERY,-0.227126,51.764574
6673.35,NETTLEHAM MEDICAL PRACTICE,-0.476253,53.262865
47.5,NORTH DEVON TRUST NMPS,-3.413654,50.729414
2331.43,CUMBERLAND MEDICAL CENTRE,0.026047,51.519716
13506.31,THE RIDINGS MEDICAL GROUP,-0.622066,53.765218
5487.81,STANMORE HOUSE SURGERY,-2.231468,52.391138
1983.06,DR BK JAISWAL'S PRACTICE,0.125595,51.538934
14866.15,THE OVER-WYRE MED.CTR.,-2.976492,53.928203
10474.05,DOCTOR LANE HEALTH CENTRE,-1.696722,53.675715
7356.42,NEWPORT PAGNELL MED.CTR.,-0.725298,52.086465
11151.69,TRAFALGAR MEDICAL GROUP PRACTICE,-1.092485,50.785331
6203.08,LONDON ROAD SURGERY,0.519034,51.613356
8403.92,LEEDS CITY MEDICAL PRACTICE,-1.555879,53.778323
3896.88,NORTHGATE SURGERY,-1.866567,52.899272
5548.06,AMWELL SURGERY,-0.013312,51.759904
7025.62,THE VILLAGE PRACTICE,-3.014553,53.876825
1160.75,240 WEXHAM ROAD,-0.57838,51.516902
1021.96,THE JUBILEE PRACTICE,-1.003945,53.013557
44.5,TENBURY COMMUNITY HOSPITAL WARD,-2.589551,52.315401
7364.45,LONG LANE,-2.925005,53.456024
4148.37,GREYSTOKE SURGERY,-1.683424,55.171694
1865.52,KINGSTON HEALTH CENTRE,-0.304894,51.414188
5895.09,NORTH TRAFFORD GROUP PRACTICE,-2.299481,53.453882
411.39,SMS MEDICAL PRACTICE,-0.306785,51.549713
7074.24,STRATTON MEDICAL CENTRE,-4.516205,50.830225
4014.94,PARK FARM MEDICAL CENTRE,-1.495809,52.94407
4880.9,42 KINGSWAY,-3.020167,53.481011
7621.35,HELSTON MEDICAL CENTRE,-5.270081,50.099592
2095.76,BURSLEDON SURGERY,-1.317111,50.890052
2548.88,WYRESDALE ROAD SURGERY,-2.452196,53.581577
27.62,PRIMARY CARE DVT SERVICE,-2.473916,53.76497
3514.63,THE MEDICAL CENTRE,-0.476068,51.50442
5569.49,THE GLENFIELD SURGERY,-1.196305,52.655381
7422.49,TRENTSIDE MEDICAL GROUP,-1.074629,52.964659
2013.64,THE NEW FOLLY SURGERY,0.384799,51.669624
7.5,WHITBY GP OOH,-1.112167,53.976819
8168.73,SWANSCOMBE HEALTH CENTRE,0.28731,51.424657
986.45,UPPER HALLIFORD MEDICAL CENTRE,-0.43115,51.411378
3148.55,NESTON MEDICAL CENTRE,-3.064349,53.291818
3450.45,DROYLSDEN MEDICAL PRACTICE,-2.145664,53.487166
3982.64,CEDARS MEDICAL GROUP,-1.740442,54.90557
1378.89,DR VM PATEL,0.228776,51.561113
1590.85,UNITY SURGERY,-1.103411,52.980422
6649.84,FOREST PRACTICE,0.075235,51.654789
4877.53,HOLTS HEALTH CENTRE,-2.406966,51.931555
2155.08,GUN LANE MEDICAL CENTRE,0.493189,51.397398
379.19,URGENT CARE CENTRE (ERITH),0.166643,51.477113
1374.6,WESTFIELD MEDICAL CENTRE,-1.531703,53.817673
693.43,GOLDINGTON ROAD SURGERY,-0.456174,52.140172
352.49,PRESTON MEDICAL CENTRE,-0.292579,51.564335
3392.32,WOODHALL SPA NEW SURGERY,-0.207041,53.153263
8522.46,THE NEW SURGERY,1.181851,51.089152
1591.19,GLENDALE MEDICAL CENTRE,-0.434503,51.490429
7615.87,FRIARSGATE PRACTICE,-1.336797,51.074249
1574.81,VESTA ROAD SURGERY,-0.040618,51.468737
5304.78,GRAVEL HILL SURGERY,-2.185723,52.534052
100.84,SHROPDOC OUT OF HOURS,-2.732712,52.740396
3028.1,LEACROFT MEDICAL PRACTICE,-0.196029,51.126566
5587.32,PEEL HALL MEDICAL CENTRE,-2.265017,53.379925
4916.7,TILEHURST VILLAGE SURGERY,-1.042269,51.461233
6735.95,BUDSHEAD MEDICAL PRACTICE,-4.150289,50.417443
2170.42,SOUTH SAXON HOUSE SURGERY,0.526723,50.868702
3225.55,ELTHAM PALACE PMS,0.053714,51.449946
4773.4,RIVERPORT MEDICAL PRACTICE,-0.075654,52.343316
5834.18,DR KK CHAN & PARTNERS,-2.489022,53.524185
936.21,ROTTON PARK MEDICAL CENTRE,-1.947079,52.482162
7248.69,AYLMER LODGE COOKLEY PARTNERSHIP,-2.261095,52.38419
3717.73,FRAMLINGHAM SURGERY,1.334192,52.227216
725.23,LANCASTER GATE MEDICAL CENTRE,-0.183362,51.511753
1803.03,PENNINE SURGERY,-2.103349,53.642995
10142.13,MARLBOROUGH SURGERY,-1.33549,54.835804
4213.27,DR INGRAM & PTRS,-1.526892,54.136451
3589.13,MOULTON MEDICAL CENTRE,-0.062945,52.79766
12.34,COMMUNITY NURSING (H&R),-1.438367,54.350666
8878.77,RAJ MEDICAL CENTRE,-0.113968,53.550655
2645.89,LINDEN ROAD SURGERY,-0.479248,52.14361
7572.55,DAWLEY MEDICAL PRACTICE,-2.466781,52.664322
600.45,CHCP - URGENT CARE OOH,-0.373324,53.729806
1499.04,ST SAVIOURS SURGERY,-2.308488,52.130324
18,IC24 LTD (CRAWLEY OOH),0.891514,51.129106
2429.81,THE GLEBE FAMILY PRACTICE,0.544473,51.383164
1383.65,WESTFIELD SURGERY,-2.458993,51.284957
8716.85,HILLSIDE PRACTICE,-0.981124,54.56313
5684.14,EAST PARK MEDICAL CENTRE,-1.514944,53.793168
250.2,READING WALK-IN HTH CTR OOH,-0.975896,51.454809
1836.68,OAK GLEN SURGERY,-1.816352,53.854799
181.63,HUC WEST ESSEX OOH,-0.191727,51.782567
4190.4,ROSEGARTH SURGERY,-1.871551,53.714895
2908.85,THE HOLLIES SURGERY,0.374326,52.603925
5015.1,ONGAR HEALTH CENTRE,0.246278,51.716938
3718.26,SUMMERTOWN HEALTH CENTRE,-1.26328,51.774383
3690.09,STANHOPE PARADE HEALTH CENTRE,-1.431179,54.984988
10205.61,BURLEIGH MEDICAL CENTRE,-1.477568,53.549879
4314.94,THE BOULEVARD MEDICAL PRACTICE,-1.86759,53.716715
605.76,BROADHURST ST MED PRACT (KS MORJARIA),-1.118671,52.653472
339.4,THE ACTON HEALTH CENTRE,-0.270199,51.506214
6957.18,SEVERN FIELDS MEDICAL PRACTICE,-2.721619,52.728047
1715.03,KUDRA (WOODLAWN),-0.366673,51.444444
4820.52,GRAINGER & SCOTSWOOD MEDICAL PRACTICES,-1.640452,54.969316
511.6,GEORGE ELIOT MEDICAL CENTRE,-1.506534,52.419528
6231.31,ANFIELD GROUP PRACTICE,-2.945317,53.429436
5798.34,COLLIERY COURT MEDICAL GROUP,-1.460703,54.949762
1334.67,GREENBANK DRIVE SURGERY,-2.930424,53.38977
3511.37,NEWTONS PRACTICE,-0.103899,51.000679
3599.91,I J HEALTHCARE,-1.531354,54.88104
675.85,SCOTS GAP MEDICAL GROUP,-1.940563,55.172746
7.5,EPCS WOMENS HEALTH - WESTBOURNE GREEN,-1.77624,53.807296
23,GPSI DERMATOLOGY SERV EATON SOCON HUNTS,-0.286916,52.222579
5300.44,MORETON CROSS GROUP PRACTICE,-3.111975,53.403551
7339.73,SHERINGHAM MEDICAL PRACTICE,1.214777,52.939688
2085.59,GRANVILLE MEDICAL CENTRE,0.07096,51.563158
7424.18,JAMES WIGG PRACTICE,-0.139955,51.546404
4643.34,THE WELLSPRING SURGERY,-1.136804,52.962324
37116.63,OCTAGON MEDICAL PRACTICE,-0.103578,52.622001
4729.55,LITTLEBURY MEDICAL CENTRE,0.01909,52.801863
2482.71,GROVE VILLAGE MEDICAL CENTRE,-0.43095,51.449161
27.8,BRIGHTON STATION WALK-IN,-0.141323,50.827937
8628.02,COWPLAIN FAMILY PRACTICE,-1.017682,50.894248
215.56,THE JUNCTION HC - UNREGISTERED PATIENTS,-0.170756,51.465228
10878.73,BOSWORTH MEDICAL CENTRE,-1.753633,52.480569
3627.9,THE HERON PRACTICE,-0.093757,51.568531
4102.51,WESTWAY MEDICAL CENTRE,-2.943932,53.515597
699.35,AL-WAQAS MEDICAL CENTRE,-1.108413,52.62906
8091.55,UPWELL HEALTH CENTRE,0.224238,52.59997
3522,RAMSEY HEALTH CENTRE,-0.108107,52.448482
6182.25,FAIRBROOK MEDICAL CENTRE,-0.272179,51.659777
1017.88,PARTNERSHIP PRIMARY CARE CENTRE,-0.120993,51.554717
7771.49,PWE HEALTHCARE PENDLE,-2.21885,53.838042
1865.19,HIGHGREEN PRACTICE (KHAN),-1.171945,52.964495
1205.12,GREEN PRACTICE,-0.371755,51.468263
2246.85,AVHAC REGISTERED PATIENTS,-2.366921,53.759584
2106.05,EAST END MEDICAL CENTRE,0.025228,51.537311
3,BOLTON OOH,-2.424635,53.592518
1069.54,PRINGLE STREET SURGERY,-2.467594,53.742039
5351.91,THE LANGTON MEDICAL GROUP,-1.837644,52.696405
19.99,URGENT CARE CENTRE BISHOP AUCKLAND,-1.678547,54.655848
1357.7,SOUTHGLADE MEDICAL PRACTICE,-1.17363,52.99873
3,PURFLEET HUB,0.235437,51.489743
9,EXTENDED ACCESS PCD SAME DAY HC,-1.124432,53.522173
9216.15,GEORGE CLARE SURGERY,0.051852,52.457422
4650.23,ROWDEN SURGERY,-2.125101,51.453853
8076.94,THE LIGHTHOUSE MEDICAL PRACTICE,0.281363,50.765632
3321.77,STOKESLEY SURGERY,-1.194366,54.470898
33.69,RICHARDSON COMMUNITY HOSPITAL,-1.916153,54.545708
1980.5,BALLIOL ROAD SURGERY,-1.471449,52.415924
5311.01,HORSMAN'S PLACE SURGERY,0.214952,51.442468
4731.12,THE VILLAGE SURGERIES GROUP,-2.771265,53.124246
42.52,MERTON CCG SLDUC OOH,-0.283378,51.412517
3195.95,THAXTED SURGERY,0.343457,51.95519
548.33,EAST BERKS PRIMARY CARE OOH(WAM),-0.763252,51.415712
2408.01,SANDMERE PRACTICE,-0.127558,51.462594
4903.37,THE GABLES MEDICENTRE,-1.508288,52.440912
10858.87,THE CASTLE MEDICAL GROUP,-2.3932,53.873954
3043.56,THE RIVERSIDE HEALTH CTR,1.060732,51.945725
2640.98,RYALLS PARK MEDICAL CENTRE  YEOVIL,-2.640872,50.951832
1167.22,LIMBRICK WOOD SURGERY,-1.578558,52.406833
1657.86,DARLASTON HEALTH CENTRE-KHAN,-2.036323,52.56617
1301.4,WOLSTON SURGERY,-1.392727,52.376806
3512.71,JAUNTY SPRINGS HEALTH CENTRE,-1.417896,53.347684
1128.66,THE PRACTICE HEART OF HOUNSLOW,-0.371755,51.468263
4729.49,NETHERTON HEALTH CENTRE,-2.079024,52.487973
6223.04,FOREST HOUSE SURGERY,-1.287289,52.766681
5829.64,NEWBOLD SURGERY,-1.450706,53.256108
5850,LONGSHORE SURGERIES,1.717841,52.420772
3715.84,BARBARA CASTLE HEALTH CENTRE,0.073795,51.748894
168.35,AT HOME SERVICE,-0.10603,51.438104
3303.29,THORNBURY HEALTH CENTRE - BURNEY,-2.517723,51.612861
5853.15,CHARTER MEDICAL CENTRE,-0.156741,50.831254
15526.42,VINE MEDICAL GROUP,-1.035063,50.878251
4702.38,PRIORY ROAD MEDICAL CENTRE,-1.747812,51.552763
1147.04,DR JO ARAYOMI'S PRACTICE,0.505558,51.567734
8638.49,GRAFTON MEDICAL PARTNERS,-0.171386,51.424951
3145.03,LABURNUM SURGERY,-1.56822,55.182043
12734.29,GLENROYD MEDICAL CENTRE,-3.033503,53.849555
6833.36,WATERLOO HOUSE SURGERY,-3.268021,54.20894
3864.39,ELM LANE SURGERY,-1.460525,53.421626
2920.03,LISSON GROVE HEALTH CENTRE,-0.169323,51.524736
2015.31,HAMMERSMITH & FULHAM CENTRES FOR HEALTH,-0.234721,51.51742
5465.56,MANOR SURGERY,-1.215037,51.761474
969.42,COCKHEDGE MEDICAL CENTRE,-2.589833,53.390932
1.5,SMITHDOWN CHILDRENS NHS WALK IN CENTRE,-2.934843,53.393088
6558.99,SEASIDE MEDICAL CENTRE,0.294614,50.773566
5419.4,GLEADLESS MEDICAL CENTRE,-1.451325,53.356551
890.41,BROOKSIDE SURGERY,-1.399088,52.35048
2589.95,LUNESDALE SURGERY,-2.602213,54.200573
1408.26,HAZELDENE MEDICAL CENTRE,-0.275394,51.547592
1.5,GREENWICH COMMUNITY HEALTH SERVICES,0.174741,51.434795
3831.41,GUDGEHEATH LANE SURGERY,-1.205575,50.859752
4690.66,ST GEORGE'S MEDICAL CENTRE PMS PRACTICE,-1.482825,53.57906
8304.9,PARK SURGERY,-0.327381,51.064354
2364.18,LILLIPUT SURGERY,-1.954229,50.711523
3943.16,PEDMORE MEDICAL PRACTICE,-2.118211,52.457029
2998.49,DISHLEY GRANGE MEDICAL PRACTICE,-1.240459,52.779192
272,ST. KATHERINE'S DOCK PRACTICE,-0.068285,51.506983
6742.19,CHAPELTHORPE,-1.507287,53.644526
292.21,BADGER GROUP OOH,-1.877826,52.477589
1984.16,RAYMOND ROAD SURGERY,-1.419748,50.91941
28.2,JULIAN HOUSE HEALTHCARE SERVICE,-2.356708,51.378725
2763.37,2/IRLAM MEDICAL PRACTICE,-2.432258,53.437925
11772.05,BEDWORTH HEALTH CENTRE,-1.472657,52.478626
2609.82,LIGHTWATER SURGERY,-0.664016,51.351903
864.85,SUNRISE MEDICAL CENTRE,-0.382255,51.51087
2700.37,NEWPORT SURGERY,0.208995,51.982816
3996.32,THE GLEBE PRACTICE,-0.670912,53.270911
2688.07,BRICKFIELDS SURGERY,0.605168,51.653143
46,WARRINGTON COMMUNITY RESPIRATORY SERVICE,-2.610717,53.393973
7682.4,LANGPORT SURGERY,-2.827561,51.037993
1645.63,BARNSLEY ROAD SURGERY,-1.45693,53.425089
1376.78,LISTER HOUSE SURGERY,-0.4515,51.89192
9.93,SUNDERLAND COMMUNITY PAEDIATRICS TEAM,-1.410327,54.902214
8991.29,GRAHAM ROAD SURGERY,-2.97439,51.34467
3488.03,HILL TOP SURGERY,-2.100756,53.52011
4683.88,GRANGEWOOD SURGERY,-1.498711,54.866414
3801.41,STABLE FOLD SURGERY,-2.52343,53.552405
2405.39,CITY ROAD MEDICAL CENTRE,-0.091116,51.527895
3975.05,CONISTON MEDICAL PRACTICE,-2.584043,51.538567
4374.14,PARKFIELD MED CTR,-3.00005,53.363076
7259.89,GRANGE ROAD SURGERY,-2.61945,51.413052
3942.9,THE HAWTHORNS SURGERY,-1.825965,52.538746
1081.9,DR RAHIL'S SURGERY,-2.693285,53.464803
3527.9,CASTLEFIELDS,-2.129518,52.801013
2445.1,SHEET STREET SURGERY,-0.605507,51.479648
2549.03,GLOUCESTER HOUSE MEDICAL CENTRE,-2.352599,53.447337
26604.69,HEREFORD MEDICAL GROUP,-2.720274,52.058534
5402.87,CLAYPATH & UNIVERSITY MEDICAL GROUP,-1.56716,54.7787
4411.54,HEATH HAYES HEALTH CENTRE,-1.988284,52.69062
646.78,SHAKESPEARE HEALTH CENTRE,-0.437018,51.498422
5804.51,OXFORD STREET SURGERY,-3.550576,54.64373
3058.56,HOLMLANDS MED CTR,-3.060475,53.37273
6966.8,LONGFIELD MEDICAL CENTRE,0.678834,51.729336
3316.5,NORTON CANES PRACTICE,-1.970246,52.673977
5712.41,THE ENDEAVOUR PRACTICE,-1.235397,54.575047
3107.99,COWGILL SURGERY,-1.814543,53.781952
744.42,DR MB GHAFOOR & PARTNERS,-2.154239,53.611617
6042.03,BLYTH ROAD MEDICAL CENTRE,-1.20365,53.422231
1403.21,KADIM PRIMECARE MEDICAL CENTRE,0.330602,51.479903
760.4,THE MOUNTFIELD SURGERY,-0.19422,51.595001
3857.06,WOOLTON HOUSE MEDICAL CTR,-2.867143,53.375388
3371.37,THE CENTRAL SURGERY,-1.082204,52.598976
1903.89,ELLIS PRACTICE,-0.276552,51.563894
7501.79,PRIORY MEDICAL GROUP,-1.450123,55.010031
2291.51,THE CHESTNUTS & HALLGATE SURGERY,-0.403621,53.778985
2094.96,RUSSELL STREET SURGERY,-0.982888,51.452326
2199.43,RUGBY ROAD SURGERY,-1.419352,52.476714
4578.1,TADCASTER MEDICAL CENTRE,-1.25824,53.885494
7850.35,CLARENDON MEDICAL PRACTICE,-2.284742,53.488361
6453.1,WARDERS MEDICAL CENTRE,0.279212,51.19741
2983.31,RIVERSIDE PARTNERSHIP,-0.893061,51.043814
809.06,PLUMBRIDGE MEDICAL CENTRE,-0.013986,51.473207
2928.19,BERINSFIELD HEALTH CENTRE,-1.176774,51.663989
4026.14,ELLIOTT HALL MEDICAL CTR.,-0.362526,51.608476
2490.31,ROYTON MEDICAL CENTRE,-2.12386,53.565731
4432.47,LUDLOW - PORTCULLIS,-2.715958,52.368905
515.21,ESTUARY MEDICAL PRACTICE,-3.183089,53.373492
1737.17,COLNEY HATCH LANE SURGERY,-0.147555,51.600731
5556.21,NORWOOD SURGERY,-2.97819,53.650008
1554.22,BINBROOK SURGERY,-0.178896,53.42766
6953.45,CHEADLE MEDICAL PRACTICE,-2.213539,53.393745
5650.8,CUMBERLAND HOUSE SURGERY,-2.990437,53.638743
7928.61,WOLSELEY MEDICAL CENTRE,-0.355069,53.746195
1836.72,THE ARGYLE SURGERY,-0.322592,51.520337
7988.69,PROSPECT MEDICAL CENTRE,-1.646189,54.974185
6465.52,THORNDIKE SURGERY,0.502879,51.380805
8002.12,MOORE STREET MEDICAL CENTRE,-3.002523,53.458715
3910.25,CHURCH WALK SURGERY,-0.39973,53.13783
1697.61,DR GUPTA,0.164714,51.582916
5936.54,HUCKNALL ROAD MEDICAL CENTRE,-1.168398,52.990092
3025.67,HARTSHILL MEDICAL CENTRE,-2.210624,53.009925
2256.12,THE CROFT MEDICAL CENTRE,-1.068661,52.5939
3975.03,YELVERTON SURGERY,-4.082824,50.491344
4.5,PC EXT ACCESS CHILTERN VALE HEALTH,-0.525854,51.884638
3023.72,THE BILLESDON SURGERY,-0.93947,52.618174
2601.11,BATTERSEA FIELDS PRACTICE,-0.154867,51.473666
4612.11,STIRLING MEDICAL CENTRE (MATHEWS),-0.05904,53.573513
3170,TODDINGTON MEDICAL CENTRE,-0.530482,51.945856
17.1,PARSONS GREEN WIC,-0.199155,51.47377
5335.82,THE GREENS HEALTH CENTRE,-2.099175,52.529005
3492.72,HOPE HOUSE SURGERY,-2.447646,51.291794
7.5,SOLENT WEST NMPS,-1.446031,50.92524
3467.29,THE SURGERY,-1.367146,52.726986
2629.77,ABBEY MEDICAL CENTRE,-0.185132,51.537921
5009.42,WINSCOMBE SURGERY,-2.830537,51.315196
7542.28,LANGLEY HEALTH CENTRE,-0.541284,51.495313
8448.43,CROWN HEIGHTS MEDICAL CENTRE,-1.086312,51.267188
5919.49,MERTON LODGE SURGERY,0.173148,53.259654
5047.11,THE WATERLOO PRACTICE,-1.737438,53.645186
1774.14,MARTLESHAM SURGERY,1.272068,52.061314
1214.81,WARWICK GATES FAM.HTH.CTR,-1.53869,52.268666
4162.29,MIDDLEWAY SURGERY,-4.713217,50.356439
3852.52,SWINGBRIDGE SURGERY,-0.662707,52.901355
25981.89,NEWGATE MEDICAL GROUP,-1.123405,53.301065
8217.88,NORTHFIELD SURGERY,-0.966348,53.613648
2398.37,HEALD GREEN HEALTH CENTRE 1,-2.229276,53.369878
1856.09,HOWARD STREET MEDICAL PRACTICE,-1.94969,53.445062
603.64,QUINCY RISE SURGERY,-2.129544,52.467436
4982.4,ALVASTON MEDICAL CENTRE,-1.429622,52.893808
2889.47,GILLMOSS MEDICAL CENTRE,-2.897849,53.459458
4145.38,ST EDWARDS MEDICAL CENTRE,0.181741,51.580341
6760.48,PRACTICE TWO,-0.201064,54.084715
6870.69,3/SPRINGFIELD HOUSE MEDICAL PRACTICE,-2.362019,53.480252
1974.62,MILLBANK MEDICAL CENTRE,-0.130231,51.49403
8509.29,PARKLANDS MEDICAL PRACTICE,-1.781051,53.761106
7598.53,WELLINGTON ROAD SURGERY,-2.3789,52.764241
4414.8,PARK LANE SURGERY,-2.12262,53.257964
3723.85,THE LENNARD SURGERY,-2.613084,51.425915
3198.02,DR SEABROOK,-2.632499,53.55143
1787.72,MILDMAY MEDICAL PRACTICE,-0.085731,51.552474
6445.5,STILLMOOR HOUSE MEDICAL PRACTICE,-4.720038,50.471929
1.5,COMMUNITY SERVICES,-0.175694,51.426682
3,NT&H COMM CARDIAC N,-1.227837,54.702398
1789.58,ALLERTON MEDICAL CENTRE,-1.533879,53.826921
762.5,CLIFFORD HOUSE MEDICAL CENTRE,-0.406678,51.447323
1518.69,FOUNTAINS MEDICAL PRACTICE,-2.892972,53.195093
6765.04,ORCHARD CROFT,-1.54984,53.660001
2448.54,CROWN STREET SURGERY,-0.2738,51.507391
343.65,ST HELENS ROTA OOH,-2.750335,53.45324
5003.65,COLNE VALLEY GROUP PRACTICE,-1.928213,53.602096
5916.47,SOUTH PARK SURGERY,-2.12262,53.257964
1864.01,BERE REGIS SURGERY,-2.219824,50.752538
1501.65,SHIRLAND ROAD MEDICAL CENTRE,-0.203904,51.5292
5125.99,THE ISLAND SURGERY,0.591014,51.520226
4425.8,FAMILY PRACTICE,-2.216357,53.554714
1.5,GPSI CARDIOLOGY - WESTCLIFFE,-1.781103,53.830481
6078.72,CHURCHILL MEDICAL CENTRE,-0.288192,51.413388
7.5,BROADWAY (SWBCCG) MALLING HEALTH OOH,-2.02775,52.527792
126.78,WARWICKSHIRE GP OOH,-1.478439,52.51258
5144.45,THE WINDMILL PRACTICE,-1.13475,52.951951
4001.36,HOLLY BANK SURGERY,-2.724149,53.454211
6435.54,HALL GROVE GROUP PRACTICE,-0.181801,51.78932
1046.05,RUTLAND HOUSE SURGERY,-0.14424,51.594563
2044.23,PEMBROKE ROAD SURGERY,-2.618518,51.464336
1300.73,OLD TOWN SURGERY,-1.796355,51.550429
180.56,PUTNOE MEDICAL CENTRE WALK IN CENTRE,-0.438308,52.147939
773.13,MEDICUS HEALTH PARTNERS-RILEY HOUSE,-0.043984,51.664416
1.5,TOGETHER4HEALTHCARE LIMITED (DKA),-1.997982,52.516003
2354.29,ANDOVER MEDICAL CENTRE,-0.116461,51.561766
2346.49,CHURCH STRETTON MEDICAL CENTRE,-2.806169,52.537286
4011.57,BARLBOROUGH MEDICAL PRACTICE,-1.284471,53.289528
1542.72,HOSSAIN PRACTICE,-2.156747,53.509855
1530.94,DR P & S POOLOGANATHAN,0.175968,51.560718
79.72,PRIMARY HEALTHCARE DARLINGTON,-1.561958,54.528141
5783.01,NEW COLLEGIATE MEDICAL CENTRE,-2.236077,53.504378
2056.53,MANCHESTER ROAD SURGERY,-1.521086,53.380573
3695.43,FRESSINGFIELD MEDICAL CENTRE,1.310808,52.347219
4986.3,THE CROFT SURGERY,-0.657769,50.841375
3261.13,WEST TIMPERLEY MEDICAL CENTRE,-2.353117,53.402699
576.37,QUEENS AVENUE PRACTICE,-0.147916,51.591852
7547.21,NORTHUMBERLAND HOUSE SURGERY,-2.261095,52.38419
6546.1,OXTED HEALTH CENTRE,9.9e-05,51.257686
3839.02,MUCH WENLOCK & CRESSAGE MEDICAL PRACTICE,-2.559942,52.595605
1394.05,BURMA HILL PRACTICE,-0.824887,51.417902
397.18,THE MANOR PARK PRACTICE,0.057339,51.55393
7767.74,KNOWLE HOUSE SURGERY,-4.134098,50.40863
620.45,DR A PATEL,0.140105,51.573716
2407.2,FRIENDS ROAD MEDICAL PRACTICE,-0.094795,51.371276
1358.86,DR A ARIF,0.115343,51.551395
3115.88,BEAUMONT LODGE MEDICAL PRACTICE,-1.160488,52.658279
1341.11,DR SOORIAKUMARAN,0.698888,51.557721
1951.58,ST. JOHN'S STREET SURGERY,-0.499539,52.115134
1037.9,HERTS URGENT CARE W/H OOH,-0.191727,51.782567
2912.6,HEALD GREEN HEALTH CENTRE 2,-2.229276,53.369878
210.74,IC24 LTD(THURROCK)OOH,0.496195,51.591456
164.41,THE HEALTH XCHANGE,-1.899156,52.48606
5777.29,ABINGTON MEDICAL CENTRE,-0.865891,52.253262
2342.38,BIGHAM ROAD MEDICAL CENTRE,-2.945994,53.413783
800.72,KINGSBURY HEALTH AND WELLBEING,-0.265508,51.591733
1190.07,SUNRAY SURGERY,-0.274833,51.382645
3768.98,BUCKLANDS END LANE SURGERY,-1.799863,52.497809
7625.08,TILBURY HEALTH CENTRE,0.36622,51.460987
1.5,COASTAL HEALTH SOUTH,1.715177,52.478072
1520.72,SPA MEDICAL CENTRE,-1.525278,52.284514
1680.02,EVINGTON MEDICAL CENTRE (C KUMAR),-1.106775,52.624264
62.56,BARKANTINE WALK-IN CTR,-0.025725,51.500806
905.25,CHEPSTOW GARDENS MEDICAL CENTRE,-0.37514,51.517624
7628.77,THE MARGARET THOMPSON MED CENTRE,-2.821738,53.345974
2084.52,THE DOCTORS HOUSE,0.094191,51.565389
5508.03,NORTH WOOD GROUP PRACTICE,-0.098493,51.42273
1578.73,MALVERN ROAD SURGERY,0.557404,51.373817
7069.4,PRIORY VIEW MEDICAL CENTRE,-1.575149,53.791635
8425.74,JUBILEE MEDICAL GROUP,-1.580232,54.629667
1054.91,DR DHITAL PRACTICE,-0.003074,51.587786
5443.45,EASTFIELD HOUSE SURGERY,-1.323251,51.395555
6554.73,WILSON PRACTICE,-0.966958,51.153736
1312.56,DR AKHTAR R,-1.932225,52.547439
3449.52,EAST BARNWELL HEALTH CENTRE,0.16722,52.213952
19.11,AIREBOROUGH COMMUNITY CARE,-1.684881,53.866663
3262.72,CHIPPING SURGERY,-2.353843,51.636056
1619.15,STREAMSIDE SURGERY,-2.517723,51.612861
4617.22,NEW MEDICAL CENTRE,-1.388927,53.93028
5357.3,BILLINGE MEDICAL PRACTICE,-2.706951,53.497666
2439.58,CORNERSTONE SURGERY,-2.724149,53.454211
5049.72,GROVE MEDICAL CENTRE,-0.545643,51.43119
1719.04,THE DEVONSHIRE LODGE PRACTICE,-0.397406,51.579266
1034.46,EDGWICK MEDICAL CENTRE,-1.498333,52.432142
8647.45,AUDLEY MILLS SURGERY,0.607129,51.584978
7223.12,WHEATFIELD SURGERY,-0.495144,51.904445
1108.71,DR GWD BHIMA,-2.154239,53.611617
9786.96,THE CEDARS SURGERY,-2.925678,51.357753
5025.61,BOGNOR MEDICAL CENTRE,-0.67724,50.783629
1777.83,WEST HALLAM MEDICAL CTR,-1.359163,52.966624
2229.4,KNOTTY ASH MEDICAL CENTRE,-2.88707,53.419961
5298.59,ISLINGTON HOUSE MEDICAL CENTRE,-2.964605,53.415791
1010.81,HAWTHORN MC,-2.204544,53.443216
3249.92,TOWNSIDE SURGERY,-2.29898,53.59031
656.99,CAMBRIDGE ACCESS SURGERY,0.138701,52.20875
1864.41,THE LYNDHURST SURGERY,-0.003869,51.571964
4636.68,YARM MEDICAL PRACTICE,-1.355519,54.505305
2656.51,BUCKSHAW VILLAGE HEALTH CENTRE,-2.658003,53.678415
3642.73,CHATFIELD MEDICAL CENTRE,-0.182133,51.465863
7586.35,SOVEREIGN PRACTICE,0.302876,50.781493
1741.01,CATSHILL VILLAGE SURGERY,-2.054442,52.366603
996.66,LEICESTER ROAD SURGERY,-1.473177,52.483106
7010.08,MEANWOOD HEALTH CENTRE,-1.565811,53.827167
5390.46,ALTON STREET SURGERY,-2.582971,51.911934
708.5,THORNTON LODGE SURGERY,-1.796027,53.637798
7125.94,THE PEEL MEDICAL PRACTICE,-1.697308,52.634794
6026.56,THE HEADLAND MEDICAL CENTRE,-1.183105,54.696641
256.87,GP EXTENDED ACCESS HUB SERVICE,-0.306785,51.549713
4697.82,MEADOWS SURGERY,-0.151765,50.962136
1624.52,THE RISE GROUP PRACTICE,-0.125007,51.571444
401.18,4/LOWER BROUGHTON MEDICAL PRACTICE,-2.258808,53.49359
6299.62,ASHCROFT SURGERY,-1.712131,53.823092
6926.27,SHOTFIELD MEDICAL PRACTICE,-0.150861,51.357264
8736.46,KILMENY GROUP MEDICAL PRACTICE,-1.921061,53.855716
3067.4,PICKHURST SURGERY,0.010516,51.378032
627.92,UNIVERSITY MEDICAL CENTRE,1.062127,51.296198
1670.55,BINCOTE SURGERY,-0.109238,51.653049
5745.26,GROVE SURGERY,0.751477,52.415441
1433.44,DR S MORCOS,-0.406024,51.380924
4773.03,CHURCH LANE SURGERY,0.557812,51.889826
4684.59,CHORLTON FAMILY PRACTICE,-2.279717,53.443773
1285.27,OXSHOTT MEDICAL PRACTICE,-0.360843,51.333099
7209.13,THE ELIZABETH COURTAULD SURGERY,0.638128,51.941426
2247.33,SUNVALLEY MEDICAL PRACTICE,-2.095095,53.537786
3728.58,PROBUS SURGERY,-4.948542,50.290121
4867.72,THE AVENUE SURGERY,-0.113425,50.844357
893.34,WILMSLOW ROAD SURGERY,-2.222822,53.452153
6634.12,SCARBOROUGH MEDICAL GROUP,-0.441541,54.297615
4373.56,THE HEDGES MEDICAL CENTRE (SA BAILEY),-1.146741,52.591287
3800.67,POOLE ROAD MEDICAL CENTRE,-1.892613,50.72043
3727.42,REEPHAM & AYLSHAM MEDICAL PRACTICE,1.250346,52.793962
22.81,MK HEALTH EXTRA,-0.73576,52.026384
4196.31,BRAMHALL HEALTH CENTRE,-2.162929,53.36001
2683.49,KINGSWOOD SURGERY,0.276363,51.132029
7816.41,STOWHEALTH,0.990419,52.194685
63.95,WIRRAL COMMUNITY NMP,-3.026531,53.380029
6774.18,FOUR ACRE HEALTH CENTRE,-2.723398,53.418906
3407.09,PARKGATE SURGERY,-1.548606,54.523273
2024.48,FIGGES MARSH SURGERY,-0.16199,51.410694
1668.23,BRISET CORNER SURGERY,0.04372,51.458205
1437.46,THE STONEBRIDGE PRACTICE,-0.263604,51.542472
4558.26,HAIGH HALL MEDICAL PRACTICE,-1.715247,53.831119
6477.03,ALBANY SURGERY,-3.607771,50.528674
10915.55,BEACON PRIMARY CARE,-2.806747,53.550182
1310.38,BLACKFRIARS MEDICAL PRACTICE,-0.105775,51.505364
6802.67,HALLGARTH SURGERY,-1.643638,54.634883
1.46,OLDHAM CARES - COMMUNITY SERVICES OLDHAM,-2.100368,53.540675
2136.49,DR A GUPTA BENIM MEDICAL CENTRE,-2.947804,53.419395
10287.3,THE BOSMERE MEDICAL PRACTICE,-0.990581,50.850232
4473.53,MOSELEY AVENUE SURGERY,-1.525425,52.419893
3605.08,ELIZABETH STREET SURGERY,-3.043658,53.820839
4649.63,BENFIELD VALLEY HEALTHCARE HUB,-0.210215,50.838103
6759.74,CHEAM GP CENTRE,-0.225239,51.368621
636.75,MAYBURY SURGERY,-0.53899,51.325599
14216.51,THORNABY & BARWICK MEDICAL GROUP,-1.292128,54.538149
4877.02,MANDALAY MEDICAL CENTRE,-2.432114,53.610583
1562.64,CHURCH ROAD,1.088833,51.129481
2952.05,HEADY HILL SURGERY,-2.241622,53.593657
2106.74,GOLDEN VALLEY PRACTICE,-2.891851,51.952661
1085.85,SELLY PARK SURGERY,-1.916435,52.444045
3814.3,COLEFORD FAMILY DOCTORS,-2.615344,51.79146
2111.55,GREEN STREET GREEN MED CT,0.089996,51.354366
