total_cost,name,longitude,latitude
14834.460000000005,COLVILLE HEALTH CENTRE,-0.206231,51.515837
15078.759999999993,BRICKFIELDS SURGERY,0.605168,51.653143
11098.44,TYNEMOUTH MEDICAL PRACTICE,-0.068331,51.586253
46935.57999999996,TRINITY MEDICAL CENTRE,-0.172008,50.831228
30273.34999999997,THE CEDARS SURGERY,1.403174,51.217619
9417.969999999994,THE KINGS FAMILY PRACTICE,0.534548,51.377821
21088.929999999975,FOUNTAIN PRACTICE,-0.252307,51.350378
14751.149999999987,ST ALBANS MEDICAL CENTRE,-0.302479,51.42195
28237.300000000025,ORCHID HOUSE SURGERY,-1.894499,50.801788
52032.71,THE HADLEIGH PRACTICE,-1.993525,50.761018
52253.67999999997,THREE CHEQUERS MEDICAL PRACTICE,-1.794625,51.071924
39344.37,WEAVERS MEDICAL,-0.733538,52.401531
27219.40999999999,NUFFIELD HEALTH CENTRE,-1.486793,51.786441
40900.210000000036,BARTON SURGERY,-3.473818,50.579848
35304.57000000001,BIDEFORD MEDICAL CENTRE,-4.211785,51.017201
39187.42999999999,CORBETT MEDICAL PRACTICE,-2.148792,52.263269
63500.31000000002,THE WESTGATE PRACTICE,-1.821176,52.683537
10954.509999999998,COBRIDGE SURGERY,-2.187008,53.035377
7912.030000000006,BURBURY MEDICAL CENTRE,-1.9103740000000002,52.502215
25174.24,PLECK HEALTH CENTRE,-1.9980380000000002,52.574248
8761.689999999995,CORNERSTONE SURGERY,-2.724149,53.454211
6323.229999999999,HIGHER HEYS SURGERY,-2.394094,53.740865
31942.06000000001,ALBION MEDICAL PRACTICE,-2.088476,53.48960400000001
41172.07,DELAMERE MEDICAL PRACTICE,-2.307365,53.450887
11889.699999999993,240 WEXHAM ROAD,-0.57838,51.516902
14368.069999999998,LONGFIELD MEDICAL PRACTICE,-2.28357,53.533828
57072.40999999996,THISTLEMOOR MEDICAL CENTRE,-0.254566,52.595274
3053.6099999999974,PALACCI (CASTELNAU),-0.238274,51.476873
9668.569999999987,CANTERBURY HEALTH CENTRE,1.082981,51.274249
940.34,GP EXTENDED HOURS,-2.597522,53.389256
4789.580000000002,BANBURY HEALTH CENTRE,-1.334014,52.062032
8355.99,BRERETON SURGERY,-1.924317,52.747482
2909.8900000000012,THE LAWNS SURGERY,-0.502907,50.807746
19450.610000000026,OAK TREE HEALTH CENTRE,-1.2409629999999998,51.614986
15630.53000000001,THE TRINITY MEDICAL PRACTICE,0.760305,51.684982
1632.35,DERMATOLOGY CLINIC,-2.486748,53.750552
7791.869999999997,SOHO HEALTH CENTRE,-1.934945,52.503094
55.72,DAWN CLINIC,-1.7272,51.538528
20.41,ST RAPHAEL'S HOSP (SUTTON),-0.220816,51.37886
477.4800000000001,BARNET COPD SERVICE,-0.271242,51.606493
1891.8600000000006,BECKENHAM BEACON URGENT CARE CENTRE,-0.033209,51.405232
4373.29,HILLINGDON COMMUNITY DERMATOLOGY,-0.08430999999999998,51.500087
10785.120000000012,BRIERLEY MEDICAL CENTRE,-1.382484,53.594188
5.39,CGL RESOLUTIONS SERVICE,-0.416036,51.876369
2.78,DAVID LEWIS MEDICAL PRACTICE,-2.286179,53.287552
4411.170000000001,NORWICH IMPROVED ACCESS HUB,1.319958,52.632405
84.63000000000002,BRAMLEY COMMUNITY CARE BEDS,-1.623032,53.80781999999999
12896.199999999995,METRO INTERCHANGE SURGERY,-1.602943,54.961848
40976.53000000003,BRIDGE VIEW MEDICAL GROUP,-1.401824,54.919455
14980.670000000006,QUAKERS LANE SURGERY,-1.741713,54.406363
61075.309999999925,HOLLYNS HEALTH & WELLBEING - CLAYTON,-1.81454,53.779166
32799.16,BRIDGE STREET MEDICAL PRACTICE,-1.20716,52.774841
24404.290000000045,CAYTHORPE & ANCASTER MEDICAL PRACTICE,-0.536327,52.981851
20187.55000000002,PARSON DROVE SURGERY,0.050459,52.660947
22298.24000000001,PRIORS FIELD SURGERY,0.124169,52.388951
31298.310000000023,DAVENPORT HOUSE SURGERY,-0.354549,51.816177
41355.38000000001,MILLWAY MEDICAL PRACTICE,-0.24359099999999997,51.614985
13588.410000000014,TEMPLE FORTUNE MEDICAL GROUP,-0.197845,51.581101
1602.049999999999,MOULSHAM LODGE SURGERY,0.475137,51.716565
4446.170000000005,WARRIOR SQUARE SURGERY,0.716503,51.539534
5382.180000000003,BRAYFORD SQUARE SURGERY,-0.050404,51.514375
11443.399999999983,YORK ROAD SURGERY,0.065859,51.559165
51564.400000000016,WEST MALLING GROUP PRACTICE,0.407707,51.293351
22238.000000000015,ELMDENE SURGERY,0.263153,51.446098
24845.29,MOAT HOUSE SURGERY,-0.146361,51.259819
6323.100000000002,ALEXANDRA SURGERY,-0.205887,51.422912
26006.800000000007,DENHAM MEDICAL CENTRE,-0.502236,51.584564
21321.74,CHEW MEDICAL PRACTICE,-2.629195,51.35619
21062.450000000004,ST.GEORGE'S SURGERY,-2.0815,51.906706
3973.670000000004,OLDHAM URGENT TREATMENT GTD HEALTHCARE,-2.121831,53.553248
32762.96000000005,CHARING SURGERY,0.791374,51.20971
15932.840000000017,THAMES AVE SURGERY,0.603057,51.36344
82297.83999999995,CANTERBURY MEDICAL PRACTICE,1.128982,51.245539
4461.190000000001,TRAFALGAR SURGERY,-0.074414,51.485672
13312.940000000004,THE ORCHARD PRACTICE,-0.303542,51.369116
29537.51,BALHAM PARK SURGERY,-0.155715,51.440487
18465.320000000007,UNIVERSITY HEALTH SERVICE,-1.395714,50.934099
20726.690000000024,LINDEN MEDICAL CENTRE,-0.737415,51.530813
14867.320000000005,OBSERVATORY MEDICAL PRACTICE,-1.265958,51.760293
9572.25000000001,CROPREDY SURGERY,-1.320027,52.116731
65523.28999999997,HEART OF BATH,-2.373947,51.376364
11175.59,BIRCHWOOD MEDICAL PRACTICE,-2.547938,51.446246
12834.39,LOSTWITHIEL SURGERY,-4.668763,50.407892
16368.509999999993,ST SAVIOURS SURGERY,-2.308488,52.130324
44519.11999999998,WERRINGTON VILLAGE SURGERY,-2.098023,53.021659
17061.289999999994,WEST HEATH SURGERY,-1.96202,52.401797
7074.499999999996,WEST PARK SURGERY,-2.141256,52.587783
7024.660000000003,THE MARSHSIDE SURGERY,-2.963125,53.67143299999999
12046.360000000002,MERSEYBANK SURGERY,-2.263012,53.42276
20500.410000000003,THE GROVE ROAD PRACTICE,-0.202341,51.358201
8996.099999999995,MOOR PARK MEDICAL PRACTICE,-1.7218490000000002,53.797834
11575.399999999998,UPTON ROCKS PRIMARY CARE,-2.754371,53.373367
92.84,FARLEIGH HOSPICE,0.467731,51.776479
15984.820000000012,HANLEY PRIMARY CARE CENTRE,-0.12083699999999999,51.567951
15096.350000000004,LEYLAND SURGERY,-2.709316,53.689645
800.2800000000002,COMMUNITY NURSING,-0.670796,53.57972
248.41000000000003,HP NMP'S RUSH CCG,-1.143101,53.130244
177.23000000000005,THE PRACTICE OPTHALMOLOGY CLINIC,-0.574826,51.671154
2.34,SWANSWELL WEST BERKS,-1.323646,51.396761
286.31,COMMUNITY NURSING,-2.372621,51.358169
45.53999999999999,RUSHCLIFFE T&O COM CLINIC,-1.132346,52.930754
356.1,YORKSHIRE SMOKEFREE,-1.018306,53.503028
16957.59000000002,WELLSBOURNE HEALTHCARE CIC,-0.107386,50.825445
10582.780000000008,CHEVIOT MEDICAL GROUP,-2.01842,55.546525
43005.41999999999,THE CENTRAL SURGERY BARTON,-0.439445,53.684236
6604.669999999993,DEARNE VALLEY HEALTH CENTRE,-1.626482,53.588349
21828.04999999998,MICKLEOVER MEDICAL CENTRE,-1.54633,52.907111
32425.840000000026,THE UNIV OF NOTTINGHAM HEALTH SERV,-1.195942,52.942177
18381.079999999994,LISTER HOUSE SURGERY,-0.4515,51.89192
13457.239999999983,THE ELMS SURGERY,-0.404224,51.661642
15394.749999999995,HOUNSLOW MEDICAL CENTRE,-0.37684,51.469395
8564.549999999996,P A PATEL SURGERY,0.582273,51.56978
3222.0800000000045,SANCTA MARIA MEDICAL CENTRE,0.284011,51.507882
57071.82000000002,SEAFORD MEDICAL PRACTICE,0.099275,50.772678
53267.26999999999,BUXTED MEDICAL CENTRE,0.132095,50.989406
3005.9600000000005,NEW INN SURGERY,-0.545657,51.257698
8631.009999999995,THE WHITEHORSE PRACTICE,-0.097391,51.385869
33721.77000000001,THE HEALTH CENTRE,-0.19711,51.363031
41881.140000000014,WEST END ROAD SURGERY,-1.359281,50.916702
14697.560000000018,TOWER HOUSE SURGERY,-0.770004,51.636372
31929.529999999984,CHURCH STREET PRACTICE,-1.425847,51.598763
16670.390000000007,CLINTON ROAD SURGERY,-5.224966,50.23093
29427.13000000003,PINHOE SURGERY,-3.469622,50.737528
55054.40999999993,ROSEBANK HEALTH,-2.242194,51.852611
19428.670000000016,MAPLE VIEW MEDICAL PRACTICE,-1.905693,52.31659
23888.94999999999,PRESCOTT SURGERY,-2.852689,52.784345
3825.2900000000013,BLOOMSBURY HEALTH CENTRE,-1.876618,52.493743
22725.77000000001,HEATON ROAD SURGERY,-1.579814,54.978269
30966.070000000025,49 MARINE AVENUE SURGERY,-1.451082,55.046268
22126.77000000001,HOUGHTON MEDICAL GROUP ,-1.469175,54.842322
19986.000000000025,HOWDEN MEDICAL PRACTICE,-0.8694039999999998,53.744175
5840.870000000003,HANCOCKS ME,-0.41296400000000005,53.782123
23844.63999999999,THE WILSDEN MEDICAL PRACTICE,-1.86138,53.818377
3734.469999999999,COLSTERWORTH SURGERY,-0.619356,52.806388
12408.43,LUNDWOOD MEDICAL CENTRE PMS PRACTICE,-1.438538,53.557711
8564.61,GREASBROUGH MEDICAL CENTRE,-1.372776,53.452893
36488.99999999999,WELLSIDE SURGERY,-0.28478,52.440324
15973.270000000002,CLARE GUILDHALL SURGERY,0.580469,52.078259
23076.47999999999,LATTIMORE & VILLAGE SURGERY,-0.298547,51.726244
2343.590000000002,SOMERSET MEDICAL CENTRE,-0.371127,51.522244
38573.72999999999,CENTRAL UXBRIDGE SURGERY,-0.475739,51.546229
21341.8,WEST MERSEA SURGERY,0.9193420000000002,51.778349
32735.060000000023,HIGHLANDS SURGERY,0.637339,51.548005
28962.09,BALLARDS WALK SURGERY,0.441841,51.573232
31953.069999999967,DOWNLANDS MEDICAL CENTRE,0.244085,50.822919
32626.5,OTFORD MEDICAL PRACTICE,0.191446,51.31358
9703.379999999996,THE HALFWAY SURGERY,0.524157,51.380429
24786.71,BURNEY STREET PMS,-0.009168,51.479034
15980.530000000004,ELIZABETH HOUSE MEDICAL PRACTICE,-0.050005,51.308093
6885.880000000005,ADDINGTON MEDICAL PRACTICE,-0.018557,51.344382
2579.63,SARAJLIC (STAINES ROAD),-0.357923,51.439672
58517.11000000003,ROYAL CRESCENT SURGERY,-2.452679,50.616587
21317.590000000007,TWYFORD SURGERY,-1.314229,51.019421
1433.9500000000005,ABBEY MEDICAL CENTRE,-0.982406,51.453949
16357.900000000014,ST.BARTHOLOMEWS MEDICAL CENTRE,-1.232108,51.747668
73966.00999999998,THE DOWNEND HEALTH GROUP,-2.505301,51.485109
33328.46999999999,IDE LANE SURGERY,-3.534972,50.699471
17912.949999999993,THE ARROW SURGERY,-1.861382,52.218546
24736.50999999999,DR SN CLAY AND PARTNERS,-1.832005,52.528641
8648.820000000003,WILLENHAL OAK MEDICAL CENTRE,-1.463131,52.388988
27383.77999999997,WORDSLEY GREEN HEALTH CENTRE,-2.164692,52.480602
41836.19999999997,THE OVER-WYRE MED.CTR.,-2.976492,53.928203
14779.750000000005,FISHERGATE HILL SURGERY,-2.714363,53.75445500000001
7797.120000000009,THE SINGH MEDICAL PRACTICE,-2.213622,53.512042
25264.280000000024,PARK VIEW GROUP PRACTICE,-2.160577,53.445476
14224.499999999987,FAMILY SURGERY,-2.346055,53.396194
1027.9799999999998,STROKE PATHWAY AND REHABILITATION CENTRE,-1.461102,53.37116700000001
171.42,COMMUNITY PAEDIATRICS (SILCS),-1.612399,53.799904
63.37999999999998,NWR COMMUNITY SERVICES,-1.014748,51.449145
238.57,ABOUT HEALTH LN DERMATOLOGY,-2.455551,53.733223
1111.9299999999994,URGENT CARE,0.475497,50.850706
2.78,COMPTON HOSPICE,-2.172068,52.585801
8997.590000000002,CRANBROOK MEDICAL PRACTICE,-3.416198,50.746596
73.00000000000001,PCOC DVT SERVICE,-0.7662759999999998,52.000308
2971.0000000000014,GOSPORT PRIMARY CARE ACCESS CENTRE,-1.148081,50.793062
294.69000000000005,COMMUNITY PALLIATIVE CARE MEDICAL TEAM,-2.777861,53.433387
52162.609999999964,WHITLEY BAY HEALTH CENTRE,-1.43996,55.04141
43786.400000000016,BLACKBURN RD.MEDICAL CTR.,-1.664718,53.731348
58593.87000000003,MARKET HARBOROUGH MED.CTR,-0.924843,52.477084
22077.429999999997,COMMUNITY HEALTH CENTRE (ZS OSAMA),-1.113421,52.632387
38007.01999999998,TRAMWAYS MEDICAL CENTRE (O'CONNELL),-1.503023,53.402044
45349.02999999998,SAFFRON HEALTH PARTNERSHIP,-0.264459,52.084232
20526.330000000016,GLADSTONE MEDICAL CENTRE,-0.24612,51.558731
12136.469999999992,ST MARTINS MEDICAL CENTRE,-0.424566,51.577646
9278.65,ABRIDGE SURGERY,0.12458,51.653631
8664.680000000006,ELSDALE STREET SURGERY,-0.049094,51.543033
30294.179999999975,STOPSLEY VILLAGE PRACTICE,-0.394147,51.901132
41711.97,SHEFFORD HEALTH CENTRE,-0.321643,52.034788
10420.149999999996,VALE DRIVE MEDICAL PRACTICE,-0.194727,51.648828
13307.10000000002,THE FRYENT WAY SURGERY,-0.280565,51.582963
16574.27999999999,BELMONT MEDICAL CENTRE,-0.478036,51.548264
15047.82,PORTLAND ROAD PRACTICE,-0.208019,51.507366
67293.26999999997,AUDLEY MILLS SURGERY,0.607129,51.584978
19910.560000000005,STRATFORD HEALTH CENTRE,0.004714,51.544651
9300.889999999996,THE STROUDLEY WLK HTH CTR,-0.017533,51.527214
15586.600000000002,ST JOHN'S MEDICAL PRACTICE,0.195249,51.285009
30549.38999999998,BEXLEY GROUP PRACTICE,0.10965599999999999,51.465832
11095.860000000002,DERRY DOWNS SURGERY,0.116651,51.385174
32239.55000000001,UPPER NORWOOD GROUP PRACTICE,-0.08482,51.413308
11247.759999999998,THE MOORINGS MEDICAL PRACTICE,-0.095892,51.322229
12959.050000000007,THE TOLLERFORD PRACTICE,-2.571586,50.778924
38109.809999999976,BLACKTHORN HEALTH CENTRE,-1.327194,50.876037
10097.3,JUBILEE FIELD SURGERY,-2.191875,51.484091
20669.56,DANES CAMP MEDICAL CENTRE,-0.904374,52.205152
22400.149999999987,THORNBURY HEALTH CENTRE - BURNEY,-2.517723,51.612861
20324.78,ELM HAYES SURGERY,-2.492756,51.300546
16900.19999999998,CULVERHAY SURGERY,-2.348649,51.638921
43905.63999999999,SHAWBIRCH MEDICAL CENTRE,-2.531858,52.718121
34323.13999999997,THE DOVE MEDICAL PRACTICE,-1.864605,52.535155
41602.25999999999,MOSS GROVE SURGERY,-2.1699,52.498674
41339.10000000002,WARLEY MEDICAL CENTRE,-2.006757,52.468122
22071.259999999984,SPRINGFIELDS MEDICAL CENTRE,-2.597522,53.389256
29539.350000000028,WEAVER VALE PRACTICE,-2.696866,53.325561
28400.27,GLOVERS LANE SURGERY,-2.971961,53.488314
16329.960000000005,OLIVE MEDICAL CENTRE,-2.484193,53.752309
12634.890000000012,HALLIWELL SURGERY 1,-2.431738,53.588322
17420.370000000006,HEATON MERSEY MED.PRACT.,-2.205118,53.412519
10278.360000000011,VILLAGE SURGERY,-0.255874,51.399503
5605.869999999999,SOMERS TOWN MEDICAL CENTRE,-0.130607,51.529916
4008.6099999999988,FITZMAURICE (KEW),-0.283117,51.475875
16041.930000000017,WOOTTON VALE HEALTHY LIVING CENTRE,-0.527951,52.093688
1.47,COMMUNITY PALLIATIVE CARE,-2.267012,53.599742
16021.200000000004,ST LUKE'S HEALTH CENTRE,0.7293039999999998,51.551
90780.63000000015,THE MEDICAL GROUP,-1.628911,54.748296
40785.89,GLENPARK MEDICAL CENTRE,-1.640096,54.953229
6248.0300000000025,DR KHALIQ,-1.799612,53.663276
39189.900000000016,ROBIN LANE HEALTH AND WELLBEING CENTRE,-1.661311,53.79500899999999
16402.579999999998,LAUREL BANK SURGERY,-1.587333,53.816942
19646.53000000002,HUGGLESCOTE SURGERY,-1.365684,52.71103
10956.070000000012,HEALTH CARE COMPLEX  KIRKBY,-1.244634,53.100062
26885.200000000008,RED HOUSE SURGERY,0.129161,52.214906
9077.69,KINGS HEAD MEDICAL PRACTICE,-0.011448,51.635688
0.08,WARRINGTON SUBSTANCE MISUSE SERVICE,-2.595849,53.38675799999999
2736.31,BRIMPTON HOUSE,0.699534,51.835776
12727.300000000012,THE AZAD PRACTICE,0.044868,51.531234
13072.720000000005,NEWHOLME SURGERY,-2.74261,53.456686
2.75,WALSALL CHILD DEVELOPMENT CENTRE,-1.956181,52.61429
10175.749999999996,BRIGHTON STATION WALK-IN,-0.141323,50.827937
63.82,THE NORTH HAMPSHIRE ALLIANCE,-1.093694,51.26408
637.1999999999998,SW INTEGRATED TEAM MALVERN,-2.178135,52.192339
101.54999999999998,CCCT 2,-2.019013,53.955694
339.3799999999999,COMMUNITY NURSES,-2.500977,51.462504
2.4,MSK SERVICE,-2.365995,53.75089200000001
102.48,FELIXSTOWE HOSPITAL,1.35594,51.963766
7.9,HB CLINIC,-1.161857,52.67560400000001
21219.480000000018,LUNESDALE SURGERY,-2.602213,54.200573
45018.78999999999,COQUET MEDICAL GROUP,-1.580504,55.332599
6058.5700000000015,THE GLENDALE SURGERY,-2.01842,55.546525
11320.80000000002,ALLERTON MEDICAL CENTRE,-1.533879,53.826921
13176.55,SPILSBY SURGERY,0.098963,53.173049
7693.569999999994,BRIDGEWAY PRACTICE,-1.147343,52.943574
32865.51999999998,THORNE MOOR MEDICAL PRACTICE,-0.966348,53.613648
28063.99000000001,MANOR AND PARK GROUP PRACTICE,-1.42716,53.373705
10949.86,SOLE BAY H/C,1.6664740000000002,52.336325
12345.899999999996,DR PS BATH'S PRACTICE,-0.394147,51.901132
9780.540000000003,WATERSIDE MEDICAL CENTRE,-0.363984,51.502165
14792.029999999995,MELBOURNE HOUSE SURGERY,0.451756,51.749214
50561.85000000001,LITTLE WALTHAM & GT NOTLEY SURGERY,0.477622,51.787396
15981.800000000005,AMPTHILL PRACTICE,-0.137293,51.5346
13895.609999999995,THE NORTH LONDON HEALTH CENTRE,-0.11243199999999999,51.617571
19328.50999999999,THE WILLOWS PRACTICE,0.104416,51.60776
38146.26999999998,ST.PETER'S MEDICAL CENTRE,-0.135237,50.831002
32400.35000000005,HIGHPARKS MEDICAL PRACTICE,0.496762,51.434213
21654.77,YALDING,0.429804,51.221188
15800.850000000013,CRAWLEY DOWN HEALTH CENTRE,-0.07762099999999998,51.122557
9636.330000000009,BIRDHURST MEDICAL PRACTICE,-0.092613,51.365279
30069.59000000004,FORESTSIDE MEDICAL PRACTICE,-1.416173,50.851823
15492.480000000005,BENTLEY VILLAGE SURGERY,-0.87992,51.189933
25138.490000000023,DR KUMAR & PARTNER STUDFALL MEDICAL CTR,-0.704816,52.495882
28705.17999999999,CASTLE PLACE PRACTICE,-3.492865,50.908884
22825.30000000001,COTSWOLD MEDICAL PRACTICE,-1.75678,51.886317
35341.86999999997,GLASTONBURY SURGERY,-2.721853,51.148462
29662.540000000008,NUNWELL SURGERY,-2.507177,52.187931
18591.810000000016,CLEOBURY MORTIMER SURGERY,-2.485608,52.377502
23715.78,MEDINA HEALTHCARE,-1.298686,50.697239
24754.59000000003,BEDFORD STREET SURGERY,-0.729782,51.995784
40187.08000000001,ALCHESTER MEDICAL GROUP,-1.138371,51.891398
18475.1,GREENWAY COMMUNITY PRACTICE,-2.611274,51.499595
41888.17000000001,THREE SPIRES MEDICAL PRACTICE,-5.055864,50.259982
39164.18999999999,DEAN CROSS SURGERY,-4.095355,50.358939
21284.580000000013,SOUTHOVER MEDICAL PRACTICE,-3.528075,50.474733
19327.5,NEW VALLEY PRACTICE,-3.654492,50.792383
25860.21,THE STOKE ROAD SURGERY ,-2.068173,51.94667
32975.00999999997,HIGHBRIDGE MEDICAL CENTRE,-2.979117,51.227372
29958.64000000001,CANTILUPE SURGERY,-2.712261,52.055418
25064.659999999996,MYTTON OAK MEDICAL PRACT.,-2.797762,52.707667
10119.429999999997,DRS SHAH & TALPUR,-2.194635,52.974032
15165.37,DR VSR CHADALAVADA,-2.139143,53.0416
12165.910000000013,HAWKESLEY MEDICAL PRACTICE,-1.937498,52.39544
5714.710000000004,KEYNELL COVERT,-1.911857,52.408441
25071.26000000002,PARK MEDICAL CENTRE,-2.873099,53.202665
26394.700000000008,NORWOOD SURGERY,-2.97819,53.65000799999999
26485.949999999993,WHALLEY MEDICAL CENTRE,-2.406348,53.819793
5290.740000000002,SLAIDBURN HEALTH CENTRE,-2.444001,53.967313
18106.640000000018,PIKES LANE 1,-2.446348,53.572728
9773.73,DR PATHAK ND,-1.9843959999999998,52.51273
2804.76,STRELLEY HEALTH CENTRE (COCKRILL),-1.227726,52.973231
11017.099999999988,PHOENIX MEDICAL PRACTICE,0.48126899999999995,51.328805
6973.560000000001,NETHERTON SURGERY,-2.97236,53.488626
13132.29,DILSTON MEDICAL CENTRE,-1.640355,54.976621
1236.3099999999995,INTERGRATED COMMUNITY PAEDIATRIC SERVICE,-2.384279,53.582354
21290.209999999974,NORTH CHELMSFORD NHS HCC,0.510815,51.750584
4002.270000000003,KIRKHOLT MEDICAL PRACTICE,-2.162243,53.59832
13.87,WOKING ALEXANDRA WARD,-0.556304,51.315132
656.7299999999998,GPHP - GP IN A&E,-0.273231,51.325518
12106.389999999996,DR AZIM & PARTNERS,-0.225729,51.579655
86.97,BARTON MOSS SECURE CHILDREN'S HOME,-2.39687,53.468834
9225.109999999997,BHF HIGHGATE SURGERY,-1.378978,53.573614
17386.99000000001,SEASCALE HEALTH CENTRE,-3.479998,54.396756
8026.560000000002,WIDDRINGTON SURGERY,-1.62051,55.240248
8620.510000000006,RIPLEY MEDICAL CENTRE,-1.405723,53.04704
25287.15000000001,DE MONTFORT SURGERY,-1.141192,52.6286
10599.600000000008,DENABY MEDICAL PRACTICE,-1.245792,53.490666
16374.460000000012,MENDLESHAM MEDICAL GROUP,1.0816,52.251866
18960.83,UPTON ROAD SURGERY,-0.401058,51.656689
34750.49999999996,DOLPHIN HOUSE SURGERY,-0.029818,51.810791
13248.590000000006,THE EVERGLADE MEDICAL PRACTICE,-0.24421,51.601578
22573.53999999999,FRIERN BARNET MEDICAL CENTRE,-0.155988,51.613267
5896.330000000004,THE CIVIC MEDICAL CENTRE,-0.337497,51.587155
28575.65,THE GOLD STREET SURGERY,0.240471,52.021716
36542.469999999965,THE HOLLIES,0.610574,51.555461
13387.45,THE LEIGH SURGERY,0.656153,51.555504
19030.160000000003,WEST HAMPSTEAD MEDICAL CENTRE,-0.196578,51.55004
26391.22000000003,STAUNTON GROUP PRACTICE,-0.112926,51.599388
22421.359999999964,SOUTHBROOM SURGERY,-1.989037,51.352288
26041.47999999997,THE DOWNLAND PRACTICE,-1.312402,51.463442
8965.049999999997,BLAKENEY SURGERY,-2.476364,51.759117
29507.44,WELLS HEALTH CENTRE,-2.655326,51.203403
28273.949999999986,RIVERSIDE MED.PRACTICE,-2.755278,52.709209
12654.030000000012,CHANCERY LANE SURGERY,-1.521755,52.536173
8858.08,NECHELLS PRACTICE,-1.876618,52.493743
19586.81,THE LIMES MEDICAL CENTRE,-1.974677,52.58065500000001
15310.759999999986,TOWNFIELD HEALTH CENTRE,-3.064248,53.378798
2734.380000000001,PRINGLE STREET SURGERY,-2.467594,53.742039
15028.4,HOPWOOD MEDICAL CENTRE,-2.212052,53.587143
35371.60999999999,THE KILTEARN MEDICAL CTR.,-2.518506,53.068155
29796.499999999996,BROADWAY MEDICAL CENTRE,-3.033843,53.912667
20007.850000000006,EGERTON/DUNSCAR HEALTH CENTRE,-2.426383,53.617589
47414.29000000002,SADDLEWORTH MEDICAL PRACTICE,-2.004957,53.548331
7329.139999999998,VILLAGE MEDICAL PRACTICE,-2.095994,53.574817
5918.26,EASTGATE SURGERY,-0.519836,51.886145
17.65,ST PETER'S HOSPICE,-2.609013,51.506125
4823.540000000001,SUMMERFIELD GROUP PRACTICE,-1.937353,52.487686
492.87000000000006,CATS - VERULAM GYNAECOLOGY,-0.302218,51.724886
19152.94,PHOENIX PRIMARY CARE (SOUTH) LTD,-0.441597,51.88973
21795.22,THURROCK HEALTH CENTRE,0.323317,51.477404
339.0200000000001,PATIENT FIRST SOCIAL ENTERPRISE,0.006461,51.542096
27.07,SOLENT WEST NMPS,-1.446031,50.92524
2753.5400000000004,CWP (WEST) PHYSICAL HEALTH,-2.897884,53.2088
276.20000000000005,CNWL-MK MEDICAL PRESCRIBER,-0.7357599999999997,52.026384
4.43,CAMHS - WORCESTER,-2.183119,52.192425
106.29,MINOR INJURIES UNIT- FELXSTOWE HOSPITAL,1.35594,51.963766
173.25000000000003,SOTON COMMUNITY ENT SERVICE RSH,-1.397076,50.912389
678.6199999999998,THOMAS LINACRE SPECIALIST,-2.629091,53.55774
29110.19,CARE UK COVENTRY OOH,-1.5080049999999998,52.413401
1712.2799999999993,NSC BOSWORTH HUB,-1.7536330000000002,52.480569
3185.860000000001,SKEGNESS & COAST GP EXTENDED ACCESS HUB,0.342219,53.188059
194.6,COASTAL HEALTH SOUTH,1.715177,52.478072
8077.669999999997,THE OM SURGERY,-1.2057,53.034978
13184.780000000012,LINCOLN OOH,-0.519635,53.233575
16996.039999999994,THE NEW SPRINGWELLS PRACTICE,-0.340804,52.893623
5.23,SHREWSBURY MINOR SURGERY,0.043312,51.540929
22.8,HMP/YOI ASKHAM GRANGE,-1.184091,53.925917
207.59,WANDSWORTH COMMUNITY WARDS,-0.145908,51.472301
20981.600000000006,SAME DAY HEALTH CNTRE COASTAL HEALTHCARE,-2.859565,54.072841
180.18000000000004,WHITTINGTON HEALTH (HARINGEY),-0.139066,51.566482
6697.199999999998,PARSONS GREEN WIC,-0.199155,51.47377
12001.530000000012,CAMP HILL GP LED HEALTH CENTRE,-1.507061,52.533074
51967.21999999998,DONCASTER URGENT CARE & OUT OF HOURS,-1.109062,53.530806
2775.13,THE CONFEDERATION HILLINGDON CIC,-0.47790600000000005,51.547653
859.0499999999997,SHIRLEY MEDICAL EXTENDED ACCESS LLP,-0.044859,51.375139
4084.299999999999,EAST CLUSTER IAGPS,-1.82052,50.747482
297.4100000000001,HMR CCG HART,-2.152215,53.620446
6292.050000000007,THE PATEL PRACTICE,-1.1885709999999998,54.661404
60315.919999999925,HOLMSIDE MEDICAL GROUP,-1.66023,54.969004
21709.21,FARROW MEDICAL CENTRE,-1.74312,53.802511
31732.56999999996,PADDOCK AND LONGWOOD FAMILY PRACTICE,-1.80546,53.642119
33875.370000000024,BRAMLEY VILLAGE HEALTH & WELLBEING CTR,-1.623032,53.80781999999999
8703.91999999999,SEVERN SURGERY,-1.065583,52.598801
58959.37999999998,BEACHES MEDICAL CENTRE,1.727734,52.577124
15365.190000000008,LINDEN ROAD SURGERY,-0.479248,52.14361
31404.3,CUFFLEY AND GOFFS OAK MEDICAL PRACTICE,-0.113106,51.708171
26.21,SOUTH WIGSTON ASYLUM SERVICE,-1.12559,52.63753
223.72,ARC,-3.002931,53.801771
440.16999999999985,PRIMARY CARE ACCESS HUB (SOUTH STOKE),-2.102853,52.97847
1631.13,NEAS SOUTH TYNESIDE CCG,-1.712365,54.969713
5877.480000000002,GP SERVICES-CRAWLEY HUB,-0.175734,51.240416
3693.65,PROCARE HEALTH SERVICES,-0.708282,51.091746
1.08,GYNAECOLOGY,-2.095555,52.599722
50825.24999999996,GLOUCESTER (CARE UK) OOH,-2.30608,51.879263
418.99,MERTON REHAB BEDS,-0.224115,51.437407
717.21,EXTENDED ACCESS PCD CONISBROUGH GROUP,-1.237653,53.482282
184.32,WIGAN AND LEIGH SEXUAL HEALTH SERVICE,-2.632808,53.547929
6.27,CYPHP,-0.11620499999999999,51.49994
38491.85000000006,THE GARTH,-1.055444,54.532597
23115.81,THE GABLES MEDICAL GROUP,-1.564429,55.140811
17047.88999999998,HAYDON BRIDGE & ALLENDALE MEDICAL PRACT,-2.250059,54.975681
17437.850000000013,SPRING TERRACE HEALTH CENTRE,-1.450673,55.010941
18752.47999999998,PRACTICE ONE,-0.201064,54.084715
37785.84,CHURCH STREET SURGERY,-1.583343,53.681523
19863.68,SOUTH WIGSTON HEALTH CTR.,-1.129183,52.580452
6773.960000000001,BRAMCOTE SURGERY,-1.244985,52.935604
19824.369999999988,CAMPINGLAND SURGERY,0.690978,52.645997
41145.82999999998,LEIGHTON ROAD SURGERY,-0.66795,51.915779
27060.5,WILLOW TREE FAMILY DOCTORS,-0.265224,51.589337
23088.77000000001,QUEENS WALK PRACTICE,-0.312985,51.524803
18185.289999999983,HIGH STREET SURGERY  EPPING,0.113402,51.700812
34016.08,OLD ROAD SURGERY,1.148421,51.795466
7460.0099999999975,HIGH STREET SURGERY,0.223589,51.561554
24206.12999999999,THE LIMEHOUSE PRACTICE,-0.028747,51.511253
3606.6899999999987,MEDICUS HEALTH PARTNERS-WILLOW HOUSE,-0.07659,51.654209
25357.549999999967,MAIDSTONE RD RAINHAM SURGERY,0.600379,51.36233
7374.69999999999,BANK HOUSE SURGERY,0.069949,51.359218
13682.999999999987,FORDBRIDGE MEDICAL CENTRE,-0.46301,51.431269
17322.13000000002,EVERSLEY MEDICAL CENTRE,-0.11191300000000001,51.388514
17409.840000000007,YORK MEDICAL PRACTICE,-0.325697,51.449369
7114.309999999998,BERRYLANDS SURGERY,-0.299929,51.390825
21344.580000000005,CRICKET GREEN MEDICAL PRACTICE,-0.174025,51.404579
19712.980000000007,CARRINGTON HOUSE SURGERY,-0.749217,51.632299
5349.310000000005,PROSPECT HOUSE SURGERY,-0.705258,51.701136
8858.84,WEMBURY SURGERY,-4.072566,50.32186
15880.230000000007,HOLLYOAKS MEDICAL CENTRE,-1.869052,52.377979
20505.459999999977,WOODSETTON MEDICAL CENTRE,-2.10089,52.537994
34024.540000000045,SHERWOOD HOUSE MEDICAL PRACTICE,-1.959426,52.473851
6542.910000000003,GARSTON FAMILY HEALTH CENTRE,-2.89683,53.353909
14028.369999999983,COMMONFIELD RD SURGERY,-3.086369,53.370187
20573.339999999997,THE BORCHARDT MEDICAL CENTRE,-2.237795,53.434307
10298.669999999996,WERNETH MEDICAL PRACTICE,-2.126938,53.53497
4474.769999999999,CHAPEL MEDICAL CENTRE,-2.418293,53.449094
9071.710000000003,DR VICTORIA MUIR'S PRACTICE,-0.151358,51.490651
48704.71999999997,WELLFIELD MEDICAL CENTRE,-2.242019,53.512545
30767.78000000001,NEWLANDS MEDICAL CENTRE,-1.226035,54.571931
27557.53,WIGTON GROUP MEDICAL PRACTICE,-3.159002,54.820303
10366.790000000005,THE FAMILY PRACTICE,-3.229282,54.116755
48396.429999999964,SKERNE MEDICAL GROUP,-1.4488,54.654032
20821.690000000017,ST ANDREWS SURGERY,-0.361958,53.735566
18798.88999999999,COWGILL SURGERY,-1.814543,53.781952
21820.739999999994,VILLAGE SURGERY,-1.485797,52.896347
6259.129999999999,THE GLENSIDE COUNTRY PRACTICE,-0.537958,52.75451
6186.989999999994,PLEASLEY SURGERY,-1.250873,53.175809
11909.969999999996,BACON LANE SURGERY,-0.275903,51.605078
15865.41,THE MEDICAL CENTRE  DR JEFFERIES & PARTN,-0.212607,51.481206
3257.2100000000014,MEANWHILE GARDEN MEDICAL CENTRE,-0.203126,51.522228
52801.30999999993,THE LIMES MEDICAL CENTRE,0.123958,51.706179
30900.02999999998,CHIGWELL MEDICAL CENTRE,0.083876,51.60551
6495.309999999999,NORTH AVENUE SURGERY,0.735187,51.546618
15024.090000000007,ROSERTON STREET SURGERY,-0.010049,51.498482
1439.8799999999994,MEDICUS HEALTH PARTNERS- BUSH HILL PARK,-0.066545,51.63953
20033.220000000027,ALBION PLACE MEDICAL PRACTICE,0.529542,51.274206
11354.719999999988,OLD PARSONAGE SURGERY,0.460418,51.112785
11711.850000000008,TRIVENI PMS,0.058438,51.490321
21138.840000000026,HAWTHORNS SURGERY,-0.175174,51.241163
19830.490000000013,TRINITY MEDICAL CENTRE,-0.158437,51.437554
4193.640000000003,MITCHAM FAMILY PRACTICE,-0.167118,51.410109
15166.379999999996,THE WELLBRIDGE PRACTICE,-2.225354,50.679039
43002.99000000002,THE HARVEY PRACTICE,-1.993525,50.761018
42732.61,HOMEWELL.CURLEW PRACTICE,-0.978019,50.851067
21045.40000000002,SPA MEDICAL CENTRE,-2.126012,51.366868
13009.510000000007,COOKHAM MEDICAL CENTRE,-0.725805,51.558356
28190.66000000001,THE MISBOURNE SURGERY,-0.558045,51.607786
36013.870000000024,ORCHARD MEDICAL CENTRE,-2.510659,51.462087
12139.530000000002,LYNGFORD PARK,-3.090916,51.036442
31283.670000000035,STAFFORD HEALTH AND WELLBEING,-2.123291,52.817722
9671.07,BOURNBROOK VARSITY MEDICAL CENTRE,-1.929903,52.445713
3412.0999999999976,CAUSEWAY GREEN ROAD SURGERY,-2.014697,52.484564
44114.82999999997,PATTERDALE LODGE MED CTRE,-2.64461,53.452446
17850.81,SUNLIGHT GROUP PRACTICE,-3.00005,53.363076
15304.15,SHAY LANE MEDICAL CENTRE (KELMAN),-2.31556,53.372189
18149.11,BLYTH ROAD MEDICAL CENTRE,-1.20365,53.422231
7.689999999999999,INSPIRING RECOVERY SERVICE,-1.497086,53.68441
19233.38999999998,CENTRAL MEDICAL CENTRE,-0.245977,52.587
15825.100000000004,HARBOUR MEDICAL PRACTICE,0.324489,50.797353
1550.88,URGENT CARE CTR (FCMS) OOH,-3.015863,53.820616
30045.230000000003,MORRAB SURGERY,-5.538987,50.116924
30855.61000000001,WILLOW BANK SURGERY,-2.102853,52.97847
30317.990000000023,EVERGREEN PRIMARY CARE CENTRE,-0.059836,51.623784
48.08000000000001,MEANWOOD GROUP PRACTICE ENT SERVICE,-1.565811,53.827167
2444.809999999999,BHC NON MEDICAL PRESCRIBERS,0.010423,51.377216
1381.37,M & A LTC PALLIATIVE CARE NURSE,-1.238124,52.98146
62447.94999999997,BARDOC GP OOH,-2.427769,53.590447
2996.680000000001,BANES ENHANCED MEDICAL SERVICE (BEMS+),-2.372621,51.358169
27698.140000000007,SHAKESPEARE WIC,-1.525196,53.802098
1813.8400000000006,BROOMFIELD DOCTOR IN ED,0.465993,51.774654
1750.6499999999978,CCG ACUTE VISITING SERVICE,-2.178123,53.021853
39.04,NEWMEDICA COMMUNITY OPHTHALMOLOGY,-0.108523,53.567689
6744.949999999998,LGI GPS IN A+E,-1.551744,53.801445
7390.920000000003,M&A AHVS (PICS),-1.238124,52.98146
40150.93999999999,BARBOURNE HEALTH CENTRE,-2.224952,52.208752
9479.850000000002,CRAVEN ARMS SURGERY,-2.835416,52.442323
50395.20000000002,THE HAYMARKET HEALTH CTR,-2.211781,53.060343
23372.670000000016,GOLDENHILL MEDICAL CENTRE,-2.221385,53.076901
18094.250000000007,JIGGINS LANE MEDICAL CENTRE,-1.995411,52.436801
1984.4099999999987,DARTMOUTH MEDICAL CENTRE,-2.005409,52.520435
13483.530000000008,ARRAN MEDICAL CENTRE,-1.748679,52.50386700000001
20134.440000000028,CHAPEL LANE SURGERY,-3.061428,53.557075
10122.820000000009,HEATHERLANDS MED CTR,-3.089543,53.381475
17166.610000000008,GUTTERIDGE MEDICAL CENTRE,-2.691248,53.769881
9395.23,TOWN HALL SURGERY,-2.092973,53.478374
16013.470000000005,LILFORD PARK SURGERY,-2.511455,53.503236
1377.1799999999994,PEEL PRECINCT SURGERY,-0.198814,51.534421
18531.21000000001,CATHEDRAL MEDICAL CENTRE,0.275488,52.413145
22715.39,NDUC NEWCASTLE GATESHEAD OOH,-1.58819,55.01931999999999
0.75,ANTICOAG SERV YARDLEY WOOD,-1.859168,52.418648
2544.8,MARSDEN INTERMEDIATE CARE,-1.696689,53.676075
0.43,HEALTH VISITING SERVICE,-1.547426,53.744103
4530.99,EXTENDED ACCESS PRIMARY CARE HUB,-0.079465,51.533775
86.59000000000003,PCH WARD,-2.077775,52.114052
4256.280000000002,LCW WLCCG OOH,-0.217218,51.522362
6789.769999999996,MALLING HEALTH AT STOKE ALDERMOOR,-1.479565,52.402142
9630.05,THGPCG SERVICE OOH,-0.004927,51.514483
10390.919999999996,DENMARK ROAD SURGERY,-0.06725100000000002,51.393136
25582.720000000005,VC WEST LANCS HC-UCC,-2.871252,53.564616
4908.220000000005,HOME VISITING SERVICE,-2.165957,53.412542
14678.950000000004,MEIR PARK & WESTON COYNEY MEDICAL PRACT,-2.094889,52.966305
9896.400000000009,HAMSTEAD ROAD SURGERY,-1.919012,52.504474
22571.320000000003,OAKWOOD SURGERY,-1.858645,52.444556
4087.2700000000013,SURGERY AUBERY ROAD,-1.846411,52.46633
7169.130000000001,MOXLEY MEDICAL CENTRE,-2.051113,52.560033
24819.699999999986,NORTH PARK HEALTH CENTRE,-2.995994,53.458392
11878.220000000007,MEDICARE UNIT SURGERY,-2.69241,53.725239
12945.930000000002,LOSTOCK MEDICAL CENTRE,-2.328128,53.45458000000001
8922.550000000003,THE GROVE MEDICAL PRACTICE,-0.362401,51.55534
9578.929999999997,THE GAMSTON MEDICAL CTR.,-1.100495,52.924252
14325.98,LANGLEY MEDICAL PRACTICE,-0.299929,51.390825
1190.1099999999994,TELFORD OOH,-2.732712,52.740396
8802.000000000002,THE DURU PRACTICE,-2.116945,53.543824
35.14,ADDICTIONS SERVICE,-1.607294,54.973724
1.13,NHS BWD SUBSTANCE MISUSE SERVICE,-2.481065,53.75065
41080.54999999994,ERDINGTON GP HEALTH & WELLBEING WIC,-1.840871,52.522486
8.09,PRACTICE OPHTHALMOLOGY SERVICE HARINGEY,-0.574826,51.671154
1176.2900000000004,CRISIS RESPONSE TEAM,-2.186902,53.52264
3058.0,RAMSAY HEALTHCARE - NORTH DOWNS HOSPITAL,-0.079153,51.273556
110.5,WILLEN HOSPICE,-0.719831,52.062768
5861.41,CENTRAL DURHAM GP EXT'D ACCESS SERVICE,-1.56716,54.7787
9077.749999999995,SHAP MEDICAL PRACTICE,-2.677931,54.52889
50296.98,AUCKLAND MEDICAL GROUP,-1.678996,54.648085
30726.609999999964,THE GLEN MEDICAL GROUP,-1.52187,54.97385
29734.1,ASHBY TURN PRIMARY CARE PARTNERS,-0.6542,53.566147
98937.64999999986,HAXBY GROUP PRACTICE,-1.081866,54.019329
6393.619999999997,BRADFORD MOOR PRACTICE,-1.7218490000000002,53.797834
34693.17000000001,ASH GROVE,-1.245572,53.704968
46210.89000000006,MILLVIEW MEDICAL CENTRE,-0.30904,52.981326
28084.31999999999,HOLLIES MEDICAL CENTRE,-1.494834,53.363179
2935.6000000000013,VERITAS HEALTH CENTRE,-1.481026,53.354257
9189.599999999997,BRETTON MEDICAL PRACTICE,-0.281891,52.590431
30623.540000000005,LONG STRATTON MEDICAL PARTNERSHIP,1.229088,52.491027
31916.069999999985,THE NEVELLS ROAD SURGERY,-0.22942,51.980882
28298.44000000001,THE HEALTH CENTRE PRACTICE,-0.020738999999999997,52.048757
15877.029999999993,HIGHFIELD SURGERY,-0.459233,51.766434
10076.700000000008,BELGRAVIA SURGERY,-0.14856,51.495004
8632.499999999998,COLLINGWOOD ROAD SURGERY,0.638271,51.802938
19941.06000000001,CHAPEL STREET SURGERY,0.051144,50.79327
25471.33000000002,STOCK HILL SURGERY,0.031768,51.312089
14815.669999999993,CLAREMONT MEDICAL CENTRE,-0.306132,51.390808
16308.219999999992,WATERFRONT AND SOLENT SURGERY,-1.403379,50.870013
19766.89,THE WILLESDEN MEDICAL CENTRE,-0.233873,51.547532
9117.080000000009,EASTMEAD AVENUE SURGERY,-0.36274,51.531443
5415.159999999998,KINCORA DOCTORS SURGERY,-0.412216,51.511666
7731.420000000003,DR M GOYAL'S PRACTICE,0.156711,51.540066
29416.880000000016,TOLLGATE MEDICAL CENTRE,0.056362,51.515573
22768.809999999994,HETHERINGTON GROUP PRACTICE,-0.12823,51.460932
7705.179999999995,SELHURST MEDICAL PRACTICE,-0.088969,51.390012
25196.070000000025,THE WATERFIELD PRACTICE,-0.733923,51.409204
11979.61,JERICHO HEALTH CENTRE,-1.265958,51.760293
21089.510000000013,PONTESBURY MEDICAL PRAC,-2.887922,52.650521
22527.24000000001,TUTBURY HEALTH CENTRE,-1.686361,52.858454
27598.05,TEAN SURGERY,-1.988036,52.954415
13821.720000000005,WAKE GREEN SURGERY,-1.883357,52.446103
21982.020000000033,THORNLEY STREET MEDICAL CENTRE,-2.125789,52.58843
13527.370000000017,MEREPARK MEDICAL CENTRE,-2.300747,53.093285
13933.640000000012,RAINHILL VILLAGE SURGERY,-2.763813,53.41631
15679.64,MILE LANE HEALTH CENTRE,-2.335248,53.587814
13212.260000000006,NEW ISLINGTON MEDICAL CENTRE,-2.219472,53.4829
21654.73,CLARENDON MEDICAL CENTRE,-2.079951,53.45264
12988.489999999993,BRAITHWAITE RD SURGERY,-2.574985,53.477412
25592.53000000001,WOODGRANGE MEDICAL PRACTICE,0.025253,51.548596
10906.869999999997,JARVIS MEDICAL PRACTICE,-2.095095,53.537786
3870.3900000000012,DR SP TALPAHEWA,-0.260303,51.616115
28406.35000000001,WIRRAL WIC (APH)_WIC APH,-3.096815,53.36964
49788.670000000086,IC24 LTD (NORFOLK & WISBECH OOH),0.891514,51.129106
19086.850000000024,BRANDON MEDICAL PRACTICE,0.6233,52.448489
15687.250000000013,BOLTON MEDICAL CENTRE,-2.431399,53.56543
7038.909999999992,THE MANSELL ROAD PRACTICE,-0.358969,51.525654
18040.870000000006,WESTCROFT HEALTH CENTRE,-0.795699,52.006367
11817.460000000005,FOUNDATIONS,-1.257899,54.563441
33368.01,(FRACTURE CLINIC) NORTH OOH,-0.883829,52.236068
6.07,CGL STOCKTON ALCOHOL SERVICE,-1.317384,54.563979
1.4,CLEARWAYS,-1.354668,53.427403
11015.130000000005,READING WALK-IN HEALTH CENTRE,-0.9758960000000002,51.454809
391.08000000000015,CARLISLE LOCALITY PRIMARY CARE SERVICES,-2.8956419999999996,54.892234
9.75,PCT DIABETES CLINIC,-2.227616,53.010128
63423.37999999998,MERSEYCARE NHS TRUST - NMP,-2.933499,53.407265
4306.249999999999,BRADFORD DISTRICT CARE TRUST,-1.788605,53.839675
32.58,PUBLIC HEALTH SERVICES,0.020377,51.403879
142.36,GP EXTENDED HOURS SERVICE,-0.62317,54.485919
1904.81,CORRINGHAM HUB,0.42690200000000006,51.513843
8913.389999999998,NORTH TYNESIDE CARE PLUS,-1.456596,55.011193
7940.550000000002,KINGSTON CCG SLDUC OOH,-0.283378,51.412517
5054.109999999999,8 TO 8 TOP-UP HUB QMH,0.101687,51.419041
395.63999999999993,OPTIMUSEXTENDEDACCESS,-0.596637,53.18754
8167.629999999996,SUFFOLK GP FEDERATION OOH,1.164244,52.044508
72.56999999999998,COMMUNITY RESPIRATORY TEAM,-2.931104,53.466323
40957.37,LOWTHER MEDICAL CENTRE,-3.586392,54.545056
29467.23999999998,COLLEGE LANE SURGERY,-1.336292,53.644573
17474.79999999998,THE SURGERY CLIFTON ROAD,-1.737497,53.013356
26840.969999999976,THE ORCHARD MED PRACTICE,-1.231693,52.533972
60697.80000000003,MUNRO MEDICAL CENTRE,-0.147427,52.794037
18190.880000000005,MOSBOROUGH HEALTH CENTRE,-1.364873,53.325238
34813.55999999998,ORCHARD SURGERY MELBOURN,0.020092,52.080651
30183.140000000007,HIGH STREET SURGERY,1.756043,52.482123
20096.019999999975,ANDAMAN SURGERY,1.715485,52.45691600000001
65843.3299999999,STANMORE MEDICAL GROUP,-0.204612,51.913274
26248.32000000001,PUCKERIDGE & STANDON SURGERY,0.019374,51.888296
36688.15000000001,KING GEORGE SURGERY,-0.206096,51.907416
25356.72,COMMONWEALTH HEALTH CENTRE,0.36308,51.463166
23237.239999999994,KEATS GROUP PRACTICE,-0.17103,51.555534
16557.96,BURNT ASH SURGERY,0.009913000000000002,51.452782
28260.790000000023,HILLVIEW MEDICAL CENTRE,-0.557727,51.315501
42232.29000000003,DOWNING STREET GROUP PRACTICE,-0.7989009999999998,51.212905
7768.189999999996,ASHBURTON PARK MEDICAL CENTRE,-0.064221,51.384147
18722.669999999995,TAMWORTH HOUSE MEDICAL CENTRE.,-0.146254,51.40122
34793.50000000001,PARKSIDE PRACTICE,-1.353169,50.970948
19897.47999999998,ST.PETERS SURGERY,-1.372792,50.897829
6073.87,NEATH HILL HEALTH CENTRE,-0.747321,52.060411
17839.269999999997,BATHEASTON MEDICAL CENTRE,-2.317387,51.406032
18959.84,DARTMOUTH MEDICAL PRACTICE,-3.580811,50.351157
31876.090000000026,DARTFORD EAST HEALTH CENTRE,0.236914,51.440747
29597.23,CHURCH STREET PRACTICE,-0.459783,51.37345
20811.040000000008,THE GREYSWOOD PRACTICE,-0.144853,51.419489
12996.74,BOLINGBROKE MEDICAL CENTRE (THMP),-0.168282,51.45617
14218.569999999992,LEYBOURNE SURGERY,-1.88721,50.758437
19781.54000000001,THE BORDER PRACTICE,-0.740565,51.240995
31412.06999999999,PATFORD HOUSE PARTNERSHIP,-2.005519,51.437601
7857.299999999997,CHATHAM STREET SURGERY,-0.981895,51.455924
43149.1,THE CROSS KEYS PRACTICE,-0.830848,51.723655
26516.330000000016,WHITELADIES MEDICAL GROUP,-2.612382,51.465097
11336.829999999998,HILLCREST SURGERY,-2.431687,51.311982
18505.68,DEVON SQUARE SURGERY,-3.60508,50.529985
11202.550000000007,ESTOVER SURGERY,-4.0952,50.411271
14549.57,THE ROYAL WELL SURGERY,-2.0815,51.906706
9979.400000000009,APSLEY SURGERY,-2.187008,53.035377
17005.460000000006,THE LIMES SURGERY MEDICAL CENTRE,-2.114052,52.456884
12387.62,ASHFIELD ROAD SURGERY,-2.132841,52.62604399999999
27097.209999999985,NORTHGATE MEDICAL CENTRE,-2.892972,53.19509300000001
28732.790000000045,RIVERSIDE SURGERY,-3.006197,53.372004
24469.499999999967,LAYTON MEDICAL CENTRE,-3.027291,53.827425
22834.370000000006,HT PRACTICE,-2.110496,53.478305
13870.350000000013,WESTLEIGH MEDICAL PRACTICE,-2.526024,53.510851
4682.800000000002,MEDICUS HEALTH PARTNERS-CURZON AVENUE,-0.036518,51.645435
13529.96,WINDMILL SURGERY,-1.48555,52.449933
7491.249999999997,ARNOS GROVE MEDICAL CENTR,-0.129838,51.615476
3179.849999999999,ST.QUINTIN HEALTH CENTRE,-0.220325,51.519199
3130.4399999999987,GPSI DERMATOLOGY SERVICE BUCKDEN HUNTS,-0.254174,52.291764
27247.54999999998,PARK COMMUNITY PRACTICE,-1.871717,53.725678
49.43000000000001,NT&H COMM CARDIAC N,-1.227837,54.702398
2595.69,WALTHAM FOREST CCG(NMP-COMMUNITY HEALTH),-0.022546,51.616083
71.97,ENFIELD COMMUNITY GYNAECOLOGY SERVICE,-0.101361,51.659225
24.440000000000005,OPHTHALMOLOGY-COT-JG,0.440508,51.298688
84.14,CAMDEN COMMUNITY NURSING,-0.131658,51.53665
718.7299999999998,CHELTENHAM LOCALITY NURSE PRESCRIBER,-2.176389,51.847073
9.5,CARDIAC SERVICE STOKE AND NORTH,-2.109085,52.810605
2192.6600000000008,N&S COMMUNITY DERMATOLOGY CLINIC,-1.032629,53.141866
2624.0299999999993,COMMUNITY DERMATOLOGY SOUTHWARK GSTT,-0.08679399999999998,51.503466
1187.1999999999996,CHESTERFIELD HEALTH PROVIDER LTD,-1.43962,53.233943
5209.480000000004,MELROSE SURGERY,-1.287301,54.609397
26026.590000000026,BLACKETTS MEDICAL PRACTICE,-1.559007,54.527221
9188.93000000001,DR A SINHA,-0.108523,53.567689
21036.040000000023,WILLINGTON SURGERY,-1.566835,52.850285
16017.86,UPWELL STREET SURGERY,-1.434724,53.406424
26967.03,LAKENHAM SURGERY,1.296577,52.6183
22158.439999999995,MANOR FARM MEDICAL CENTRE,0.690513,52.648544
17947.500000000025,PLOWRIGHT MEDICAL CENTRE,0.686691,52.655577
30784.52999999998,REGAL CHAMBERS SURGERY,-0.275959,51.952843
12610.499999999984,STANHOPE SURGERY,-0.032073,51.688002
3943.5399999999977,THE GARWAY MEDICAL PRACTICE,-0.185494,51.515392
28307.200000000008,BEECHWOOD SURGERY,0.292731,51.608567
21950.25000000004,THE NIGHTINGALE PRACTICE,-0.062434,51.558261
20698.029999999984,THE GRAHAM PRACTICE,0.048721,51.541534
29975.509999999995,ISLAND HEALTH,-0.013513,51.495357
29277.28,STANFORD MEDICAL CENTRE,-0.148293,50.838378
30310.549999999992,NEWINGTON ROAD SURGERY,1.399222,51.343459
35396.310000000034,BELVEDERE MEDICAL CENTRE,0.144376,51.482567
40175.12000000002,ST.LAWRENCE SURGERY,-0.390026,50.823979
45846.7,MID SUSSEX HEALTH CARE,-0.175279,50.933719
17853.400000000016,THE WHITELEY SURGERY,-1.266072,50.88262
98082.00000000004,ACORN HEALTH PARTNERSHIP,-1.114058,51.245047
121412.93999999992,PORTSDOWN GROUP PRACTICE,-1.080952,50.812876
35351.00000000001,THE ELMS PRACTICE,-0.976476,50.789794
22295.860000000004,ESPLANADE SURGERY,-1.158697,50.731943
13073.460000000005,GLASTONBURY HEALTH CENTRE,-2.712893,51.148733
33301.60999999999,MAYFIELD SURGERY,-2.13456,52.982709
21361.510000000017,BRIDGE MEDICAL,-1.506726,55.038077
5119.200000000002,WINDSOR MEDICAL CENTRE,-1.622157,53.693875
17592.51,ASHBOURNE MEDICAL PRACTICE,-1.737589,53.012862
20062.93,THE UPPINGHAM SURGERY,-0.723557,52.594972
30426.92000000001,ABBEY MEDICAL GROUP,-1.119194,53.100674
19510.920000000006,LOWMOOR ROAD SURGERY,-1.244634,53.100062
29750.699999999993,BIRLEY HEALTH CENTRE,-1.396985,53.340317
27983.96000000001,PARKFIELD MEDICAL CENTRE,-0.179588,51.695129
12189.859999999995,REDWOOD PRACTICE,-0.359614,51.461125
7177.010000000006,SUNRISE MEDICAL CENTRE,-0.382255,51.51087
20840.88000000001,THE THORPE BAY SURGERY,0.757986,51.534599
9555.009999999998,HOLBORN MEDICAL CENTRE,-0.118539,51.522233
10884.280000000002,BRICK LANE SURGERY,-0.048612,51.657327
6972.500000000005,ABBEY COURT,0.26122,51.137755
18319.470000000005,ELM LODGE SURGERY,-0.096232,51.451506
23646.93000000001,HUDSON (SEYMOUR HOUSE),-0.292773,51.462401
13669.990000000005,OPEN DOOR SURGERY,-0.155581,51.443166
30308.84000000004,THE LIGHTHOUSE GROUP PRACTICE,-1.0805049999999998,50.796551
28402.57000000003,THE ORCHARD PARTNERSHIP,-1.865867,51.077878
33697.81000000003,WHADDON MEDICAL CENTRE,-0.7662759999999998,52.000308
22781.830000000005,SONNING COMMON HEALTH CTR,-0.982114,51.515603
40634.0,LANDER MEDICAL PRACTICE,-5.055864,50.259982
11620.520000000017,BROSELEY MEDICAL PRACTICE,-2.481266,52.611554
4650.380000000001,BONEY HAY SURGERY,-1.926768,52.690328
17708.880000000016,BEECH TREE MEDICAL PRACTICE,-1.252936,52.377534
12011.730000000007,ALUM ROCK MEDICAL CENTRE,-1.850664,52.489901
7621.57,GREENFIELD MEDICAL CENTRE,-1.855764,52.491684
11082.21,THE SURGERY,-2.605295,53.024859
15048.809999999989,PARKGATE SURGERY,-2.882743,53.564772
21004.580000000005,MARPLE MEDICAL PRACTICE,-2.064954,53.39495
61.29999999999999,STORTHFIELD HOUSE,-1.332746,53.097559
1894.2200000000007,WORKINGTON HEALTH LIMITED,-3.551342,54.642687
13117.490000000005,CLOVER CITY PRACTICE,-1.46659,53.38187
5693.580000000006,WLCCG EXTENDED HOURS HUBS,-0.217218,51.522362
3581.0100000000025,NEWARK ACUTE HOME VISITING SERVICE,-1.238124,52.98146
2668.780000000001,I HEART BARNSLEY OOH,-1.4569,53.543072
54.24,YAS IUC OOH,-1.517971,53.709391
18672.210000000014,ASPATRIA MEDICAL GROUP,-3.337992,54.762123
53824.71999999996,WILLIAM BROWN CENTRE,-1.33142,54.757994
23049.33,WELLSPRING MEDICAL PRACT.,-1.564066,55.037289
13498.140000000007,RED HOUSE MEDICAL CENTRE,-1.424063,54.925457
29579.539999999975,COLNE VALLEY GROUP PRACTICE,-1.9282130000000002,53.602096
5270.350000000006,FAMILY DOCTORS,-1.440964,53.798248
17588.540000000005,ROYSTON GROUP PRACTICE,-1.451018,53.600005
8561.310000000003,SOUTHEY GREEN MEDICAL CTR,-1.477666,53.419051
25421.71000000001,IVRY STREET MEDICAL PRACTICE,1.148624,52.064021
28538.88,NORTH FULHAM SURGERY,-0.199224,51.486415
1877.1799999999994,FULHAM CROSS MEDICAL CENTRE,-0.214067,51.482774
1356.5699999999993,LAI CHUNG FONG QUEENS PARK HEALTH CENTRE,-0.205826,51.530911
30380.80000000001,NEWBURY GROUP PRACTICE,0.085981,51.576435
96317.07,HARDWICKE HOUSE GROUP PRACTICE,0.725792,52.0382
27538.980000000014,WHEATFIELD SURGERY,-0.495144,51.904445
5264.409999999997,BRAMPTON HEALTH CENTRE,-0.277386,51.586099
7552.649999999998,DOCKLANDS MEDICAL CENTRE,-0.021143,51.491152
22387.49,BELMONT SURGERY,0.340829,51.061952
18038.55000000001,LONG CATLIS ROAD SURGERY,0.595579,51.348325
15456.430000000013,ABBEY WOOD SURGERY,0.11653,51.497094
19622.42,WOOLSTONE MEDICAL CENTRE,-0.036776,51.438421
12238.220000000005,MINET GREEN HEALTH PRACTICE,-0.105204,51.475715
13735.629999999996,SOUTHGATE MEDICAL GROUP,-0.194559,51.102316
17436.86999999999,NEW ADDINGTON GROUP PRACTICE,-0.018557,51.344382
10119.630000000003,BANBURY ROAD MEDICAL CENTRE,-1.263535,51.774771
43855.79,THE ARMADA FAMILY PRACTICE,-2.571861,51.413438
27279.25000000001,STAFFORD MEDICAL GROUP,-2.914755,51.35259
24907.109999999986,BROCKWORTH SURGERY,-2.156696,51.844575
69108.52000000008,SEVERN VALLEY MEDICAL PRACTICE,-2.235045,52.190415
34159.32999999999,DAWLEY MEDICAL PRACTICE,-2.466781,52.664322
27682.77,LEEK HEALTH CENTRE,-2.019347,53.105691
16171.650000000005,CHASE MEADOW HEALTH CENTRE,-1.608604,52.268838
2792.830000000003,HILL TOP PRACTICE,-2.011775,52.537791
4655.73,MAGHULL HEALTH CENTRE (DR SAPRE),-2.943932,53.515597
28632.51,LIME SQUARE MEDICAL CENTRE,-2.164901,53.473649
5165.969999999998,WINDERMERE SURGERY,-2.205709,53.55956
12375.610000000011,BEESTON VILLAGE SURGERY,-1.569152,53.772415
8665.290000000008,HATTON MEDICAL PRACTICE,-0.433285,51.457879
6982.2400000000025,BLURTON MEDICAL CENTRE,-2.156565,52.972002
1018.6900000000003,GREAT CHAPEL STREET MEDICAL CENTRE,-0.134097,51.51508
10299.819999999998,HASTINGS AND ROTHER OOH,0.891514,51.129106
657.9199999999996,A&E GPS,-2.629091,53.55774
29.51,SW INTEGRATED TEAM COUNTYWIDE,-2.215887,52.216438
30281.09999999997,BIRBECK MEDICAL GROUP,-2.742581,54.656125
22798.950000000008,BEWICK ROAD SURGERY,-1.601653,54.956398
10484.71,WENLOCK ROAD SURGERY,-1.455226,54.972635
26881.360000000026,WINTERTON MEDICAL PRACTICE,-0.606876,53.652511
19292.790000000008,THE OLD SCHOOL MEDICAL PRACTICE,-1.1424040000000002,53.916163
23100.980000000003,KEIGHLEY ROAD SURGERY,-1.893907,53.754239
19468.050000000017,MULBERRY STREET MEDICAL PRACTICE,-1.66397,53.794738
23181.43999999999,CHATSWORTH ROAD MEDICAL CENTRE,-1.467337,53.231374
14602.159999999998,CRICH MEDICAL PRACTICE,-1.482573,53.084327
13015.519999999995,MEXBOROUGH HEALTH CENTRE,-1.279795,53.494237
50398.200000000026,ST VINCENT MEDICAL CENTRE,-1.124029,53.525476
16383.169999999984,LUDHAM AND STALHAM GREEN SURGERIES,1.534423,52.709131
27.040000000000006,CASH SERVICES,-1.152629,53.207243
85.26,HAVEN COURT,-1.428468,54.971208
24756.080000000034,BENTHAM ROAD HEALTH CENTRE,-2.50627,53.73058399999999
10.59,HMP EASTWOOD PARK,-2.467383,51.634454
33.12,CCS PAEDIATRICIANS,-0.474714,52.140306
890.88,ROTHERHAM HOSPICE,-1.340784,53.424046
184.54,INVICTA HEALTH CONNECT FOLKESTONE,1.171894,51.085996
12877.959999999995,CRESWELL AND LANGWITH MEDICAL CENTRE,-1.215835,53.262654
1409.9400000000005,INHEALTH NWCATS,-2.163393,53.602382
2.8,THANET ANTICOAG SERVICE - PAYDENS,1.08554,51.071506
329.3,ST LUKES HOSPICE,0.456959,51.5576
1139.44,UHMB COMMUNITY NMP,-2.799232,54.042726
356.42,PRIMARY CARE ACCESS SERVICE,-2.134034,53.450605
32699.380000000023,NORWOOD MEDICAL CENTRE,-3.222974,54.119201
31368.260000000013,BEECHWOOD GROUP PRACTICE,-3.545472,54.642376
53341.12999999999,DENMARK STREET SURGERY,-1.552252,54.538825
30557.630000000016,WELL CLOSE MEDICAL GROUP,-2.006127,55.77245799999999
25499.099999999995,PALLION FAMILY PRACTICE,-1.414195,54.908604
16215.840000000007,PICTON MEDICAL CENTRE,-1.77624,53.807296
26801.730000000003,PARKSIDE MEDICAL CENTRE,-0.021998,52.981526
58034.10999999991,ORCHARD MEDICAL PRACTICE,-1.206764,53.141121
35794.429999999986,THE BURNS PRACTICE,-1.12309,53.520707
20483.310000000016,WINCOBANK MEDICAL CENTRE,-1.416316,53.419405
17926.69,UEA MEDICAL CENTRE,1.241391,52.622369
8103.550000000002,THE VILLAGE SURGERY,-0.168135,51.648069
7287.689999999998,THE STREATFIELD MEDICAL CENTRE,-0.30083,51.595343
5515.070000000002,THE CHELSEA PRACTICE,-0.166915,51.486814
24866.60000000002,ST. BARTHOLOMEWS SURGERY,0.051755,51.532409
22827.26,RYDAL,0.020102,51.608432
35565.929999999986,GROSVENOR & ST JAMES MEDICAL CENTRE,0.264349,51.137424
9765.410000000009,KING GEORGE ROAD SURGERY,0.518518,51.348911
5853.829999999997,THE THREE ZERO SIX MEDICAL CENTRE,-0.076403,51.450741
14257.22,VIRGINIA WATER MEDICAL PRACTICE,-0.568235,51.403367
13266.890000000007,NEW OTTERSHAW SURGERY,-0.526005,51.361938
11515.889999999998,THE ALTON PRACTICE,-0.239471,51.44914
96220.44999999994,THE WILLOW GROUP,-1.143034,50.800579
26265.39999999998,ALEXANDER HOUSE SURGERY,-0.7520019999999998,51.293749
38585.710000000014,RIDGEWAY VIEW FAMILY PRACTICE,-1.7915709999999998,51.524175
28785.74999999997,GREEN MEADOWS SURGERY,-0.677163,51.426939
19289.250000000004,PORT VIEW SURGERY,-4.214351,50.40735
50445.74,CHURCHDOWN SURGERY,-2.171559,51.882487
37443.32000000002,STANMORE HOUSE SURGERY,-2.231468,52.391138
20001.720000000005,WARGRAVE HOUSE SURGERY,-2.712261,52.055418
13417.419999999986,VENTNOR MEDICAL CENTRE,-1.203791,50.594548
25029.40999999997,THE HALL PRACTICE,-0.561016,51.606986
19827.499999999996,WEST VIEW SURGERY,-2.50212,51.411923
6366.2400000000025,HARTLAND SURGERY,-4.482549,50.992721
30564.00000000001,STATION DRIVE SURGERY,-2.715141,52.370132
90555.92000000014,SOLIHULL HEALTHCARE PARTNERSHIP,-1.775235,52.419642
17102.020000000004,CONCEPT HOUSE SURGERY,-2.98492,53.449136
29581.110000000026,ADELAIDE STREET SURGERY,-3.048397,53.817351
21532.03000000001,LOCKWOOD GP SURGERY,-2.989833,53.850947
10048.259999999997,CAVENDISH HEALTH CENTRE,-0.148092,51.519331
56600.080000000016,BROWNLOW GROUP PRACTICE,-2.96585,53.405021
8207.940000000002,HEATHROW MEDICAL CENTRE,-0.433924,51.49302
5773.140000000006,THE ENTERPRISE PRACTICE,-0.320613,51.601113
91.28,COMMUNITY GYNAE SERVICE,-1.555879,53.778323
25548.53,ODDFELLOWS HALL & ST CLEMENTS,0.327906,51.480703
565.04,COMMUNITY GERIATRICIAN SERVICE,-1.568473,53.81497099999999
248.54,COMMUNITY ENT SERVICE,-2.146398,52.465406
589.2599999999999,WYRE FOREST COMMUNITY NURSES,-2.244954,52.387785
11682.069999999987,CHAUCER SURGERY,-1.45237,52.515151
4.91,CONTINENCE PRESCRIBING SERVICE,-2.25528,53.390625
30897.45,THE ENDEAVOUR PRACTICE,-1.235397,54.575047
19413.41999999999,THE LAKES MEDICAL PRACTICE,-2.742581,54.656125
19978.41000000001,EAST PARADE SURGERY,-1.529793,53.996354
13165.479999999996,FIELDHEAD SURGERY,-1.639379,53.831787
14833.190000000019,BASLOW HEALTH CENTRE,-1.617823,53.246144
31048.01,OSMASTON SURGERY,-1.467954,52.911084
7100.850000000002,ASQUITH SURGERY,-1.117116,52.601489
33405.22999999999,HOLBEACH MEDICAL CENTRE,0.014430000000000002,52.804778
12796.299999999996,YEADING MEDICAL CENTRE,-0.397019,51.533634
2891.9800000000005,MAYFAIR MEDICAL CENTRE,-0.150172,51.513536
17284.290000000023,SUN LANE,1.087469,51.071536
21224.96000000001,LYDDEN SURGERY,1.23991,51.163193
14501.17,THE CHURCH VIEW PRACTICE,0.609995,51.363412
12360.52,TRIANGLE GROUP PRACTICE,-0.011071,51.457798
30523.489999999987,SELSDON PARK MEDICAL PRACTICE,-0.06457300000000002,51.342409
9186.620000000003,LAMBOURN SURGERY,-1.526933,51.504696
25460.8,BICESTER HEALTH CENTRE,-1.157239,51.896742
28583.4,FOWEY RIVER PRACTICE,-4.635394,50.337915
40881.150000000016,KNOWLE HOUSE SURGERY,-4.134098,50.40863
23771.48,HOLTS HEALTH CENTRE,-2.406966,51.931555
24905.360000000015,CUMBERLAND HOUSE,-2.145844,52.901549
22808.530000000024,BILBROOK MEDICAL CENTRE,-2.181749,52.624775
14370.63,VALE OF RED HORSE,-1.510351,52.15797
20207.72999999999,BALSALL COMMON & MERIDEN GROUP PRACTICE,-1.643862,52.394956
18894.38,LANCE LANE MEDICAL CENTRE,-2.911916,53.396196
9639.899999999992,DR A GUPTA BENIM MEDICAL CENTRE,-2.947804,53.419395
29278.219999999987,DINAS LANE MEDICAL CENTRE,-2.861513,53.417388
127434.61999999992,LANCASTER MEDICAL PRACTICE,-2.797202,54.047583
3111.7100000000014,DR GWD BHIMA,-2.154239,53.611617
32070.84999999999,RIVERSIDE MEDICAL CENTRE,-2.672299,53.748112
7851.489999999998,LITTLETOWN FAMILY MED PRACT,-2.134298,53.529137
28215.02999999998,NEW COURT SURGERY,-2.30878,52.113538
7637.06,THE BARHAM & CLAYDON SURGERY,1.109866,52.110175
25013.88,SWANWOOD PARTNERSHIP,0.519034,51.613356
3873.7299999999987,NIGHTINGALE HOUSE,-0.159747,51.449354
8069.670000000003,CROWN WOOD MEDICAL CENTRE,-0.736934,51.395919
1967.620000000001,CITY REACH HEALTH SERVICES,1.288137,52.633042
17105.07999999998,THE JUNCTION SURGERY,-1.759212,53.643662
7828.649999999998,DORKING HEALTHCARE LLP,-0.333421,51.225985
71292.96999999999,BADGER GROUP OOH,-1.8778259999999998,52.477589
11762.880000000005,DURNFORD DERMATOLOGY CATS,-2.197033,53.554038
13636.130000000005,GREAT BRIDGE HEALTH CENTRE,-2.02775,52.527792
61876.96999999993,PELC REDBRIDGE OOH,0.066648,51.55684
18982.67999999999,BCH URGENT CARE CENTRE,-2.583357,51.412858
3735.4,NON MEDICAL PRESCRIBING SOUTHEND CCG,0.702782,51.583955
3969.9600000000014,COMMUNITY NURSING (SOUTH TEES),-1.215564,54.570237
70.41,NCH&C COMMUNITY NURSES (SOUTH),1.114575,52.570034
9.420000000000002,CRI HULL DRUGS INTERVENTION PROGRAMME,-0.345271,53.747391
4223.230000000001,WEST HERTS RESPIRATORY SERVICE,-0.468578,51.750846
1501.7800000000002,FITZWILLIAM HOSPITAL,-0.297549,52.576469
180.62,DGS HEALTH,0.343258,51.435153
369.43,SOUTH DOC VIRTUAL SERVICES,-1.96202,52.401797
824.8,DARLINGTON PALLIATIVE CARE,-1.567053,54.529074
10972.749999999998,GREENWOOD SURGERY,0.605168,51.653143
275.34,LEEDS INTEGRATED SEXUAL HEALTH SERVICE,-1.544048,53.80163
1270.3299999999995,RAMSAY HEALTHCARE UK,-2.076674,52.457813
11680.070000000007,EN HERTS ACUTE IN-HOURS VISITING SERVICE,-0.191727,51.782567
1918.1,PARTNERSHIP STOKE,-2.109085,52.810605
34.42999999999999,MERTON CCG-CLCH (NMP),-0.199155,51.47377
6.47,EAST BIRMINGHAM LCN FLEX PILOT,-1.817518,52.478024
5.56,BOOTS OPTICIANS,-2.36637,53.753902
7.949999999999998,DHU 111 NOTTS PHARMACIST PRESCRIBERS OOH,-1.428134,52.914593
8673.920000000002,GP SERVICES - GP HUBS,-0.175734,51.240416
27185.470000000005,MIDDLE CHARE MEDICAL GROUP,-1.573113,54.855636
11009.000000000007,I J HEALTHCARE,-1.531354,54.88104
8742.879999999997,OAK GLEN SURGERY,-1.816352,53.854799
29224.93999999997,WELLINGTON HOUSE,-1.634561,53.714775
28700.060000000016,SKELMANTHORPE FAMILY DOCTORS,-1.650686,53.591604
42485.05999999998,LEIGH VIEW MEDICAL PRACTICE,-1.558358,53.728574
9888.299999999996,OAKWOOD SURGERY,-1.4290459999999998,52.941386
18956.06,THE KAKOTY PRACTICE,-1.473444,53.5464
9997.719999999992,PHOENIX PRIMARY CARE (SOUTH) LTD,-0.435422,51.918016
1.47,SUFFOLK RECOVERY SERVICE - LOWESTOFT,1.7441240000000002,52.470331
22954.41000000001,NEWCASTLE GP IN MOLINEUX WIC,-1.583491,54.977507
1508.85,NORTH NORFOLK HUB 2 (BIRCHWOOD),1.38334,52.820065
6.48,I.C.B. (HENLEY),-0.907912,51.53874
1.08,ST CATHERINES PALLIATIVE CARE TEAM,-2.681517,53.720825
13114.889999999998,GILDERSOME HEALTH CENTRE,-1.6293,53.756554
15723.740000000007,HAZELMERE MEDICAL CENTRE,-1.16453,52.57337
20470.06999999998,BURNGREAVE SURGERY,-1.459815,53.393327
14230.44,FELTWELL SURGERY,0.527056,52.48268
24671.529999999984,QUEENS PARK HEALTH CENTRE,-0.493075,52.133151
12531.549999999996,ALBANY PRACTICE,-0.310054,51.48676
8440.750000000002,CASSIDY ROAD MEDICAL CENTRE,-0.199015,51.479154
84728.30999999998,COLCHESTER MEDICAL PRACTICE,0.909325,51.890029
26724.929999999997,ROWHEDGE SURGERY,0.945058,51.85767
6496.120000000001,DR VM PATEL,0.228776,51.561113
5911.079999999997,THE HEATHCOTE PRIMARY CARE CENTRE,0.062768,51.593832
26193.41,ESHER GREEN SURGERY,-0.370196,51.375782
4234.930000000001,CHILDS (THAMESIDE),-0.326599,51.427449
14578.430000000006,THE CHESSER SURGERY,-0.177303,51.374927
27642.070000000003,MOREDON MEDICAL CENTRE,-1.8070689999999998,51.582197
27308.600000000013,ASHFIELD MEDICAL CENTRE,-0.7382729999999998,52.019666
24082.290000000005,BUGBROOKE MEDICAL PRACTICE,-1.005426,52.211409
27894.059999999976,TRESCOBEAS SURGERY,-5.085333,50.15531
21992.02000000001,BUDSHEAD MEDICAL PRACTICE,-4.150289,50.417443
12637.719999999996,TEIGN ESTUARY MEDICAL GROUP,-3.496462,50.5456
22340.299999999992,MITCHELDEAN SURGERY,-2.488369,51.865935
22582.77000000001,LUSON,-3.229566,50.977398
51339.620000000046,HARESFIELD HOUSE SURGERY,-2.202996,52.194829
7352.500000000003,HEDNESFORD MEDICAL PRACTICE,-2.000697,52.71233
40336.68000000004,LAUREL HOUSE SURGERY,-1.692825,52.636563
26795.459999999985,HANDSWORTH WOOD MED.CTR.,-1.928196,52.51303299999999
9689.84,ROTTON PARK MEDICAL CENTRE,-1.947079,52.482162
18424.929999999975,LONGFORD PRIMARY CARE CENTRE,-1.48555,52.449933
44147.01000000002,TETTENHALL MEDICAL PRACTICE,-2.159502,52.600723
39690.01999999998,READESMOOR MEDICAL GROUP PRACTICE,-2.216792,53.163762
13521.520000000004,NEWTOWN SURGERY,-2.735705,53.362158
44623.940000000075,ROPE GREEN MEDICAL CENTRE,-2.453958,53.06655
11238.989999999994,PENNY LANE SURGERY,-2.915004,53.389404
13359.409999999998,ABINGDON FAMILY HEALTH CARE CENTRE,-2.943503,53.440571
36624.37000000002,WINGATE MEDICAL CENTRE,-2.874647,53.488385
37364.900000000016,AINSDALE MEDICAL CENTRE,-3.03882,53.602403
9324.420000000004,CORNERSTONE SURGERY,-2.457402,53.58815500000001
25230.47999999999,BARLBOROUGH MEDICAL PRACTICE,-1.284471,53.289528
17513.520000000004,VICTORIA PARK HEALTH CENTRE,-1.1192,52.619071
11883.559999999996,THE WRAGBY SURGERY,-0.301337,53.287948
51502.01000000004,SOUTH GRANGE MEDICAL GROUP PRACTICE,-1.166506,54.56995500000001
14265.349999999995,QUEEN STREET MEDICAL PRACTICE,-3.589063,54.546567
9766.78,OLD FORGE SURGERY,-2.079758,54.623041
8849.000000000005,EGTON SURGERY,-0.7552379999999999,54.445555
17894.260000000006,VESPER ROAD,-1.615337,53.827318
8714.709999999992,GLADSTONE HOUSE SURGERY,-1.307927,52.968816
13580.920000000006,THE PRACTICE-SAYEED,-1.106589,52.63081700000001
34134.40999999997,GLEADLESS MEDICAL CENTRE,-1.451325,53.356551
21731.419999999987,TRAMWAYS AND MIDDLEWOOD MEDICAL CENTRES,-1.515268,53.418958
19605.95,LANGSTONE WAY SURGERY,-0.210815,51.606981
6847.920000000005,ELMTREES SURGERY,-0.335968,51.550787
52076.11999999999,TULASI MEDICAL CENTRE,0.12448900000000002,51.561005
20513.870000000014,THE MILLER PRACTICE,-0.092165,51.551419
24789.54999999998,WARRIOR SQUARE SURGERY,0.562007,50.852963
22871.420000000016,SNODLAND MEDICAL PRACTICE,0.441488,51.326053
16749.54999999999,SUTTON VALENCE GROUP PRACTICE,0.59403,51.211195
19450.23000000001,LEITH HILL PRACTICE,-0.322969,51.150452
45259.03999999997,THE GROVES MEDICAL CENTRE,-0.26224,51.410048
18753.24000000001,THE MARINE & OAKRIDGE PARTNERSHIP,-1.806532,50.722838
5490.579999999999,MALTHOUSE MEADOWS SURGERY,-2.568038,50.668698
23135.97999999998,THE STAUNTON SURGERY,-0.978019,50.851067
23284.719999999976,PORT ISAAC SURGERY,-4.824594,50.589808
17358.86,THE CORINTHIAN SURGERY,-2.0815,51.906706
34460.65000000002,ST JOHNS HOUSE SURGERY,-2.25911,52.18874
14333.460000000005,CASTLEFIELDS,-2.129518,52.801013
9415.98999999999,ADDERLEY GREEN SURGERY,-2.135511,52.991714
13434.290000000026,HARBURY SURGERY,-1.458027,52.236759
7764.629999999997,DR BILAS,-2.063063,52.612824
770.58,HOSP.OF THE GOOD SHEPHERD,-2.901692,53.242544
29847.269999999986,BLUNDELLSANDS SURGERY,-3.041273,53.484452
31458.439999999966,QUEEN SQUARE MEDICAL PRACTICE,-2.800994,54.046219
4842.000000000002,DILL HALL SURGERY,-2.390844,53.754996
23816.93,WEST TIMPERLEY MEDICAL CENTRE,-2.353117,53.402699
16696.45,MARUS BRIDGE PRACTICE,-2.643772,53.529393
3726.37,SUMMERLEE MEDICAL CENTRE,-0.652145,52.337022
1412.1300000000006,HEALTH E1,-0.07152500000000002,51.518304
9710.259999999995,SLAG LANE MC,-2.575634,53.47856899999999
5923.850000000002,THE GRANGE MEDICAL CENTRE,-0.262039,52.57839
1385.1099999999988,CAXTON HOUSE SURGERY,-1.382415,53.575347
15.13,EPCS WOMENS HEALTH - WESTBOURNE GREEN,-1.77624,53.807296
12404.089999999995,OUT OF HOURS CENTRE,-1.842798,54.869081
2518.01,ALEX CENTRE UNREGISTERED WIC,-0.369696,51.568372
9081.129999999996,WESTCOTES MEDICAL CENTRE,-1.153587,52.63133199999999
1.05,COMMUNITY TEAM SOUTH KERRIER,-5.264928,50.091946
8.769999999999998,GUILDFORD & WAVERLEY INT DERM SERVICE,-0.08430999999999998,51.500087
2744.760000000001,PRIMARY HEALTHCARE DARLINGTON,-1.561958,54.528141
7691.899999999998,WEST MERTON ACCESS HUB,-0.210281,51.409967
426.43999999999994,SANDWELL HEALTH PARTNERSHIP,-2.011259,52.536236
8509.399999999998,DERBY CITY SOUTH HEALTHCARE LTD,-1.531656,52.891817
83.22999999999998,SAFECARE NETWORK,-0.647232,53.568261
11.6,AQP SLH DORRIDGE,-1.752074,52.372757
7.81,EXETER HEADACHE CLINIC,-3.54518,50.714472
13997.480000000007,REDGATE MEDICAL CENTRE,-2.987659,51.126385
20789.140000000018,GREAT WITLEY SURGERY,-2.361004,52.291152
29741.17999999996,MADELEY PRACTICE,-2.345126,52.999856
23377.86000000001,GREEN RIDGE SURGERY,-1.8710349999999998,52.428433
17590.26,RIVER BROOK MEDICAL CENTRE,-1.913809,52.43303
15270.309999999976,BUNBURY MEDICAL PRACTICE,-2.649377,53.116827
17146.420000000006,MURDISHAW,-2.662128,53.323997
11861.920000000002,ROCK COURT SURGERY,-2.916187,53.411597
19699.67999999999,POPLAR HOUSE SURGERY,-3.03076,53.754721
36750.36999999999,QUEENSWAY MEDICAL CENTRE,-2.995384,53.846569
35049.28999999999,CASTLETON HEALTH CENTRE,-2.18229,53.597034
19091.719999999994,HAVEN HEALTH,1.327039,51.96536
16656.28000000001,DR KK CHAN & PARTNERS,-2.489022,53.524185
2294.2400000000007,DANEHOUSE MEDICAL PRACTICE,-2.238948,53.791326
15495.249999999987,SWANSWELL MEDICAL CENTRE,-1.816529,52.432515
9738.53,DR MALIK - KENT ELMS HC,0.664114,51.563831
14439.069999999994,CITY ROAD MEDICAL CENTRE,-0.091116,51.527895
21818.79,SALFORD GP OUT OF HOURS,-2.323424,53.487545
2070.2200000000007,LEICESTER CITY ASSIST PRACTICE,-1.136115,52.637338
12893.810000000005,BOTOLPH BRIDGE COMMUNITY HEALTH CENTRE,-0.261557,52.562595
5440.959999999998,SHORTSTOWN MEDICAL CENTRE,-0.432463,52.110853
12.510000000000002,SOUTH CENTRAL AMBULANCE SERV NHS TRUST,-1.334302,51.009293
48361.51999999999,MK URGENT CARE SERVICES OOH,-0.7357599999999997,52.026384
986.5100000000001,NOTTINGHAM CITYCARE,-1.155769,52.951832
15.62,EPUT PODIATRY,0.12393,51.704295
1618.8099999999995,ASHTON PCC SEVEN DAY ACCESS OOH,-2.099981,53.485827
143.3,RESPIRATORY SERVICE STOKE AND NORTH,-2.109085,52.810605
7877.470000000005,LONG EATON ON DAY SERVICE,-1.272531,52.901553
17655.159999999996,VC SKELMERSDALE UCC,-2.773401,53.549935
1152.6199999999994,SOUTH CHESHIRE & VALE ROYAL PCAH,-2.531272,53.1909
47151.88999999999,THE HAWTHORNS SURGERY,-1.825965,52.538746
24087.97,PARK HOUSE MEDICAL CENTRE,-2.805295,53.42670699999999
15060.49,SOUTH KING STREET MEDICAL CENTRE,-3.047855,53.816775
15016.990000000013,DR A CALOW'S PRACTICE,-2.503837,53.742584
13959.879999999996,ST MARY'S MEDICAL CENTRE,-2.108554,53.543625
41945.73000000002,CHEADLE MEDICAL PRACTICE,-2.213539,53.393745
20983.36000000001,GREEN STREET GREEN MED CT,0.089996,51.354366
8759.260000000011,3/ST ANDREWS MEDICAL CENTRE,-2.339619,53.484875
17497.870000000014,HORIZON HEALTH CENTRE,-2.965121,51.331294
1298.7999999999995,ANN MARIE HOWES CENTRE,-1.7785380000000002,52.464805
109.4,EAR NOSE AND THROAT CLINIC,-1.597685,54.851721
10035.990000000009,BLACKFRIARS,-2.254244,53.484135
63.84,FIRST COMMUNITY HEALTH & CARE,-0.170767,51.235608
2238.8899999999994,BEDSER HUB,-0.556304,51.315132
218.47,HARROW RAPID RESPONSE SERVICE,-0.294546,51.596988
266.39,AIREBOROUGH COMMUNITY CARE,-1.684881,53.866663
17.06,SNAPS STOMA,-2.475863,53.117685
75.39999999999998,SMP CLINIC,-1.119092,52.631036
9056.739999999998,CALDBECK SURGERY,-3.050622,54.749864
29236.590000000033,OXFORD STREET SURGERY,-3.5505760000000004,54.64373
1241.0400000000013,WRAYSDALE HOUSE SURGERY,-3.076077,54.367247
77913.83999999992,SAVILLE MEDICAL GROUP,-1.609598,54.976095
7095.400000000003,COOK BF,-0.357512,53.780969
10530.009999999997,PEELER HOUSE SURGERY,-0.438756,53.72252
18949.86,DR INGRAM & PTRS,-1.526892,54.136451
50186.349999999984,LINGWELL CROFT SURGERY,-1.535053,53.749986
12604.250000000005,HOUNSFIELD SURGERY,-0.811033,53.183702
20882.180000000004,LENSFIELD MEDICAL PRACTICE,0.124449,52.198365
20717.369999999995,CEDAR BROOK PRACTICE,-0.41413199999999994,51.534092
442.19000000000005,THE ROYAL MEWS SURGERY,-0.145223,51.498764
15401.570000000005,ROSE VILLA SURGERY,0.506616,51.566232
32117.030000000028,ADELAIDE MEDICAL CENTRE,-0.161257,51.543548
9627.009999999987,DR DHITAL PRACTICE,-0.003074,51.587786
6482.479999999998,HOLLINGTON SURGERY,0.872487,51.151423
31084.250000000015,WOODLANDS HEALTH CENTRE,0.38485,51.18077
3073.959999999997,NORHEADS LANE SURGERY,0.026739,51.314542
10364.18,HARTLAND WAY SURGERY,-0.045782,51.374372
17126.730000000014,BOYATT WOOD SURGERY,-1.36001,50.977856
14806.31,GREENFORD ROAD MED.CTR.,-0.345702,51.537697
19357.61000000001,THE OAKLAND MEDICAL CENTRE,-0.45129300000000006,51.546055
9354.06999999999,QUEENS WALK MEDICAL CENTRE,-0.393155,51.562716
9604.61,THE ABINGDON HEALTH CENTRE,-0.197138,51.496085
24649.14,THE ARDLEIGH SURGERY,0.985096,51.927073
42863.46000000002,ADDISON HOUSE - HAQUE PRACTICE,0.088979,51.770891
17360.16,ST PETER'S STREET MEDICAL PRACTICE,-0.100772,51.535597
22302.82999999998,ABERFELDY PRACTICE,-0.004927,51.514483
44911.20999999994,STONE CROSS SURGERY,0.289944,50.816757
7418.419999999997,ELTHAM PALACE PMS,0.053714,51.449946
18737.90000000001,BROCKBANK (PARK ROAD),-0.334596,51.423912
32683.269999999997,CHAWTON PARK SURGERY,-0.989411,51.139814
26334.98,STOKENCHURCH MEDICAL CTRE,-0.904033,51.660479
7726.350000000002,MARSHALLS ROAD SURGERY,-0.539225,52.344743
8923.750000000002,HOLLINSWOOD SURGERY,-2.437453,52.673936
7866.899999999998,ABBOTS BROMLEY SURGERY,-1.880966,52.819974
41758.000000000015,DARWIN MEDICAL CENTRE,-1.831505,52.694061
26027.01000000001,THE OAKS MEDICAL CENTRE,-1.895827,52.552454
6253.500000000006,VICTORIA ROAD MEDICAL CTR,-1.887197,52.501868
25547.099999999984,ST JOHN'S MEDICAL CENTRE,-1.932532,52.626307
15900.380000000017,NEWBRIDGE SURGERY,-2.155299,52.5936
49847.93000000002,THE CORNERSTONE PRACTICE,-2.4524,53.739201
12897.550000000012,TOWNSIDE SURGERY,-2.29898,53.59031
15533.150000000012,GOODMAYES MEDICAL CENTRE,0.10990599999999999,51.567626
3868.64,PARK GRANGE MEDICAL CENTRE,-1.775929,53.789415
2211.860000000001,ST.GEORGES MEDICAL CENTRE,-0.24612,51.558731
5.27,GPSI DERMATOLOGY HEAVITREE HC,-3.505542,50.723202
9.03,UTTLESFORD HEALTH LIMITED GYNAECOLOGY,0.256305,52.0236
10498.120000000004,HETHERINGTON AT THE PAVILION,-0.116397,51.461633
31.42,DMC SHEPPEY OPHTHALMOLOGY,0.793061,51.415409
11900.810000000005,OAKWOOD MEDICAL CENTRE,-0.134269,51.646534
24465.76,SOUTH HERMITAGE SURGERY,-2.752497,52.699728
11.81,C.A.M.H.S.,-2.689816,53.693597
9.590000000000002,VIOLENT PATIENT ENHANCED SERVICE 1,-2.2227,53.49493
26370.03000000001,PCEC,-2.227711,53.462436
3.06,EAST KENT HEADACHE SERVICE,1.414787,51.390277
6253.729999999996,SMGPF,-2.237795,53.434307
25.05,TPG COMMUNITY OPHTHALMOLOGY - SALFORD,-0.574826,51.671154
2086.0400000000004,DCHS DERBY CITY,-1.441882,53.221288
1.89,TURNING POINT LEICESTER & LEICESTERSHIRE,-1.127621,52.637554
16693.239999999994,REDBURN PARK MEDICAL CENTRE,-1.474775,55.00092
7637.03,CASTLETOWN MEDICAL CENTRE,-1.450848,54.913341
8562.970000000003,ALDBROUGH ST JOHN SURGERY,-1.684645,54.496518
3044.1699999999987,EAST PARADE MEDICAL PRACTICE,-1.061835,53.965993
10176.72,BARKEREND HC - EL ELIWI,-1.7218490000000002,53.797834
41084.88999999997,SHAFTESBURY MEDICAL CTR.,-1.497858,53.800234
17895.329999999994,GROBY ROAD MEDICAL CENTRE (ID PATCHETT),-1.150468,52.644337
9101.670000000016,ROSEMEAD DRIVE SURGERY,-1.083088,52.5934
2106.9799999999987,AR-RAZI MEDICAL CENTRE,-1.101204,52.623926
14568.04,BRANSTON & HEIGHINGTON FAMILY PRACTICE,-0.467988,53.195831
28470.39000000001,FOUNTAIN MEDICAL CENTRE,-0.8043829999999998,53.07286
17565.030000000017,OAKENHALL MEDICAL PRACT,-1.199437,53.03661700000001
21031.68,SCAWSBY HEALTH CENTRE PRACTICE,-1.167843,53.53678299999999
26226.279999999977,ST. GEORGE'S MEDICAL CENTRE,0.298817,52.458085
20852.939999999977,LAWNS PRACTICE,1.109092,52.378889
27156.1,CENTRAL SURGERY,0.147747,51.812546
10483.84000000001,CHURCH END MEDICAL CENTRE,-0.253241,51.54757
18681.26,BRENTFORD GROUP PRACTICE,-0.310054,51.48676
17508.160000000003,THE DEVONSHIRE LODGE PRACTICE,-0.397406,51.579266
5441.200000000004,THE HOXTON SURGERY,-0.086829,51.533527
7719.580000000003,LL MEDICAL CARE LTD,0.0021,51.555415
46899.00999999998,JUBILEE MEDICAL CENTRE,0.300332,51.3978
17492.19000000001,LAMBETH WALK GROUP PRACTICE,-0.11259100000000001,51.495609
18410.27,STANWELL ROAD SURGERY,-0.470567,51.438013
79605.98999999998,THE ADAM PRACTICE,-2.07822,50.757881
13742.909999999993,SOUTHMEAD SURGERY,-0.616953,51.552538
10321.079999999996,CLIFTON HAMPDEN SURGERY,-1.211451,51.658625
109.98999999999998,DORSET IUC PARTNERSHIP,-1.856578,50.81726
181.05,ATTWOOD GREEN HEALTH UNIT,-1.9084709999999998,52.47264200000001
13077.600000000008,GROOMBRIDGE AND HARTFIELD MED GRP,0.184416,51.113952
18893.770000000008,POND TAIL SURGERY,-0.066728,51.246436
59359.960000000036,THE WALL HOUSE SURGERY,-0.208192,51.241304
6608.070000000002,THE HALING PARK PARTNERSHIP,-0.098109,51.357113
21841.010000000028,THE PRINCE OF WALES SURGERY,-2.457579,50.713502
32303.76000000001,BRANKSOMEWOOD H/CARE CTR,-0.8448069999999998,51.281888
16189.67,THE GROVE SURGERY,-0.735114,52.023651
21069.29999999998,PROBUS SURGERY,-4.948542,50.290121
45430.48000000002,ABBEY SURGERY,-4.150401,50.546904
36358.83000000001,WHITEACRES MEDICAL CENTRE,-2.300547,52.124716
6563.7199999999975,WOODSIDE MEDICAL PRACTICE,-2.466175,52.637949
23880.320000000014,LYME VALLEY MEDICAL CENTRE,-2.22375,53.006305
18610.73000000001,AUDLEM MEDICAL PRACTICE,-2.508717,52.989615
11009.160000000005,KENNETH MACRAE MED CENTRE,-2.786435,53.49903
34728.05999999998,BODEY MEDICAL CENTRE,-2.214798,53.440636
7763.590000000003,WOODLANDS MEDICAL PRACTICE,-2.31213,53.406624
4651.100000000003,DR PAL,-2.595495,53.47988
19648.040000000008,BATH ROAD SURGERY,-0.37684,51.469395
16617.24,CHAPEL ROW SURGERY,-1.17086,51.425877
7666.809999999998,WOODLANDS MEDICAL PRACTICE,-0.170943,51.592914
9215.829999999998,NORTH LINCOLNSHIRE OOH,-0.667599,53.587582
8.33,HALTON COMMUNITY PALLIATIVE CARE TEAM,-2.670823,53.320248
10.65,EPUT COMMUNITY CARDIOLOGY,0.12393,51.704295
232.58,COMMUNITY SERVICES,-0.175694,51.426682
4.16,BROMLEY DIABETES SERVICE (BECKENHAM),-0.033209,51.405232
660.9199999999996,NCH&C COMMUNITY NURSES (WEST),0.410147,52.749129
3.78,SOUTH COUNTY CONTINENCE PRESCRIPTION SER,-1.273227,52.930792
2.66,MUSCULOSKELETAL INTERFACE ASSESSMT SVCE,-0.168282,51.45617
47204.88,HEALTHBRIDGE DIRECT,0.020102,51.608432
4.07,AQP ANTICOAG RIDGACRE MEDICAL CENTRE,-1.9901099999999998,52.460912
1337.6299999999992,TAMESIDE & GLOSSOP IC NHS FT,-2.071433,53.49153
134.29,ACCT 2,-1.962695,53.898015
498.6,DMC COMMUNITY DERMATOLOGY SERVICE,1.087083,51.266589
2.8,HMP YARL'S WOOD IRC,-0.491936,52.198317
3117.640000000001,EXTENDED HOURS SERVICE-ONE LIFE,-1.214164,54.682342
30.41,BMI-THE SLOANE HOSPITAL,-0.00436,51.408332
24450.12000000001,CRAMLINGTON MEDICAL GROUP,-1.591516,55.084481
28400.16000000001,KINGSTON MEDICAL GROUP,-0.349365,53.756137
5600.979999999998,WESTFIELD MEDICAL CENTRE,-1.531703,53.817673
17168.03,VERNON STREET MEDICAL CTR,-1.49039,52.924019
11197.130000000012,STUBLEY MEDICAL CENTRE,-1.488541,53.304986
71617.87000000001,BRIDGE COTTAGE SURGERY,-0.215995,51.830002
23160.63,GRANGE STREET SURGERY,-0.335878,51.757298
3688.81,CHICHELE ROAD SURGERY,-0.216241,51.55483
5303.160000000002,SHIRLAND ROAD MEDICAL CENTRE,-0.203904,51.5292
24567.27000000001,DR KRISHNAN & PTNR - KENT ELMS HC,0.664114,51.563831
11771.830000000013,CRANHAM HEALTH CENTRE,0.265291,51.568865
12850.240000000002,ST PETER'S SURGERY,1.41893,51.362936
13972.660000000013,LEWISHAM MEDICAL CENTRE,0.004522,51.458513
9121.199999999992,STEWKLEY ROAD SURGERY,-0.71666,51.898041
4181.49,SIBFORD SURGERY,-1.479244,52.037614
41032.46999999999,NEW COURT SURGERY,-2.958059,51.345794
35943.24999999996,AXMINSTER MEDICAL PRACTICE,-2.999226,50.780899
46847.56999999996,COLERIDGE MEDICAL CENTRE,-3.2835660000000004,50.751704
22483.420000000035,LYDNEY PRACTICE,-2.529867,51.727913
18265.11,PRICES MILL SURGERY,-2.224938,51.693801
37828.06999999998,ST. JOHNS SURGERY,-2.059728,52.337612
38602.80999999998,THE ALDERGATE MED.PRACT.,-1.695644,52.639079
27095.14000000002,YARDLEY WOOD HEALTH CENTRE,-1.859168,52.418648
14268.399999999992,MONTAGUE MEDICAL PRACTICE,-0.872899,53.707031
34619.67000000003,EASTGATE MEDICAL GROUP,-1.462815,54.006795
22246.670000000016,HORTON BANK PRACTICE,-1.806018,53.774478
13705.930000000013,MARSH MEDICAL PRACTICE,0.143689,53.445069
39418.460000000036,HUDDERSFIELD ROAD SURGERY,-1.485631,53.558165
55451.25999999997,SWALLOWNEST HEALTH CENTRE,-1.317097,53.362997
20142.300000000007,SHERINGHAM MEDICAL PRACTICE,1.214777,52.939688
37844.529999999984,KNEBWORTH & MARYMEAD MEDICAL PRACTICE,-0.184972,51.866323
6219.960000000001,THE HODFORD ROAD PRACTICE,-0.199318,51.569038
9905.989999999998,HAZELDENE MEDICAL CENTRE,-0.275394,51.547592
14033.530000000004,CLOISTER ROAD SURGERY,-0.265589,51.521352
12117.560000000005,ABBEY ROAD MEDICAL PRACTICE,0.005881,51.534784
7053.179999999998,BOUNDARY HOUSE SURGERY,-0.054245,51.632475
15819.31,MANOR PARK MEDICAL CENTRE,0.24261,50.819107
20056.420000000006,CHURCH LANE HEALTH CENTRE,0.941162,50.984187
49435.71000000002,BETHESDA MEDICAL CENTRE,1.414787,51.390277
22485.65,WOODLANDS SURGERY,0.088913,51.439755
25844.78000000001,LILLIPUT SURGERY,-1.954229,50.711523
49300.169999999984,WESTBURY GROUP PRACTICE,-2.203558,51.252792
36457.92,PENRYN SURGERY,-5.10336,50.167504
28710.62000000002,CROWN MEDICAL CENTRE,-3.080969,51.029111
18432.970000000016,BARN CLOSE SURGERY,-1.859248,52.03627
11593.639999999998,HIGHLEY MEDICAL CENTRE,-2.392978,52.456165
4749.019999999999,ALVELEY MEDICAL PRACTICE,-2.353309,52.454738
10688.09000000001,WOLSTON SURGERY,-1.392727,52.376806
10744.339999999987,BALLIOL ROAD SURGERY,-1.471449,52.415924
19368.320000000007,NEWTON MEDICAL CENTRE,-2.638386,53.457172
17261.059999999998,GREASBY GROUP PRACTICE,-3.121417,53.377628
14946.120000000004,LOSTOCK HALL MEDICAL CTR.,-2.688037,53.727502
8653.639999999998,KNOWSLEY MEDICAL CENTRE,-2.300551,53.588497
12440.690000000004,TIMPERLEY HEALTH CENTRE (WESTWOOD),-2.323566,53.397228
5.8100000000000005,CORPORATE DIVISION,0.475497,50.850706
10328.409999999998,BIRMINGHAM DENTAL HOSPITAL,-1.916521,52.45037
2.66,SUFFOLK RECOVERY SERVICE - IPSWICH,1.150763,52.057299
210.94000000000003,UROLOGY-MERTON CCG,-0.210281,51.409967
1.47,COMM PAEDIATRIC & LAC HEALTH SERVICE,-2.756261,53.446091
4219.829999999999,WELLINGBOROUGH EXTENDED ACCESS,-0.695567,52.303398
177.47000000000003,ST JOSEPH'S HOSPICE  HACKNEY,-0.056255,51.537053
18138.33,SUMMERFIELD URGENT CARE CENTRE WIC,-1.937353,52.487686
14708.950000000004,PENINSULA MEDICAL PRACTICE,-2.915665,54.18795600000001
23245.18000000001,ROSEWORTH SURGERY,-1.61867,55.001366
62815.61000000006,GREENGATES MEDICAL GROUP,-0.418494,53.844343
41690.84000000003,HEBDEN BRIDGE GROUP PRACTICE,-2.010942,53.744036
12791.820000000012,LIMES MEDICAL CENTRE,-1.387885,53.098493
18385.420000000006,CHURCHSIDE MEDICAL PRACTICE,-1.203539,53.146592
17343.17,SELSTON SURGERY,-1.299871,53.070196
21952.80000000001,CRYSTAL PEAKS MEDICAL CENTRE,-1.354473,53.342881
38826.29999999996,LINCOLN HOUSE SURGERY,-0.469093,51.737355
26385.410000000025,STOCKWELL LODGE MED.CTR.,-0.055287,51.713792
26167.52999999999,SOUTHEND MEDICAL CENTRE,0.708516,51.540069
3961.9999999999986,DR DEVARAJA VC PRACTICE,0.44359,51.520015
7486.1,DR PM PATEL,0.219281,51.55632
12224.379999999996,THE MITCHISON ROAD SURGERY,-0.087357,51.544992
7784.03,FOUNTAYNE ROAD HEALTH CENTRE,-0.065145,51.56442
25589.72000000001,FRAMLINGHAM SURGERY,1.334192,52.227216
4444.190000000001,ARCHWAY SURGERY,-0.532167,51.72275
11323.809999999996,CHURCH LANE SURGERY,-0.262165,51.574931
4004.8700000000013,CHISWICK FAMILY DRS PRACTICE,-0.259879,51.493563
7921.100000000002,ACRE SURGERY,-0.411552,51.604465
7803.820000000002,CHOWDHURY,0.233898,51.592339
8780.189999999997,CUMBERLAND MEDICAL CENTRE,0.026047,51.519716
34199.90999999994,ILFORD MEDICAL CENTRE,0.07431899999999998,51.556823
20288.749999999996,RYE MEDICAL CENTRE,0.730363,50.961944
5798.699999999998,MAIDSTONE RD CHATHAM SURGERY,0.516708,51.361226
10593.13000000001,VASSALL MEDICAL CENTRE,-0.10851199999999998,51.477558
27720.19,WITLEY SURGERY,-0.650163,51.156457
15220.190000000004,FARMHOUSE SURGERY,-1.7595,50.736437
19939.76,JENNER HOUSE SURGERY,-0.7745189999999998,51.294302
17264.84000000001,LONG BARN LANE SURGERY,-0.967033,51.436181
84343.02999999996,WESTONGROVE PARTNERSHIP,-0.74378,51.76588
18227.56999999999,MILBORNE PORT SURGERY,-2.471962,50.967502
14239.399999999992,OMBERSLEY MEDICAL CENTRE,-2.229023,52.276554
37005.62,FURLONG MEDICAL CENTRE,-2.208139,53.063325
28121.83000000001,NORFOLK STREET SURGERY,-2.182794,53.01602
15205.44000000001,PARADISE MEDICAL CENTRE,-1.494835,52.426778
17302.88,MAYFIELD MEDICAL CENTRE,-2.093284,52.583046
26412.83000000003,LEVENSHULME MEDICAL PRACTICE,-2.188524,53.446352
18207.86,HEALD GREEN HEALTH CENTRE 2,-2.229276,53.369878
12829.130000000005,SMITH (RICHMOND LOCK),-0.322897,51.464517
9156.719999999994,CHILLINGTON HEALTH CENTRE,-3.693645,50.272623
14539.570000000007,JUBILEE GARDENS MEDICAL CENTRE,-0.368739,51.521097
11530.880000000012,BLACKHEATH MED CTR,-3.104694,53.412239
2615.07,AMBAR MEDICAL CENTRE,-1.991354,52.575093
4087.1900000000014,GOLDINGTON ROAD SURGERY,-0.456174,52.140172
31852.80000000001,DMC ST MARYS ISLAND SURGERY,0.538105,51.406776
1872.7,STREET LANE DERMATOLOGY CLINIC,-1.513393,53.843234
17024.519999999993,POPLAR PRIMARY CARE CENTRE,-1.890326,52.43631
5532.840000000004,NORTHAMPTONSHIRE OUT OF HOURS SERVICE,-0.683359,52.29767
80436.38000000003,THORNABY & BARWICK MEDICAL GROUP,-1.292128,54.538149
50479.47000000001,BRAMPTON MEDICAL PRACTICE,-2.734846,54.94237
20560.09,RISEDALE SURGERY,-3.224778,54.109942
26004.920000000016,ROWLANDS GILL MEDICAL CENTRE,-1.742896,54.91936
28500.200000000008,THE SUTTON MANOR SURGERY,-0.315294,53.785759
23538.120000000006,PLANE TREES GROUP PRACTICE,-1.894437,53.730448
30563.61,THORNTON MEDICAL CENTRE,-1.576209,53.791908
45031.15999999994,JESSOP MEDICAL PRACTICE,-1.372226,53.074348
57201.95,THE PARK MEDICAL PRACTICE,-1.432644,52.928801
14216.02,BRAILSFORD & HULLAND MEDICAL PRACTICE,-1.624927,52.96943
34684.59999999998,MERRIDALE MEDICAL CENTRE (RP TEW),-1.160752,52.620146
16258.700000000012,THE MAYFLOWER MEDICAL PRACTICE,-1.01945,53.431872
32170.17000000003,BASLOW RD  SHOREHAM ST & YORK RD SRGIES,-1.531066,53.316325
7847.42,OVER SURGERY,0.012018,52.314809
21842.779999999984,DR TUN & PARTNERS,-2.583571,53.532102
17123.440000000002,ST.ANTHONY'S HEALTH CENTRE,-1.55655,54.966674
28718.73000000004,MANOR DRIVE MEDICAL CENTRE,-0.24836599999999998,51.380785
2496.0200000000004,SMS COMMUNITY DERMATOLOGY CLINIC,-1.398499,50.913503
47928.7,WESTCALL OOH,-0.8315749999999998,51.410524
2758.490000000001,NELFT SOUTH WEST ESSEX CS,0.496195,51.591456
2263.070000000001,HILLINGDON UCC,-0.461175,51.526077
91.74,AQP ANTICOAG LEY HILL SURGERY,-1.827841,52.583302
166.11,MK ENT SERVICE,-0.79788,52.035898
142.81000000000003,EAST STAFFS IMPROVING LIVES,-1.6480290000000002,52.798809
45.06,COMMUNITY MIDWIVES,-2.784954,53.420469
2754.52,PCAH - NEW ROMNEY,0.938719,50.987586
33694.509999999995,BISHOPS CLOSE MEDICAL PRACTICE,-1.599142,54.699817
37691.88000000001,CLEE MEDICAL CENTRE,-0.041433,53.566223
24125.64000000004,WIBSEY & QUEENSBURY MED P,-1.779715,53.767225
7120.569999999994,SOUTHOWRAM SURGERY,-1.831696,53.712293
10339.429999999991,WHITWICK HEALTH CENTRE,-1.3606790000000002,52.742576
34254.81000000001,MARKET SURGERY,-1.345958,53.502635
14357.10999999999,BALDWINS LANE SURGERY,-0.448705,51.654076
11642.590000000007,DERWENT CRESCENT MEDICAL CENTRE,-0.175285,51.622908
24854.98,THE STANMORE MEDICAL CENTRE,-0.304021,51.60154
16008.620000000012,NEASDEN MEDICAL CENTRE,-0.247382,51.559667
5159.839999999998,BROOK GREEN SURGERY,-0.218145,51.495291
45303.14999999999,ABBEY FIELD MEDICAL CENTRE,0.898575,51.877487
3235.1499999999987,JOHN SMITH MEDICAL CENTRE,0.112125,51.538899
5407.270000000007,TOTTENHAM HEALTH CENTRE,-0.068474,51.604755
6816.410000000003,DR MOHAMMED GREEN MAN MEDICAL CENTRE,0.015000999999999999,51.571506
25007.040000000005,FAIRFIELD PMS,0.038949,51.483908
6298.1200000000035,PARKSIDE MEDICAL CENTRE,-0.092642,51.475826
18059.750000000007,NORK CLINIC,-0.215842,51.326429
29125.720000000016,QUEENHILL MEDICAL PRACTICE,-0.066791,51.34499
15039.429999999993,GRAND DRIVE SURGERY,-0.228811,51.402155
51444.93999999999,THE BOSMERE MEDICAL PRACTICE,-0.990581,50.850232
42861.08999999991,BURNHAM HEALTH CENTRE,-0.662137,51.5349
14079.989999999994,THE LONG BUCKBY PRACTICE,-1.08255,52.30049
85315.62999999993,ASPEN MEDICAL PRACTICE,-2.225797,51.865969
20888.58000000003,GLOUCESTER CITY HEALTH CENTRE,-2.245328,51.860355
46445.479999999974,ABBEY HOUSE MEDICAL PRACTICE,-1.160725,52.260319
24127.199999999993,NORTON BROOK MEDICAL CENTRE,-3.782122,50.288739
10365.659999999996,SOMERSET BRIDGE MEDICAL CENTRE,-2.995883,51.115105
28378.689999999995,TRENT VALE MEDICAL PRACTICE,-2.201785,52.987386
10505.39,BROOKSIDE SURGERY,-1.399088,52.35048
15218.150000000012,NORTHWAY MEDICAL CENTRE,-2.130997,52.54810500000001
28935.339999999986,MARTON MEDICAL PRACTICE,-3.034524,53.812843
33068.42000000003,CORNISHWAY GROUP PRACTICE,-2.265017,53.379925
31165.91000000001,BRAMHALL HEALTH CENTRE,-2.162929,53.36001
25628.84000000001,MAYNARD COURT SURGERY,0.020165,51.685605
8512.780000000002,AYLESBURY SURGERY,-1.876053,52.542854
5279.749999999997,NEVILLE ROAD SURGERY,-0.443036,51.906419
7813.960000000003,UNIV HOSP NORTH DURHAM OOH,-1.593834,54.788497
6.68,WILTSHIRE CCG SAS,-1.991573,51.347339
287.09,THE HOSPICE CARE FOR BURNLEY & PENDLE,-2.237434,53.819025
4325.940000000004,BOWLING GREEN STREET SURGERY,-1.133096,52.63304599999999
361.98,INTEGRATED COMMUNITY RESPONSE SERVICE,-0.371755,51.468263
279.5,GP CARE DVT SERVICE,-2.570351,51.544821
19.92,SWALE GROUP,1.118942,51.075872
8260.799999999997,BCHC MEDICINES MANAGEMENT,-1.9537779999999998,52.398207
3.02,CHCP - HESSLE  BROUGH  COTT  ANLABY,-0.429474,53.723082
7.689999999999999,PURLEY MIU - AT MEDICS,-0.11446600000000001,51.34074
194.22,INDEPENDENT HEALTH GROUP,-2.414415,51.312224
1649.5599999999995,PML NEIGHBOURHOOD HUB (KIDLINGTON),-1.289236,51.821558
37380.99000000002,YARM MEDICAL PRACTICE,-1.355519,54.50530500000001
9678.34000000001,BENSHAM FAMILY PRACTICE,-1.617038,54.952781
31203.90000000003,BURTON CROFT SURGERY,-1.57692,53.820807
8333.17,EASTMOOR HEALTH CENTRE,-1.476864,53.690004
8133.639999999998,HARTINGTON SURGERY,-1.810816,53.142488
10436.999999999996,THE PRACTICE BEAUMONT LEYS,-1.15392,52.662296
13248.969999999998,TASBURGH LODGE SURGERY,-0.21375,53.151242
35922.51999999997,SOTHALL & BEIGHTON HEALTH CENTRES,-1.340221,53.337895
5823.8700000000035,KINGSWAY SURGERY,-0.437208,51.517478
5981.640000000001,FIVE ELMS MEDICAL PRACTICE,0.14235,51.553315
1827.4600000000007,SPUR ROAD SURGERY,-0.086621,51.586597
20490.28,THE MEADS SURGERY,0.091624,50.969686
9518.940000000004,ALBION STREET SURGERY,-0.133965,50.827627
29316.629999999965,BELLEGROVE SURGERY,0.09579,51.464561
27333.84,SOUTH VIEW PARTNERSHIP,0.026125,51.405111
7480.100000000004,CORNERWAYS SURGERY,-0.404519,50.81566
32482.219999999987,CHEAM GP CENTRE,-0.225239,51.368621
5119.329999999995,WALLINGTON MEDICAL CENTRE,-0.129285,51.357345
20062.809999999983,THE BANKS & BEARWOOD MEDICAL CENTRE,-1.9292169999999997,50.768326
8297.709999999995,MERE SURGERY,-2.265342,51.089873
4807.180000000003,RAGSTONE ROAD SURGERY,-0.601832,51.503747
20332.12999999999,COMBE DOWN SURGERY,-2.345599,51.361003
21002.64999999998,WADEBRIDGE & CAMEL ESTUARY PRACTICE,-4.835729,50.514816
18134.009999999977,NORTH PETHERTON SURGERY,-3.013922,51.09139
3166.11,HANDSWORTH MEDICAL PRACT.,-1.941212,52.505377
28611.00999999998,EVE HILL MEDICAL PRACTICE,-2.096805,52.512922
16448.090000000022,BEARWOOD MEDICAL CENTRE,-1.97344,52.476903
33905.59000000005,THE GROUP PRACTICE ALFRED SQUIRE ROAD,-2.080754,52.599417
32795.3,WEST DERBY MEDICAL CENTRE,-2.895944,53.431273
6340.329999999996,BEEHIVE SURGERY,-2.419172,53.564161
8538.669999999998,QUEENS MEDICAL CENTRE,-2.235847,53.50081899999999
32640.730000000025,LANGWORTHY MEDICAL PRACTICE,-2.294771,53.489371
8200.819999999998,LEY HILL SURGERY,-1.983266,52.421346
19943.12,THE CHEYLESMORE SURGERY,-1.503924,52.391324
4550.320000000003,DR. B. K. PRASHARA,-2.114816,52.456326
31152.969999999994,ST PETER'S SURGERY,-1.984855,52.594537
20530.27,ORMSKIRK HOUSE SURGERY,-2.74261,53.456686
18402.56,MANOR HEALTH CTR,-3.044493,53.421061
33649.029999999984,THE PENDLE MEDICAL PARTNERSHIP,-2.144307,53.915882
31749.780000000035,3/SPRINGFIELD HOUSE MEDICAL PRACTICE,-2.362019,53.480252
30585.490000000005,PENNINE MEDICAL CENTRE,-2.040966,53.515337
9242.010000000004,THE CROSSROADS SURGERY,-2.770123,53.417492
7645.149999999998,CRESCENT SURGERY,0.106446,51.389854
11967.61,GREEN CEDARS MEDICAL CENTRE,-0.073642,51.616071
25.1,STELLAR HEALTHCARE OPHTHALMOLOGY,0.12393,51.704295
5423.550000000001,THE KINGSWAY PRACTICE,-2.135588,53.612168
68445.27999999997,WHITE HORSE SURGERY,0.343258,51.435153
351.8299999999999,LANCS HOUSE UROLOGY,-2.218662,53.592207
1928.81,THE ENFIELD PAIN CLINICS,-0.076772,51.66253
3.89,WORKING AGE ADULTS - WOTTON LAWN HPL,-2.227893,51.866962
8465.679999999997,LAS S.E. LONDON IUC CAS,-0.10903099999999999,51.500174
10.65,HMP BRISTOL,-2.591585,51.480902
69.26,BARNSLEY HOSPICE,-1.514714,53.560138
591.6900000000002,WEST KENT GROUP,1.118942,51.075872
14322.570000000012,CHAPELFORD PRIMARY CARE CENTRE,-2.633066,53.39615799999999
2168.6,BRAMHOPE DERMATOLOGY COMMUNITY CLINIC,-1.61581,53.881903
15124.740000000002,BHF LUNDWOOD SURGERY,-1.438538,53.557711
117.82999999999996,SOTON COMMUNITY ENT SERVICE WESTON LANE,-1.370694,50.888213
23317.56000000001,DALTON SURGERY,-3.179816,54.155917
13872.959999999995,THE SELE MEDICAL PRACTICE,-2.095702,54.970372
20914.639999999974,WOODLANDS PARK HEALTH CTR,-1.628825,55.04614
19688.810000000016,CONCORD MEDICAL PRACTICE,-1.524864,54.913411
35457.32,MARKET WEIGHTON GROUP PRACTICE,-0.674786,53.864903
11243.930000000008,RAJ MEDICAL CENTRE,-0.113968,53.550655
18671.819999999992,MAYFORD HOUSE SURGERY,-1.446534,54.328376
29694.76000000001,OAKWOOD LANE MEDICAL PRACTICE,-1.493931,53.819982
78907.90000000005,HEALTH CARE FIRST PARTNERSHIP,-1.393615,53.736872
24988.77,HAVEN MEDICAL CENTRE,-1.416874,52.891498
25923.09,COUNTESTHORPE HEALTH CENTRE,-1.136767,52.554536
42138.99999999998,CASTLE HEALTHCARE PRACTICE,-1.144908,52.930476
32634.799999999945,BROOM LANE MEDICAL CENTRE,-1.332311,53.417383
21293.050000000007,CADDINGTON SURGERY,-0.458179,51.864502
33345.38,ANNANDALE MEDICAL CENTRE,-0.17421099999999998,51.698571
23615.580000000038,GREENWICH CCG GP ACCESS HUB,0.050556,51.457843
573.0299999999999,WEST KENT HEALTH FEDERATION,0.277462,51.194717
2766.78,DMC COMMUNITY DERMATOLOGY BHR,0.223136,51.563496
26207.63999999999,WEST ROAD MEDICAL CENTRE,-1.656263,54.976209
8037.21,IMEARY STREET PRACTICE,-1.424863,54.98753000000001
2384.729999999999,THE KILLINGHOLME SURGERY,-0.260335,53.62990799999999
13899.640000000005,DR SINHA & PARTNERS,0.100204,53.030138
14376.53,THE HEALTH CARE SURGERY,-1.487911,53.42172
19801.56,COMBERTON SURGERY,0.018614,52.189811
25853.92000000004,TRINITY & BOWTHORPE MEDICAL PRACTICE,1.280248,52.624411
17676.700000000004,THE LIMES SURGERY,-0.010842,51.759413
13445.819999999992,SHEPHALL HEALTH CENTRE,-0.167642,51.890799
4709.490000000006,WAKEMANS HILL SURGERY,-0.254209,51.587088
7988.339999999997,WESTBOURNE GROVE MEDICAL CENTRE,-0.200361,51.514211
37474.05999999998,FOREST PRACTICE,0.07523499999999998,51.654789
3622.5200000000013,PRASAD,0.210579,51.600308
26452.620000000006,HARROW ROAD GP CENTRE,0.012856,51.559538
9413.99999999999,SEVEN DIALS MEDICAL CENTRE,-0.147743,50.829681
19691.470000000023,NORTHDOWN SURGERY,1.368001,51.379866
6786.11,MILTON REGIS SURGERY,0.7321839999999998,51.349193
25044.59999999999,BARCROFT MEDICAL CENTRE,-1.780526,51.172939
8374.78,BURBAGE SURGERY,-1.669545,51.348496
62961.85999999995,THE SWAN PRACTICE,-0.985664,52.001593
49050.98,PIONEER MEDICAL GROUP,-2.617628,51.510306
16033.870000000004,THE CREST FAMILY PRACTICE,-2.596274,51.428746
2574.4700000000025,WORTHEN MEDICAL PRACTICE,-3.000165,52.635224
22437.299999999974,NESTON MEDICAL CENTRE,-3.064349,53.291818
10571.840000000004,KIRKDALE MEDICAL CENTRE,-2.973842,53.433523
16304.56,WITHNELL HEALTH CENTRE,-2.556663,53.692491
39598.470000000016,DARWEN HEALTHLINK,-2.471427,53.695744
35306.11999999996,ST.MARY'S HEALTH CENTRE,-2.729589,53.747433
11076.730000000005,DAVID MEDICAL CENTRE,-2.268652,53.43186
16864.97,DR ABBAS,-0.841253,52.26834
17902.8,FACCINI HOUSE SURGERY,-0.189379,51.389682
20027.270000000004,EDLESBOROUGH SURGERY,-0.588625,51.868423
21534.1,DR GS KALKAT'S PRACTICE,0.103861,51.527941
9610.47,JRB HEALTHCARE BEECHDALE SURGERY,-1.198142,52.961504
2184.3999999999983,THE LYNWOOD SURGERY,-0.29964,51.528594
9866.709999999992,CHURCH VIEW MEDICAL CENTRE,-2.960328,50.935622
35301.82999999996,WOODLANDS FAMILY MEDICAL CENTRE,-1.321204,54.561215
2965.2200000000016,ASKAM SURGERY,-3.210918,54.183705
49530.46000000001,FERRYHILL AND CHILTON MEDICAL PRACTICE,-1.556828,54.689838
28082.660000000003,COLLIERY COURT MEDICAL GROUP,-1.460703,54.949762
22161.69000000001,GRANGE PARK SURGERY,-1.7481080000000002,53.912695
32186.67000000003,THE COUNTY PRACTICE,-1.069884,52.70073000000001
49583.32000000002,BEECHFIELD MEDICAL CENTRE,-0.145012,52.787253
19414.08000000001,GRIMETHORPE SURGERY,-1.378978,53.573614
21885.009999999995,THE OAKWOOD SURGERY,-1.073937,53.506609
17491.909999999967,PAPWORTH SURGERY,-0.11749200000000001,52.252071
29808.430000000004,ORCHARD SURGERY,0.944176,52.678309
29739.58000000001,DR JK MARSDEN'S PRACTICE,-0.436528,51.894968
39205.800000000025,MALTINGS SURGERY,-0.337918,51.751851
6355.280000000006,HANWELL HEALTH CENTRE (NAISH),-0.334375,51.510263
25706.65000000001,WHITLEY HOUSE SURGERY,0.455723,51.726539
32380.340000000047,WEST ROAD SURGERY,0.70187,51.544989
7490.7800000000025,JOYDENS WOOD MEDICAL CENTRE,0.166397,51.42449
51536.46999999999,TRAFALGAR MEDICAL GROUP PRACTICE,-1.092485,50.785331
23888.94,EASTFIELD HOUSE SURGERY,-1.323251,51.395555
29387.859999999986,RECTORY MEADOW SURGERY,-0.6175,51.669079
33292.120000000024,TUDOR LODGE SURGERY,-2.975378,51.332396
38450.260000000046,PRAZE-AN-BEEBLE SURGERY,-5.309264,50.173753
32847.60000000002,CAMBRIAN MEDICAL PRACTICE,-3.047774,52.86281
14589.940000000002,PENN SURGERY,-2.145001,52.568567
15969.989999999994,FIRDALE MEDICAL CENTRE,-2.537387,53.253804
21423.06000000003,HALL GREEN SURGERY,-2.741349,53.540745
7569.389999999998,SARAF MEDICAL PRACTICE,-2.076954,53.561455
3784.310000000003,LATIMER HEALTH CENTRE,-0.049503,51.54659
14343.299999999996,DELL MEDICAL CENTRE,0.328114,51.480258
11259.74,KIRKSTALL LANE MEDICAL CENTRE,-1.587333,53.816942
15631.099999999993,WHITCHURCH SURGERY,-1.340372,51.230256
12469.680000000008,DR NEWMAN,-1.975441,50.719722
11425.070000000005,GATDOC OOH,-1.580781,54.93938000000001
17141.33,THE TRINITY MEDICAL CENTRE,0.085815,51.478803
20483.850000000006,CARE UK OOH,1.210633,52.034014
13458.71000000001,PONTELAND RD WIC,-1.656804,54.991604
790.63,CONIFER HOUSE SEXUAL HEALTH CLINIC,-0.342095,53.746221
103.6,SUE RYDER NETTLEBED HOSPICE,-0.989042,51.573731
10129.390000000003,IC24 LTD (HWLH OOH),0.891514,51.129106
3998.3100000000013,BURNLEY LOCALITY NMPS,-2.238948,53.791326
959.9399999999998,SOUTH EAST HUB 1,-0.10851199999999998,51.477558
53.22,ONE ASHFORD - ELECTIVE CARE NHS SERVICES,0.9117360000000002,51.142662
18323.02999999998,KIRKBY COMMUNITY PRIMARY CARE CENTRE (3),-1.248741,53.10176
529.5300000000001,DMC COMMUNITY DERMATOLOGY ERY,-0.872594,53.695801
25289.53000000001,BERKLEY PRACTICE,-2.024533,52.58916
32103.32,BELLE VALE HEALTH CENTRE,-2.859752,53.392035
11622.830000000005,ELIZABETH STREET SURGERY,-3.043658,53.820839
17838.790000000008,RAMSBOTTOM MEDICAL PRACTICE,-2.319287,53.64878
5306.240000000005,THE WHITSWOOD PRACTICE,-2.253502,53.455769
29432.479999999985,WOODLANDS MEDICAL PRACTICE,-2.142182,53.545559
10440.25000000001,BROOKS BAR MEDICAL CENTRE,-2.261969,53.461412
15232.449999999993,BROOK HOUSE SURGERY,-1.445882,50.921794
11836.280000000004,ASHVILLE SURGERY,-0.201145,51.476255
20355.969999999994,THE VILLAGE MEDICAL CTR,-0.512653,52.128152
25990.53999999999,DR HANTSDOC N OOH,-1.109918,51.280633
266.07000000000005,WEST CAMHS - KIRKSTALL,-1.599694,53.817164
42291.629999999976,GP COLLABORATIVE OOH,-1.455965,53.409821
28269.04,ST NEOTS HEALTH CENTRE,-0.267116,52.228966
2837.4100000000008,QUAY HEALTH EAC,-0.069645,51.49696
20457.610000000008,HMR BARDOC OOH,-2.288591,53.59553
244.49,HOLYWELL AT LANGLEY HOUSE HCT,-0.391206,51.683651
1896.8600000000006,7 DAY ACCESS ROCHDALE INFIRMARY HUB,-2.160152,53.624282
1846.9599999999987,GATESHEAD HEALTH COMMUNITY SERVICES,-1.580781,54.93938000000001
424.0,NEAS HAST CCG,-1.712365,54.969713
63.74999999999999,VC WEST LANCS COMMUNITY NURSING,-2.840112,53.602357
496.69,SOUTH DALES HEALTHCARE LTD,-1.571366,53.077623
35647.469999999965,PRIORY MEDICAL CENTRE,-1.588641,52.285051
2340.01,MODALITY ANN JONES FAMILY HEALTH CENTRE,-1.871333,52.462659
3201.650000000004,BALDWINS LANE SURGERY,-1.846405,52.414514
11926.260000000006,TUDOR PRACTICE STOCKLAND GREEN,-1.857329,52.52388199999999
19780.110000000008,CENTRAL SURGERY,-2.74261,53.456686
62085.56,ASH TREES SURGERY,-2.769484,54.129481
8299.930000000006,FAMILY PRACTICE,-2.486748,53.750552
15147.500000000005,MONARCH MEDICAL CENTRE,-2.316823,53.564198
27356.02999999999,LEESBROOK SURGERY,-2.07266,53.53879
12722.320000000003,WALTON SURGERY,1.335453,51.973564
9566.250000000004,LINCOLN GREEN MEDICAL CENTRE,-1.525196,53.802098
7099.260000000002,PARKGATE SURGERY,-1.548606,54.523273
8776.249999999995,DALTON TM,-2.643772,53.529393
8512.399999999996,POLLARD ROW SURGERY,-0.064328,51.528266
23280.659999999974,HARROGATE OOH,-1.517573,53.993807
21710.830000000005,MIRIAM MINOR EMERGENCY,-3.04649,53.39824599999999
515.09,ASHFORD HUB,-0.472813,51.444022
2540.270000000001,EXTENDED HOURS SERVICE,-2.9023,53.211542
3324.79,LIVEWELL S/W,-4.116613,50.378837
102.69000000000004,WILL ADAMS NHS TREATMENT CENTRE,0.576568,51.380889
26.35,WIRRAL HEART SUPPORT,-3.026531,53.380029
3.41,ADULT ADHD SERVICE,-2.215952,53.593598
2679.559999999999,RUSHCLIFFE URGENT CARE SERVICE,-1.100495,52.924252
2386.579999999999,RUNCORN URGENT CARE CENTRE WIC,-2.694681,53.323266
32.64,COLORECTAL SURGERY,-0.210281,51.409967
6704.4900000000025,PML NEIGHBOURHOOD HUB (BANBURY),-1.349027,52.057771
11027.400000000005,BALDERTON SURGERY,-0.7864679999999998,53.052881
12212.199999999993,ULVERSTON COMMUNITY HEALTH CENTRE,-3.097833,54.198882
24063.17000000001,NORTH ROAD SUITE RAVENSTHORPE HEALTH CTR,-1.661589,53.677829
23537.38999999999,CASTLE MEAD MEDICAL CENTRE,-1.367743,52.541052
21480.769999999997,RADCLIFFE-ON-TRENT. HEALTH CENTRE,-1.03822,52.946139
22389.379999999965,RISE PARK SURGERY,-1.174951,53.011477
18107.56000000001,MANCHESTER ROAD SURGERY,-1.521086,53.380573
20287.47999999999,CHERRY HINTON MEDICAL CENTRE,0.177635,52.187459
31450.610000000026,THE MEDICI MEDICAL PRACTICE,-0.418382,51.874494
15330.900000000007,PENSHURST GARDENS SURGERY,-0.272812,51.616129
14475.690000000004,ELLIS PRACTICE,-0.276552,51.563894
6115.17,ORCHARD END,0.539532,51.091415
24115.65,NEW ELTHAM AND BLACKFEN MEDICAL CENTRE,0.074199,51.434495
19132.28,THE GROVE MEDICAL CENTRE,-2.513702,50.953273
37748.15000000005,BISHOPS WALTHAM SURGERY,-1.212149,50.95528
10260.149999999998,GREEN PRACTICE,-0.371755,51.468263
10889.770000000002,THE ABBOTSBURY PRACTICE,-0.397406,51.579266
54403.25000000002,NUFFIELD HOUSE HEALTH CENTRE,0.112828,51.774439
23785.770000000004,MARTINS OAK SURGERY,0.483675,50.91716
11581.86,THE GLEBE FAMILY PRACTICE,0.544473,51.383164
11987.750000000016,MALLING HEALTH BLUE SUITE,0.609995,51.363412
22426.949999999993,KNOLL MEDICAL PRACTICE,0.101068,51.375411
6901.2999999999965,CLIFTON RISE FAMILY PRACTICE,-0.03143300000000001,51.476334
9384.6,BLACKFRIARS MEDICAL PRACTICE,-0.105775,51.505364
39646.24999999999,HASLEMERE HEALTH CENTRE,-0.707586,51.092107
35589.18000000001,FARNHAM DENE MEDICAL PRACTICE,-0.777405,51.200549
16447.589999999997,THE DORCHESTER RD SURGERY,-2.457512,50.625193
8018.779999999998,CRONDALL NEW SURGERY,-0.858386,51.237211
14948.559999999996,ST.JAMES SURGERY,-1.989956,51.352926
8908.229999999992,CORDWALLIS ROAD SURGERY,-0.7240259999999998,51.528097
34863.109999999964,BOTLEY MEDICAL CENTRE,-1.299442,51.753753
13216.379999999996,ST. MARY'S SURGERY,-2.479869,51.326082
22186.35,QUEEN'S MEDICAL CENTRE,-4.057196,51.080161
61451.60999999998,BRUNEL MEDICAL PRACTICE,-3.516948,50.479349
11586.66,EXMOOR MEDICAL CENTRE,-3.544825,51.038507
8868.469999999996,CHADDESLEY SURGERY,-2.158038,52.361961
45904.16999999996,THE MANOR PRACTICE,-1.8236169999999998,52.55816
11305.940000000004,CHARLES ROAD SURGERY,-1.850621,52.4722
20873.97,DUNCAN STREET PRIMARY CARE PARTNERSHIP,-2.126602,52.57346999999999
19400.67,DR JUDE'S PRACTICE - RIVERSIDE,-2.943016,53.398876
12304.97,WESTOVER SURGERY,-5.07501,50.148927
3436.9600000000014,LANGTHORNE SHARMA FAMILY PRACTICE,0.0021,51.555415
6504.719999999998,THE MANOR PARK PRACTICE,0.057339,51.55393
22877.33,WEST MEADS SURGERY,-0.701481,50.788299
3.27,GP DERMATOLOGY SERVICE (CONCORDIA),-0.08430999999999998,51.500087
8023.369999999999,TRENTHAM MEWS MEDICAL CENTRE,-2.189898,52.970452
6600.090000000003,WILLESDEN GREEN SURGERY,-0.216091,51.553773
5.039999999999999,NATIONAL SOCIETY FOR EPILEPSY,-0.551146,51.62127
5425.469999999997,THE SUMMITT PRACTICE,0.04536,51.539588
30974.739999999994,SELDOC HEALTHCARE,-0.283378,51.412517
6.99,WESTMINSTER DIABETES CENTRE,-0.169323,51.524736
2111.370000000001,PARKFIELD (H) MINOR EMERGENCY,-3.00005,53.363076
4336.04,PRUH URGENT CARE CENTRE,0.059146,51.366243
2153.0700000000006,CANNOCK MINOR INJURIES UNIT,-2.030614,52.693241
4747.130000000002,PBORO WEEKEND HOURS GP PILOT,-0.279386,52.583921
7751.710000000003,WIDNES GP EXTRA SERVICE,-2.735705,53.362158
78.33,MALLING CLUSTER,0.277462,51.194717
18105.88999999999,DR THORNILEY-WALKER & PARTNERS,-1.460703,54.949762
11827.679999999995,DR U AKBAR,-1.777945,53.803569
22193.25000000001,BROOKROYD HOUSE,-1.67818,53.707224
10701.570000000003,AIREBOROUGH FAMILY PRACTICE,-1.684881,53.866663
28305.05000000005,BUSHLOE SURGERY,-1.116921,52.583283
24956.15,THE BURBAGE SURGERY,-1.361645,52.53009599999999
7718.49,PASLEY ROAD HEALTH CENTRE (TK KHONG),-1.146741,52.591287
42483.73999999998,NETTLEHAM MEDICAL PRACTICE,-0.476253,53.262865
6057.669999999999,HAROLD STREET MEDICAL CENTRE,-1.492871,53.393121
17688.13999999999,UNIVERSITY HEALTH SERVICE HEALTH CENTRE,-1.482709,53.380323
15470.470000000007,LEISTON SURGERY,1.575953,52.207708
13898.570000000005,HEATHFIELDE MEDICAL CENTRE,-0.179797,51.585238
13409.749999999995,BRENTFIELD MEDICAL CENTRE,-0.260251,51.550588
13996.650000000018,DR NAVIN KUMAR,0.70187,51.544989
9619.230000000007,RUSTON STREET CLINIC,-0.027306,51.536264
14684.410000000013,SCHOOL HILL MEDICAL PRACTICE,0.012064,50.873469
35664.62999999998,MOTE,0.545625,51.246876
33167.69,SHEPPERTON MEDICAL PRACTICE,-0.453153,51.396402
35872.56000000004,GRAYSHOTT SURGERY,-0.745626,51.110093
26328.019999999997,THE MANOR PRACTICE,-0.234983,50.835138
12718.010000000013,HAMPTON HILL MEDICAL CENTRE,-0.354892,51.427508
3493.259999999999,CLAPHAM JUNCTION MEDICAL PRACTICE,-0.173908,51.465969
7121.929999999997,OLD SCHOOL HOUSE SURGERY,-1.604408,51.376032
22711.03000000002,WINSCOMBE SURGERY,-2.830537,51.315196
73448.02000000003,PEMBROKE MEDICAL GROUP,-3.560246,50.445527
