total_cost,name,longitude,latitude
495.73,THE ABBOTSBURY PRACTICE,-0.397406,51.579266
1139.6999999999996,NUFFIELD HOUSE HEALTH CENTRE,0.112828,51.774439
225.5,CLIFTON RISE FAMILY PRACTICE,-0.03143300000000001,51.476334
1829.9,HASLEMERE HEALTH CENTRE,-0.707586,51.092107
756.3700000000001,THE DORCHESTER RD SURGERY,-2.457512,50.625193
751.9699999999998,ST.JAMES SURGERY,-1.989956,51.352926
1266.2100000000005,BOTLEY MEDICAL CENTRE,-1.299442,51.753753
1085.4599999999996,QUEEN'S MEDICAL CENTRE,-4.057196,51.080161
520.33,EXMOOR MEDICAL CENTRE,-3.544825,51.038507
296.89,CHARLES ROAD SURGERY,-1.850621,52.4722
533.4599999999999,WILLESDEN GREEN SURGERY,-0.216091,51.553773
5.0,PRUH URGENT CARE CENTRE,0.059146,51.366243
1440.8499999999995,BROOKROYD HOUSE,-1.67818,53.707224
1573.87,NETTLEHAM MEDICAL PRACTICE,-0.476253,53.262865
340.95,UNIVERSITY HEALTH SERVICE HEALTH CENTRE,-1.482709,53.380323
1314.5399999999995,SHEPPERTON MEDICAL PRACTICE,-0.453153,51.396402
1258.92,THE MANOR PRACTICE,-0.234983,50.835138
211.38,CLAPHAM JUNCTION MEDICAL PRACTICE,-0.173908,51.465969
3640.93,PEMBROKE MEDICAL GROUP,-3.560246,50.445527
420.92,GREENFORD ROAD MED.CTR.,-0.345702,51.537697
376.13,QUEENS WALK MEDICAL CENTRE,-0.393155,51.562716
1239.88,ADDISON HOUSE - HAQUE PRACTICE,0.088979,51.770891
365.71,ST PETER'S STREET MEDICAL PRACTICE,-0.100772,51.535597
681.5400000000002,STOKENCHURCH MEDICAL CTRE,-0.904033,51.660479
446.92,ABBOTS BROMLEY SURGERY,-1.880966,52.819974
728.1699999999998,TOWNSIDE SURGERY,-2.29898,53.59031
387.00000000000006,GOODMAYES MEDICAL CENTRE,0.10990599999999999,51.567626
1.82,INSULIN HUB - EAST LOCALITY,-1.374025,54.895168
300.06,EAST PARADE MEDICAL PRACTICE,-1.061835,53.965993
2719.63,SHAFTESBURY MEDICAL CTR.,-1.497858,53.800234
769.7899999999998,GROBY ROAD MEDICAL CENTRE (ID PATCHETT),-1.150468,52.644337
1724.6800000000005,FOUNTAIN MEDICAL CENTRE,-0.8043829999999998,53.07286
1184.29,SCAWSBY HEALTH CENTRE PRACTICE,-1.167843,53.53678299999999
1286.84,ST. GEORGE'S MEDICAL CENTRE,0.298817,52.458085
1007.21,CENTRAL SURGERY,0.147747,51.812546
241.57,THE HOXTON SURGERY,-0.086829,51.533527
340.4599999999999,LL MEDICAL CARE LTD,0.0021,51.555415
4880.28,THE ADAM PRACTICE,-2.07822,50.757881
430.61,PRIORY ROAD SURGERY,0.589253,50.860828
2163.7599999999993,WISTARIA & MILFORD SURGERIES,-1.547285,50.760041
1023.09,GORDON STREET SURGERY,-1.644613,52.810998
6.66,HAVERING CCG,0.179796,51.579247
4.28,SOUTH KENT GROUP,1.118942,51.075872
4.0,URGENT CARE CENTRE NORTHWICK PARK HOSP,-0.322037,51.575407
526.5899999999998,PROSPECT MEDICAL PRACTICE,1.285656,52.643921
774.0300000000003,GROVELANDS MEDICAL CENTRE,-0.112028,51.620685
975.73,ST JAMES' SURGERY,1.315702,51.128516
466.4,OXSHOTT MEDICAL PRACTICE,-0.360843,51.333099
485.25,LAVENDER HILL GROUP PRACTICE,-0.15683,51.466044
1219.4499999999996,ST.MARY'S SURGERY,-1.397475,50.905746
568.3000000000002,SPRINGMEAD SURGERY  CHARD,-2.967972,50.869562
916.42,POND TAIL SURGERY,-0.066728,51.246436
1094.36,LYME VALLEY MEDICAL CENTRE,-2.22375,53.006305
368.5199999999999,WOODLANDS MEDICAL PRACTICE,-2.31213,53.406624
484.02000000000015,BATH ROAD SURGERY,-0.37684,51.469395
1487.52,THE ALDERGATE MED.PRACT.,-1.695644,52.639079
1946.0500000000006,EASTGATE MEDICAL GROUP,-1.462815,54.006795
1366.75,NEWBOLD VERDON MED.PRACT.,-1.34334,52.634612
464.59,BAKERSFIELD MEDICAL CENTRE,-1.104957,52.960219
693.0700000000002,THE ORDNANCE UNITY CENTRE FOR HEALTH,-0.039073,51.672653
816.5600000000002,BLOXHAM SURGERY,-1.372977,52.018108
25.2,GP HUBS - GP HEALTH PARTNERS LTD,-0.266331,51.334184
1144.78,THE LAKESIDE PRACTICE,-1.148909,53.61549599999999
553.2499999999999,WESTWOOD CLINIC,-0.269054,52.591395
1079.1899999999996,THEOBALD MEDICAL CENTRE,-0.285584,51.661381
95.34,THE SURGERY,-0.184519,51.497627
1199.83,COMBS FORD SURGERY,0.995999,52.180181
748.61,HILLVIEW SURGERY,-0.318331,51.540536
220.42,DR HAFFIZ,-0.119262,51.539321
748.0499999999998,THE AVENUE SURGERY,-0.113425,50.844357
1140.0,NEW POND ROW SURGERY,-0.322292,50.824911
1015.01,LUDLOW - PORTCULLIS,-2.715958,52.368905
136.57999999999998,DADHANIA SURGERY,-1.491047,52.405815
2341.7,HUDDERSFIELD ROAD SURGERY,-1.485631,53.558165
1380.4300000000005,SHERINGHAM MEDICAL PRACTICE,1.214777,52.939688
1077.17,CHURCH LANE HEALTH CENTRE,0.941162,50.984187
1059.9,BARN CLOSE SURGERY,-1.859248,52.03627
591.65,LOSTOCK HALL MEDICAL CTR.,-2.688037,53.727502
78.04999999999998,SUMMERFIELD URGENT CARE CENTRE WIC,-1.937353,52.487686
418.95,PENINSULA MEDICAL PRACTICE,-2.915665,54.18795600000001
2290.17,HEBDEN BRIDGE GROUP PRACTICE,-2.010942,53.744036
1036.65,STOCKWELL LODGE MED.CTR.,-0.055287,51.713792
380.88000000000005,DR PM PATEL,0.219281,51.55632
144.18,CHISWICK FAMILY DRS PRACTICE,-0.259879,51.493563
769.57,ILFORD MEDICAL CENTRE,0.07431899999999998,51.556823
1227.6899999999996,WITLEY SURGERY,-0.650163,51.156457
1979.8799999999994,FURLONG MEDICAL CENTRE,-2.208139,53.063325
930.62,THE WATERFIELD PRACTICE,-0.733923,51.409204
289.75,JERICHO HEALTH CENTRE,-1.265958,51.760293
973.49,TEAN SURGERY,-1.988036,52.954415
630.6099999999999,THORNLEY STREET MEDICAL CENTRE,-2.125789,52.58843
585.86,MILE LANE HEALTH CENTRE,-2.335248,53.587814
560.2099999999999,BOLTON MEDICAL CENTRE,-2.431399,53.56543
920.6,WESTCROFT HEALTH CENTRE,-0.795699,52.006367
0.8,KINGSTON CCG SLDUC OOH,-0.283378,51.412517
1361.16,LOWTHER MEDICAL CENTRE,-3.586392,54.545056
881.62,ANDAMAN SURGERY,1.715485,52.45691600000001
530.32,BURNT ASH SURGERY,0.009913000000000002,51.452782
1162.7,HILLVIEW MEDICAL CENTRE,-0.557727,51.315501
690.2800000000002,BATHEASTON MEDICAL CENTRE,-2.317387,51.406032
944.49,HEALD GREEN HEALTH CENTRE 2,-2.229276,53.369878
444.88000000000005,SMITH (RICHMOND LOCK),-0.322897,51.464517
696.11,JUBILEE GARDENS MEDICAL CENTRE,-0.368739,51.521097
1943.76,BRAMPTON MEDICAL PRACTICE,-2.734846,54.94237
1229.18,PLANE TREES GROUP PRACTICE,-1.894437,53.730448
1146.89,THORNTON MEDICAL CENTRE,-1.576209,53.791908
707.7400000000001,BRAILSFORD & HULLAND MEDICAL PRACTICE,-1.624927,52.96943
0.85,EAST STAFFS IMPROVING LIVES,-1.6480290000000002,52.798809
1228.07,BISHOPS CLOSE MEDICAL PRACTICE,-1.599142,54.699817
2364.820000000001,CLEE MEDICAL CENTRE,-0.041433,53.566223
434.6700000000001,BALDWINS LANE SURGERY,-0.448705,51.654076
736.51,NEASDEN MEDICAL CENTRE,-0.247382,51.559667
126.14999999999998,JOHN SMITH MEDICAL CENTRE,0.112125,51.538899
611.25,FAIRFIELD PMS,0.038949,51.483908
1741.56,BURNHAM HEALTH CENTRE,-0.662137,51.5349
3251.389999999999,ASPEN MEDICAL PRACTICE,-2.225797,51.865969
1577.36,TRENT VALE MEDICAL PRACTICE,-2.201785,52.987386
386.59,BROOKSIDE SURGERY,-1.399088,52.35048
90.58,4/LOWER BROUGHTON MEDICAL PRACTICE,-2.258808,53.49359
518.8100000000001,DESFORD MEDICAL CENTRE,-1.296116,52.627473
104.46,DR VIJE'S SURGERY,-1.650877,52.617569
51.0,DR R SHARMA'S PRACTICE,-0.096482,51.499125
2466.1199999999994,NORTON MEDICAL CENTRE,-1.308737,54.588737
262.42999999999995,PEEL PARK SURGERY,-1.731903,53.806791
503.5100000000001,BOURN SURGERY,-0.063404,52.193155
692.4,COACHMANS MEDICAL PRACTICE,-0.203875,51.096335
1627.2600000000002,HEREWARD MEDICAL CENTRE,-0.380913,52.768626
2102.61,PENISTONE GROUP PMS PRACTICE,-1.630732,53.523565
1987.14,THE PARK SURGERY,1.7292759999999998,52.606218
723.1000000000001,LANFRANC MEDICAL CENTRE,-0.332746,51.561586
1133.91,WOODLANDS MEDICAL CENTRE,-1.258898,51.603637
493.99,KNOCKIN MEDICAL CENTRE,-2.993042,52.79343
1645.35,THE CROSS KEYS PRACTICE,-0.830848,51.723655
986.3,HILLCREST SURGERY,-2.431687,51.311982
701.82,APSLEY SURGERY,-2.187008,53.035377
534.04,ASHFIELD ROAD SURGERY,-2.132841,52.62604399999999
86.7,NT&H COMM CARDIAC N,-1.227837,54.702398
6.53,CHELTENHAM LOCALITY NURSE PRESCRIBER,-2.176389,51.847073
1134.6,BLACKETTS MEDICAL PRACTICE,-1.559007,54.527221
699.2099999999998,DR A SINHA,-0.108523,53.567689
535.2700000000002,STANHOPE SURGERY,-0.032073,51.688002
581.49,THE GRAHAM PRACTICE,0.048721,51.541534
1908.08,MID SUSSEX HEALTH CARE,-0.175279,50.933719
531.9799999999998,GREEN PRACTICE,-0.371755,51.468263
240.8,BLACKFRIARS MEDICAL PRACTICE,-0.105775,51.505364
389.43000000000006,CRONDALL NEW SURGERY,-0.858386,51.237211
409.27,CHADDESLEY SURGERY,-2.158038,52.361961
855.93,DR JUDE'S PRACTICE - RIVERSIDE,-2.943016,53.398876
125.44,THE MANOR PARK PRACTICE,0.057339,51.55393
632.4300000000002,TRENTHAM MEWS MEDICAL CENTRE,-2.189898,52.970452
45.1,WIDNES GP EXTRA SERVICE,-2.735705,53.362158
726.47,DR THORNILEY-WALKER & PARTNERS,-1.460703,54.949762
139.4,DR U AKBAR,-1.777945,53.803569
591.8900000000001,AIREBOROUGH FAMILY PRACTICE,-1.684881,53.866663
1642.76,THE BURBAGE SURGERY,-1.361645,52.53009599999999
1117.9599999999996,SCHOOL HILL MEDICAL PRACTICE,0.012064,50.873469
1477.6599999999994,GRAYSHOTT SURGERY,-0.745626,51.110093
352.08,OLD SCHOOL HOUSE SURGERY,-1.604408,51.376032
937.53,THE ARDLEIGH SURGERY,0.985096,51.927073
1905.95,STONE CROSS SURGERY,0.289944,50.816757
398.85,MARSHALLS ROAD SURGERY,-0.539225,52.344743
1919.2399999999993,DARWIN MEDICAL CENTRE,-1.831505,52.694061
864.49,SOUTH HERMITAGE SURGERY,-2.752497,52.699728
46.64999999999999,GPSI CARDIOLOGY - WESTCLIFFE,-1.781103,53.830481
22.82,EAST KENT HEADACHE SERVICE,1.414787,51.390277
90.83,AR-RAZI MEDICAL CENTRE,-1.101204,52.623926
972.67,OAKENHALL MEDICAL PRACT,-1.199437,53.03661700000001
1092.0500000000004,LAWNS PRACTICE,1.109092,52.378889
430.79,CHURCH END MEDICAL CENTRE,-0.253241,51.54757
612.7999999999998,THE DEVONSHIRE LODGE PRACTICE,-0.397406,51.579266
921.24,STANWELL ROAD SURGERY,-0.470567,51.438013
550.51,WIDCOMBE SURGERY,-2.354321,51.376371
1537.08,HILLVIEW MEDICAL CENTRE,-1.951153,52.305568
543.4,LONGTON MEDICAL CENTRE,-2.770123,53.417492
1411.7099999999996,DR AHMAD & PTNRS,-2.595925,53.522279
643.7400000000001,JS MEDICAL PRACTICE,-0.078706,51.589103
4.56,SUMMERFIELD GP SURG & URGENT CARE CENTRE,-1.937353,52.487686
543.1199999999999,THE WILLASTON SURGERY,-3.011643,53.292908
17.29,WHITTINGTON HEALTH (ISLINGTON),-0.139066,51.566482
5.6,ST MICHAELS HOSPICE,-1.518091,53.977242
1050.3000000000004,TOWNHEAD SURGERY,-2.276903,54.070534
427.65,HORNE STREET SURGERY,-1.871717,53.725678
1038.98,THE GARDEN CITY PRACTICE,-0.209287,51.797151
1093.14,RIVERMEAD GATE MED.CTR.,0.472887,51.740849
435.64,ROMAN WAY MEDICAL CENTRE,-0.10550599999999999,51.544561
771.4799999999998,CARNON DOWNS SURGERY,-5.091905,50.22345
1175.3499999999995,DR KS UPTON'S PRACTICE,-1.986582,52.988358
1442.0599999999995,KINGSWAY MEDICAL CENTRE,-1.289009,54.606459
751.4599999999998,PRUDHOE MEDICAL GROUP,-1.853822,54.96186
992.12,ARTHUR MEDICAL CENTRE,-1.422636,53.001503
955.32,PORTLAND MEDICAL PRACTICE,-0.539074,53.22371999999999
1471.4,THE WALL HOUSE SURGERY,-0.208192,51.241304
314.79,THE HALING PARK PARTNERSHIP,-0.098109,51.357113
785.11,THE PRINCE OF WALES SURGERY,-2.457579,50.713502
678.3199999999998,THE GROVE SURGERY,-0.735114,52.023651
1282.4799999999998,PROBUS SURGERY,-4.948542,50.290121
356.23,DR PAL,-2.595495,53.47988
664.9400000000002,CHAPEL ROW SURGERY,-1.17086,51.425877
4.0,HEALTHBRIDGE DIRECT,0.020102,51.608432
812.0300000000002,GRANGE STREET SURGERY,-0.335878,51.757298
582.06,ST PETER'S SURGERY,1.41893,51.362936
222.68,SIBFORD SURGERY,-1.479244,52.037614
2013.16,AXMINSTER MEDICAL PRACTICE,-2.999226,50.780899
903.77,PRICES MILL SURGERY,-2.224938,51.693801
1294.3699999999994,MARSH MEDICAL PRACTICE,0.143689,53.445069
1715.69,KNEBWORTH & MARYMEAD MEDICAL PRACTICE,-0.184972,51.866323
232.79,THE HODFORD ROAD PRACTICE,-0.199318,51.569038
519.56,ABBEY ROAD MEDICAL PRACTICE,0.005881,51.534784
2642.949999999999,BETHESDA MEDICAL CENTRE,1.414787,51.390277
969.1599999999999,WOODLANDS SURGERY,0.088913,51.439755
294.42,ALVELEY MEDICAL PRACTICE,-2.353309,52.454738
396.88,KNOWSLEY MEDICAL CENTRE,-2.300551,53.588497
815.59,CHURCHSIDE MEDICAL PRACTICE,-1.203539,53.146592
463.47,SOUTHEND MEDICAL CENTRE,0.708516,51.540069
274.93999999999994,THE MITCHISON ROAD SURGERY,-0.087357,51.544992
1359.7400000000002,FRAMLINGHAM SURGERY,1.334192,52.227216
298.78,CHOWDHURY,0.233898,51.592339
1095.08,JENNER HOUSE SURGERY,-0.7745189999999998,51.294302
1057.78,NORFOLK STREET SURGERY,-2.182794,53.01602
1724.1500000000005,TORKARD HILL MEDICAL CTRE,-1.207389,53.029901
1283.46,VILLAGE SURGERY,-1.251934,53.39421
264.34000000000003,ALLENBY CLINIC,-0.376261,51.531514
2241.8100000000004,DR PUZEY DR KOTHARI AND DR NANDA,0.705992,51.582107
1562.87,SEVERN FIELDS MEDICAL PRACTICE,-2.721619,52.728047
1717.95,CUMBERLAND HOUSE SURGERY,-2.990437,53.638743
224.09,HOLLINS GROVE SURGERY,-2.477472,53.705346
265.02000000000004,OLDHAM FAMILY PRACTICE,-2.116945,53.543824
497.22,SHAY LANE MEDICAL CENTRE (PATEL),-2.31556,53.372189
1375.88,CHURCHILL MEDICAL CENTRE,-0.018466,51.618226
1045.04,PRIORY MEDICAL CENTRE,-0.50567,52.167181
68.05,ESK ROAD MEDICAL CENTRE,0.024266,51.522454
2202.25,REACH HEALTHCARE,0.52408,51.337756
726.0299999999999,CAMBERLEY HEALTH CENTRE,-0.754069,51.324435
405.73,FLOOD (ESSEX HOUSE),-0.247469,51.472541
628.7999999999998,WOLLASTON AND BOZEAT SURGERIES,-0.674311,52.252471
931.2599999999996,ST.LEVAN SURGERY,-4.177328,50.383921
849.0900000000001,BARTON,-1.725223,52.761751
197.04,HAWTHORNS MEDICAL CENTRE,-1.967268,52.501507
696.77,BROWNLOW AT MARYBONE,-2.987806,53.411269
636.25,LITTLE LEVER HEALTH CENTRE 1,-2.370624,53.55981800000001
1129.04,CONWAY ROAD MEDICAL PRACTICE,-2.303561,53.417873
1122.3000000000004,MAYBUSH MEDICAL CENTRE,-1.489249,53.670273
567.9500000000002,FALKLAND HOUSE SURGERY,-1.514423,53.359728
920.12,MILTON KEYNES VILLAGE SURG,-0.697865,52.043891
11.21,GPSI PALLIATIVE CARE,-3.007792,53.502483
1788.7299999999998,FIELDHOUSE MEDICAL GROUP,-0.112579,53.564436
882.6600000000003,SAXON CROSS SURGERY,-1.273642,52.931099
523.1,THE NAYAR PRACTICE,-1.1933790000000002,53.480824
111.77,NEW NORTH HEALTH CENTRE,-0.091592,51.537534
1504.4199999999996,HOVE MEDICAL CENTRE,-0.19539,50.845024
1025.0000000000002,FORT HOUSE SURGERY,-0.412578,51.37881
764.6999999999998,THE LAWN MEDICAL CENTRE,-1.7619029999999998,51.547821
244.11,ST MARY'S HEALTH CENTRE,-6.308668,49.911605
1789.6999999999996,TAVYSIDE HEALTH CENTRE,-4.145976,50.545824
604.2200000000001,HAGLEY SURGERY,-2.144103,52.420783
143.53,YARDLEY MEDICAL CENTRE,-1.828397,52.463189
3697.43,ASHTON MEDICAL GROUP,-2.089184,53.489361
773.4599999999998,THE WILLESDEN MEDICAL CENTRE,-0.233873,51.547532
238.47999999999996,SELHURST MEDICAL PRACTICE,-0.088969,51.390012
810.49,PONTESBURY MEDICAL PRAC,-2.887922,52.650521
709.92,BRAITHWAITE RD SURGERY,-2.574985,53.477412
702.9599999999998,WOODGRANGE MEDICAL PRACTICE,0.025253,51.548596
279.18,JARVIS MEDICAL PRACTICE,-2.095095,53.537786
1.76,IC24 LTD (NORFOLK & WISBECH OOH),0.891514,51.129106
640.0899999999998,THE MANSELL ROAD PRACTICE,-0.358969,51.525654
81.73999999999998,FOUNDATIONS,-1.257899,54.563441
250.93,READING WALK-IN HEALTH CENTRE,-0.9758960000000002,51.454809
28.0,NORTH TYNESIDE CARE PLUS,-1.456596,55.011193
0.21,SUFFOLK GP FEDERATION OOH,1.164244,52.044508
2610.229999999999,MUNRO MEDICAL CENTRE,-0.147427,52.794037
727.4099999999999,MOSBOROUGH HEALTH CENTRE,-1.364873,53.325238
722.1,PUCKERIDGE & STANDON SURGERY,0.019374,51.888296
605.6199999999999,COMMONWEALTH HEALTH CENTRE,0.36308,51.463166
599.3299999999998,TAMWORTH HOUSE MEDICAL CENTRE.,-0.146254,51.40122
1002.69,PARKSIDE PRACTICE,-1.353169,50.970948
914.5,DARTMOUTH MEDICAL PRACTICE,-3.580811,50.351157
489.2699999999999,BLACKHEATH MED CTR,-3.104694,53.412239
247.24,GOLDINGTON ROAD SURGERY,-0.456174,52.140172
460.8,POPLAR PRIMARY CARE CENTRE,-1.890326,52.43631
1344.8499999999995,THE SUTTON MANOR SURGERY,-0.315294,53.785759
2801.3100000000004,JESSOP MEDICAL PRACTICE,-1.372226,53.074348
873.43,THE MAYFLOWER MEDICAL PRACTICE,-1.01945,53.431872
1007.14,ST.ANTHONY'S HEALTH CENTRE,-1.55655,54.966674
8.939999999999998,WESTCALL OOH,-0.8315749999999998,51.410524
478.82,WHITWICK HEALTH CENTRE,-1.3606790000000002,52.742576
1743.74,MARKET SURGERY,-1.345958,53.502635
430.62,DERWENT CRESCENT MEDICAL CENTRE,-0.175285,51.622908
5669.68,PORTSDOWN GROUP PRACTICE,-1.080952,50.812876
1476.67,ABBEY MEDICAL GROUP,-1.119194,53.100674
371.80999999999995,HOLBORN MEDICAL CENTRE,-0.118539,51.522233
312.49000000000007,BRICK LANE SURGERY,-0.048612,51.657327
401.8,ELM LODGE SURGERY,-0.096232,51.451506
1775.4400000000005,THE LIGHTHOUSE GROUP PRACTICE,-1.0805049999999998,50.796551
1414.1700000000005,THE ORCHARD PARTNERSHIP,-1.865867,51.077878
1181.33,PARKGATE SURGERY,-2.882743,53.564772
10.0,WLCCG EXTENDED HOURS HUBS,-0.217218,51.522362
3669.87,WILLIAM BROWN CENTRE,-1.33142,54.757994
262.47,RED HOUSE MEDICAL CENTRE,-1.424063,54.925457
1270.6500000000005,COLNE VALLEY GROUP PRACTICE,-1.9282130000000002,53.602096
288.88,SOUTHEY GREEN MEDICAL CTR,-1.477666,53.419051
1802.05,IVRY STREET MEDICAL PRACTICE,1.148624,52.064021
734.2099999999998,NEWBURY GROUP PRACTICE,0.085981,51.576435
265.8,BRAMPTON HEALTH CENTRE,-0.277386,51.586099
444.72,DOCKLANDS MEDICAL CENTRE,-0.021143,51.491152
477.88,ABBEY WOOD SURGERY,0.11653,51.497094
1111.52,STAFFORD MEDICAL GROUP,-2.914755,51.35259
2236.5899999999992,SEVERN VALLEY MEDICAL PRACTICE,-2.235045,52.190415
844.5300000000002,LIME SQUARE MEDICAL CENTRE,-2.164901,53.473649
272.44000000000005,HATTON MEDICAL PRACTICE,-0.433285,51.457879
1417.11,BIRBECK MEDICAL GROUP,-2.742581,54.656125
481.24000000000007,WENLOCK ROAD SURGERY,-1.455226,54.972635
1588.41,CRICH MEDICAL PRACTICE,-1.482573,53.084327
850.3,LUDHAM AND STALHAM GREEN SURGERIES,1.534423,52.709131
1239.29,WELL CLOSE MEDICAL GROUP,-2.006127,55.77245799999999
1787.0200000000002,THE BURNS PRACTICE,-1.12309,53.520707
564.13,KING GEORGE ROAD SURGERY,0.518518,51.348911
1284.4899999999998,CHURCHDOWN SURGERY,-2.171559,51.882487
756.8599999999999,VENTNOR MEDICAL CENTRE,-1.203791,50.594548
767.55,WEST VIEW SURGERY,-2.50212,51.411923
933.74,CONCEPT HOUSE SURGERY,-2.98492,53.449136
309.99,HEATHROW MEDICAL CENTRE,-0.433924,51.49302
842.62,EAST PARADE SURGERY,-1.529793,53.996354
478.28,BASLOW HEALTH CENTRE,-1.617823,53.246144
419.09,ASQUITH SURGERY,-1.117116,52.601489
878.5000000000001,SUN LANE,1.087469,51.071536
629.4300000000002,THE CHURCH VIEW PRACTICE,0.609995,51.363412
388.86000000000007,TRIANGLE GROUP PRACTICE,-0.011071,51.457798
980.18,BICESTER HEALTH CENTRE,-1.157239,51.896742
817.6,BILBROOK MEDICAL CENTRE,-2.181749,52.624775
6830.81,LANCASTER MEDICAL PRACTICE,-2.797202,54.047583
855.66,NEW COURT SURGERY,-2.30878,52.113538
866.02,SWANWOOD PARTNERSHIP,0.519034,51.613356
974.1399999999999,THE JUNCTION SURGERY,-1.759212,53.643662
10.69,BADGER GROUP OOH,-1.8778259999999998,52.477589
42.1,COMMUNITY NURSING (SOUTH TEES),-1.215564,54.570237
4.56,WEST HERTS RESPIRATORY SERVICE,-0.468578,51.750846
24.85,GP SERVICES - GP HUBS,-0.175734,51.240416
1561.45,MIDDLE CHARE MEDICAL GROUP,-1.573113,54.855636
2107.330000000001,LEIGH VIEW MEDICAL PRACTICE,-1.558358,53.728574
663.3399999999998,GILDERSOME HEALTH CENTRE,-1.6293,53.756554
723.4299999999998,HAZELMERE MEDICAL CENTRE,-1.16453,52.57337
1101.32,QUEENS PARK HEALTH CENTRE,-0.493075,52.133151
222.38,THE HEATHCOTE PRIMARY CARE CENTRE,0.062768,51.593832
2123.72,TRESCOBEAS SURGERY,-5.085333,50.15531
900.4800000000001,MITCHELDEAN SURGERY,-2.488369,51.865935
1718.5100000000002,HARESFIELD HOUSE SURGERY,-2.202996,52.194829
1691.83,LAUREL HOUSE SURGERY,-1.692825,52.636563
889.75,LONGFORD PRIMARY CARE CENTRE,-1.48555,52.449933
3031.9599999999987,ROPE GREEN MEDICAL CENTRE,-2.453958,53.06655
2077.04,AINSDALE MEDICAL CENTRE,-3.03882,53.602403
692.36,QUEEN STREET MEDICAL PRACTICE,-3.589063,54.546567
643.2099999999998,THE MILLER PRACTICE,-0.092165,51.551419
1356.99,THE GROVES MEDICAL CENTRE,-0.26224,51.410048
1287.52,THE MARINE & OAKRIDGE PARTNERSHIP,-1.806532,50.722838
1351.9699999999998,PORT ISAAC SURGERY,-4.824594,50.589808
1714.6899999999996,ST JOHNS HOUSE SURGERY,-2.25911,52.18874
623.2099999999998,ADDERLEY GREEN SURGERY,-2.135511,52.991714
475.23,DR BILAS,-2.063063,52.612824
299.51,DILL HALL SURGERY,-2.390844,53.754996
1259.1399999999996,WEST TIMPERLEY MEDICAL CENTRE,-2.353117,53.402699
156.75,SUMMERLEE MEDICAL CENTRE,-0.652145,52.337022
182.56,THE GRANGE MEDICAL CENTRE,-0.262039,52.57839
1185.9900000000002,GREEN RIDGE SURGERY,-1.8710349999999998,52.428433
859.63,ROCK COURT SURGERY,-2.916187,53.411597
853.8800000000001,HAVEN HEALTH,1.327039,51.96536
3.39,DANEHOUSE MEDICAL PRACTICE,-2.238948,53.791326
279.90000000000003,SHORTSTOWN MEDICAL CENTRE,-0.432463,52.110853
23.02,MK URGENT CARE SERVICES OOH,-0.7357599999999997,52.026384
172.42999999999995,LIMEFIELD ROAD MEDICAL PRACTICE,-2.26047,53.506995
120.44,THE MATTHEWMAN PRACTICE,-0.149281,51.545823
249.12999999999997,LAKESIDE SURGERY,-1.310932,53.52812
333.87,VALLEY VIEW SURGERY,-1.731903,53.806791
399.46,LICHFIELD GROVE SURGERY,-0.19329,51.599604
1323.87,ARBURY MEDICAL CENTRE,-1.497961,52.51662
331.23,CHURCH LANE - KHAN,-1.793962,52.487056
351.02000000000015,BEECHDALE CENTRE,-2.007339,52.600867
1095.1699999999996,DINGLE PARK PRACTICE,-2.972885,53.38633
547.4599999999998,BEECHWOOD SURGERY,-3.009057,53.871568
1826.7100000000007,HEYWOOD HEALTH,-2.239335,53.58736999999999
801.7300000000001,GLOUCESTER HOUSE MEDICAL CENTRE,-2.352599,53.447337
486.28,FIR TREE,-2.878691,53.44930600000001
7.66,NELPCT OUT OF HOURS SERVICE,-0.096229,53.544858
0.31,WALK IN CENTRE (WIC),-1.784934,51.563016
819.5899999999997,MAYNARD COURT SURGERY,0.020165,51.685605
1665.18,YARM MEDICAL PRACTICE,-1.355519,54.50530500000001
670.04,BENSHAM FAMILY PRACTICE,-1.617038,54.952781
290.17,EASTMOOR HEALTH CENTRE,-1.476864,53.690004
123.15,SPUR ROAD SURGERY,-0.086621,51.586597
515.0600000000001,ALBION STREET SURGERY,-0.133965,50.827627
1309.2500000000002,THE BANKS & BEARWOOD MEDICAL CENTRE,-1.9292169999999997,50.768326
487.33,MERE SURGERY,-2.265342,51.089873
910.84,THE GROUP PRACTICE ALFRED SQUIRE ROAD,-2.080754,52.599417
1681.9199999999996,LANGWORTHY MEDICAL PRACTICE,-2.294771,53.489371
219.33,LEY HILL SURGERY,-1.983266,52.421346
273.20000000000005,CRESCENT SURGERY,0.106446,51.389854
257.45000000000005,GREEN CEDARS MEDICAL CENTRE,-0.073642,51.616071
81.97,WHITE HORSE SURGERY,0.343258,51.435153
1008.86,PARK HOUSE MEDICAL CENTRE,-2.805295,53.42670699999999
1099.1699999999996,SOUTH KING STREET MEDICAL CENTRE,-3.047855,53.816775
5.11,ANN MARIE HOWES CENTRE,-1.7785380000000002,52.464805
1.69,AIREBOROUGH COMMUNITY CARE,-1.684881,53.866663
490.68000000000006,PEELER HOUSE SURGERY,-0.438756,53.72252
289.51,DR DHITAL PRACTICE,-0.003074,51.587786
1478.4900000000002,WOODLANDS HEALTH CENTRE,0.38485,51.18077
15.46,WEST KENT GROUP,1.118942,51.075872
8.349999999999998,BRAMHOPE DERMATOLOGY COMMUNITY CLINIC,-1.61581,53.881903
8.0,SOTON COMMUNITY ENT SERVICE WESTON LANE,-1.370694,50.888213
1348.97,DALTON SURGERY,-3.179816,54.155917
706.11,RAJ MEDICAL CENTRE,-0.113968,53.550655
1322.0299999999995,OAKWOOD LANE MEDICAL PRACTICE,-1.493931,53.819982
558.03,CADDINGTON SURGERY,-0.458179,51.864502
8.81,GREENWICH CCG GP ACCESS HUB,0.050556,51.457843
516.8900000000001,WEST ROAD MEDICAL CENTRE,-1.656263,54.976209
1083.1899999999996,FOREST PRACTICE,0.07523499999999998,51.654789
277.99,PRASAD,0.210579,51.600308
1487.13,NORTHDOWN SURGERY,1.368001,51.379866
2209.67,DARWEN HEALTHLINK,-2.471427,53.695744
677.9200000000002,DAVID MEDICAL CENTRE,-2.268652,53.43186
748.87,EDLESBOROUGH SURGERY,-0.588625,51.868423
340.51,CHURCH VIEW MEDICAL CENTRE,-2.960328,50.935622
698.51,HENDON WAY SURGERY,-0.241873,51.579182
9.55,SPECIALIST NURSE,-1.517573,53.993807
36.0,NC GPA PLUS,-1.152649,52.954624
728.6999999999998,NETHERFIELD HOUSE,-1.548435,55.063632
2075.52,PRACTICE 3  MEDICAL CENTRE  BRIDLINGTON,-0.201064,54.084715
1149.1099999999994,THE ALMONDBURY SURGERY,-1.751311,53.631868
457.51,NEWLAND SURGERY,-1.424247,53.695146
820.1600000000003,TREETON MEDICAL CENTRE,-1.354708,53.384994
0.8399999999999997,COMMUNITY MATRONS,-2.095555,52.599722
665.1199999999999,THE CHESTNUTS & HALLGATE SURGERY,-0.403621,53.778985
2078.9,SHIRES HEALTHCARE,-1.215692,53.202513
695.5300000000002,ORCHARD SURGERY,-1.278154,52.836522
2246.8100000000004,ABBEY FIELD MEDICAL CENTRE,0.898575,51.877487
3279.28,ABBEY HOUSE MEDICAL PRACTICE,-1.160725,52.260319
1392.1499999999994,NORTON BROOK MEDICAL CENTRE,-3.782122,50.288739
1484.94,MARTON MEDICAL PRACTICE,-3.034524,53.812843
1633.55,THE NORTH LEEDS MEDICAL PRACTICE,-1.534037,53.843332
952.67,FRIAR GATE SURGERY,-1.485624,52.924816
904.7,NAVENBY CLIFF VILLAGES SURGERY,-0.526297,53.103518
893.99,ASKERN MEDICAL PRACTICE,-1.148909,53.61549599999999
882.7200000000001,LEYTON HEALTHCARE 4TH FLOOR,-0.013313,51.559894
314.45,CAMBRIDGE HOUSE,-2.144827,53.024433
189.92,PARK HOUSE SURGERY,-1.942965,52.54446
2364.88,RAINBOW MEDICAL CENTRE,-2.705931,53.435389
803.0,LITTLE LONDON SURGERY,-1.979284,52.574984
593.27,STRETTON MEDICAL CENTRE,-2.577017,53.339489
123.07,THE DALE MEDICAL PRACTICE,-2.154239,53.611617
40.28,CAMBRIDGE ACCESS SURGERY,0.138701,52.20875
3.9,ANGEL LODGE,-1.50929,53.683308
4.1,HP NMP'S NN & E CCG,-1.143101,53.130244
1758.5999999999995,LEIGH FAMILY PRACTICE,-2.511927,53.493519
687.8399999999998,THE GREYSWOOD PRACTICE,-0.144853,51.419489
495.21,CHATHAM STREET SURGERY,-0.981895,51.455924
1199.05,DEVON SQUARE SURGERY,-3.60508,50.529985
792.8099999999998,THE ROYAL WELL SURGERY,-2.0815,51.906706
872.7899999999998,THE LIMES SURGERY MEDICAL CENTRE,-2.114052,52.456884
1193.2199999999998,LAYTON MEDICAL CENTRE,-3.027291,53.827425
1248.0799999999995,WILLINGTON SURGERY,-1.566835,52.850285
1133.1,MANOR FARM MEDICAL CENTRE,0.690513,52.648544
1518.7799999999993,REGAL CHAMBERS SURGERY,-0.275959,51.952843
169.58999999999997,THE GARWAY MEDICAL PRACTICE,-0.185494,51.515392
4758.240000000002,ACORN HEALTH PARTNERSHIP,-1.114058,51.245047
1.39,UNIV HOSP NORTH DURHAM OOH,-1.593834,54.788497
505.17,BOWLING GREEN STREET SURGERY,-1.133096,52.63304599999999
1244.32,BURTON CROFT SURGERY,-1.57692,53.820807
361.72,HARTINGTON SURGERY,-1.810816,53.142488
321.5999999999999,FIVE ELMS MEDICAL PRACTICE,0.14235,51.553315
1161.5299999999995,SOUTH VIEW PARTNERSHIP,0.026125,51.405111
467.6700000000001,CORNERWAYS SURGERY,-0.404519,50.81566
141.97999999999996,WALLINGTON MEDICAL CENTRE,-0.129285,51.357345
755.86,COMBE DOWN SURGERY,-2.345599,51.361003
703.62,NORTH PETHERTON SURGERY,-3.013922,51.09139
296.13,QUEENS MEDICAL CENTRE,-2.235847,53.50081899999999
1898.78,THE PENDLE MEDICAL PARTNERSHIP,-2.144307,53.915882
1470.8999999999994,3/SPRINGFIELD HOUSE MEDICAL PRACTICE,-2.362019,53.480252
259.38,THE KINGSWAY PRACTICE,-2.135588,53.612168
442.76,THE PRACTICE FELTHAM,-0.411086,51.446367
1.82,NHS FYLDE & WYRE CCG,-2.881037,53.789498
3858.51,BEACON MEDICAL PRACTICE,0.331219,53.157472
393.37,GREENFIELDS MEDICAL CENTRE (YVS RAO),-1.168583,52.966506
0.79,IC24-THANET CCG OOH,0.891514,51.129106
714.79,TODDINGTON MEDICAL CENTRE,-0.530482,51.945856
1596.2199999999993,OAKLANDS HEALTH CENTRE,1.08253,51.069106
1208.2500000000002,LONGCROFT CLINIC,-0.192332,51.325314
497.6,WHITCHURCH SURGERY,-0.8426209999999998,51.882174
250.28000000000003,RIVERSIDE SURGERY,-1.699518,52.632337
1034.7800000000002,THE VILLAGE SURGERIES GROUP,-2.771265,53.124246
764.77,SHIFA SURGERY,-2.475999,53.757295
763.2800000000002,OLDHAM MEDICAL SERVICES,-2.111235,53.52535699999999
964.07,LEADGATE SURGERY,-1.805988,54.860562
1306.4699999999998,GOYT VALLEY MEDICAL PRACTICE,-1.983113,53.3305
634.6499999999999,CONCORD MEDICAL PRACTICE,-1.524864,54.913411
1101.66,COUNTESTHORPE HEALTH CENTRE,-1.136767,52.554536
681.0999999999998,ANNANDALE MEDICAL CENTRE,-0.17421099999999998,51.698571
1011.07,DR SINHA & PARTNERS,0.100204,53.030138
419.67,THE HEALTH CARE SURGERY,-1.487911,53.42172
899.9199999999998,THE LIMES SURGERY,-0.010842,51.759413
355.43,SEVEN DIALS MEDICAL CENTRE,-0.147743,50.829681
1052.38,BARCROFT MEDICAL CENTRE,-1.780526,51.172939
1725.92,PIONEER MEDICAL GROUP,-2.617628,51.510306
685.5499999999998,WITHNELL HEALTH CENTRE,-2.556663,53.692491
668.22,DR ABBAS,-0.841253,52.26834
438.6,DR GS KALKAT'S PRACTICE,0.103861,51.527941
161.72,THE LYNWOOD SURGERY,-0.29964,51.528594
2368.73,FERRYHILL AND CHILTON MEDICAL PRACTICE,-1.556828,54.689838
1044.52,COLLIERY COURT MEDICAL GROUP,-1.460703,54.949762
173.32999999999996,WINDSOR MEDICAL CENTRE,-1.622157,53.693875
891.4099999999997,LOWMOOR ROAD SURGERY,-1.244634,53.100062
508.50000000000006,SUNRISE MEDICAL CENTRE,-0.382255,51.51087
661.7299999999998,SONNING COMMON HEALTH CTR,-0.982114,51.515603
2004.26,LANDER MEDICAL PRACTICE,-5.055864,50.259982
593.3400000000001,ALUM ROCK MEDICAL CENTRE,-1.850664,52.489901
2953.5600000000004,HARDWICKE HOUSE GROUP PRACTICE,0.725792,52.0382
643.1900000000002,WOOLSTONE MEDICAL CENTRE,-0.036776,51.438421
1146.19,SOUTHGATE MEDICAL GROUP,-0.194559,51.102316
1151.6300000000006,BROCKWORTH SURGERY,-2.156696,51.844575
1241.0500000000004,DAWLEY MEDICAL PRACTICE,-2.466781,52.664322
1266.35,HOWARD HOUSE SURGERY,1.349626,51.96149
430.05999999999995,AMWELL GROUP PRACTICE,-0.11081700000000001,51.528043
1107.39,MEOPHAM MEDICAL CENTRE,0.359744,51.368901
565.8200000000002,FORGE CLOSE SURGERY,0.016555,51.377137
497.38999999999993,JOHNSON (SHEEN LANE),-0.267239,51.465848
420.9,LITTLEDOWN SURGERY,-1.833439,50.741638
574.75,PEDMORE MEDICAL PRACTICE,-2.118211,52.457029
416.1500000000001,THE OLD DISPENSARY,-1.987226,50.803427
318.82,STROUD GREEN MEDICAL CENTRE,-0.114328,51.570059
1606.9399999999994,WEST SOMERSET HEALTHCARE,-3.3186760000000004,51.161419
1018.1699999999997,OMNIA PRACTICE,-1.839082,52.475709
1077.3599999999997,MORETON CROSS GROUP PRACTICE,-3.111975,53.403551
939.83,WEST COMMON LANE TEACHING PRACTICE,-0.682441,53.57473100000001
864.2500000000001,RIVERSIDE MEDICAL PRACTICE,-1.315584,54.56887
21.41,MEDICUS HEALTH PARTNERS-ENFIELD ISLAND,-0.016992,51.668586
710.66,THE OAKWOOD SURGERY,-1.073937,53.506609
957.8299999999998,PAPWORTH SURGERY,-0.11749200000000001,52.252071
1518.3,CAMBRIAN MEDICAL PRACTICE,-3.047774,52.86281
1135.94,FIRDALE MEDICAL CENTRE,-2.537387,53.253804
550.8800000000001,KIRKSTALL LANE MEDICAL CENTRE,-1.587333,53.816942
1297.7200000000005,BELLE VALE HEALTH CENTRE,-2.859752,53.392035
833.62,ELIZABETH STREET SURGERY,-3.043658,53.820839
1123.52,RAMSBOTTOM MEDICAL PRACTICE,-2.319287,53.64878
558.62,BROOK HOUSE SURGERY,-1.445882,50.921794
6.0,WEST CAMHS - KIRKSTALL,-1.599694,53.817164
0.28,HMR BARDOC OOH,-2.288591,53.59553
12.63,7 DAY ACCESS ROCHDALE INFIRMARY HUB,-2.160152,53.624282
651.2400000000001,MAGHULL HEALTH CENTRE (DR SAPRE),-2.943932,53.515597
383.33000000000015,WINDERMERE SURGERY,-2.205709,53.55956
2187.4,ST VINCENT MEDICAL CENTRE,-1.124029,53.525476
1.76,CASH SERVICES,-1.152629,53.207243
746.62,CRESWELL AND LANGWITH MEDICAL CENTRE,-1.215835,53.262654
667.85,BEECHWOOD GROUP PRACTICE,-3.545472,54.642376
1442.4299999999996,PARKSIDE MEDICAL CENTRE,-0.021998,52.981526
936.19,WINCOBANK MEDICAL CENTRE,-1.416316,53.419405
458.98,VIRGINIA WATER MEDICAL PRACTICE,-0.568235,51.403367
184.21,THE ALTON PRACTICE,-0.239471,51.44914
974.49,ALEXANDER HOUSE SURGERY,-0.7520019999999998,51.293749
948.35,GREEN MEADOWS SURGERY,-0.677163,51.426939
1248.93,WARGRAVE HOUSE SURGERY,-2.712261,52.055418
1220.79,STATION DRIVE SURGERY,-2.715141,52.370132
1145.87,MARPLE BRIDGE SURGERY,-2.053323,53.400594
681.2500000000001,THE ROSEBERRY PRACTICE,-1.292215,54.611726
2135.84,TANFIELD VIEW MEDICAL GROUP,-1.701373,54.869939
485.38999999999993,DR MITCHELL,-0.503581,53.72075
290.32,SPRINGFIELD MEDICAL CENTRE,-1.195502,53.003599
700.5199999999999,THE LILYVILLE SURGERY,-0.199155,51.47377
592.62,WITHAM HEALTH CENTRE,0.642876,51.800559
2130.7499999999995,PRIORY MEDICAL CENTRE,-1.588641,52.285051
421.08,BALDWINS LANE SURGERY,-1.846405,52.414514
530.84,MONARCH MEDICAL CENTRE,-2.316823,53.564198
387.06,LINCOLN GREEN MEDICAL CENTRE,-1.525196,53.802098
2.37,HARROGATE OOH,-1.517573,53.993807
6.0,EXTENDED HOURS SERVICE,-2.9023,53.211542
947.4199999999997,CHERRY HINTON MEDICAL CENTRE,0.177635,52.187459
518.6899999999998,FIELDHEAD SURGERY,-1.639379,53.831787
470.78,YEADING MEDICAL CENTRE,-0.397019,51.533634
425.94000000000005,LYDDEN SURGERY,1.23991,51.163193
1111.86,ST GEORGES MED PRACTICE,-1.132346,52.930754
287.19,THE RANDOLPH SURGERY,-0.186852,51.529819
348.80999999999995,HEXTABLE SURGERY,0.182972,51.409182
484.0,THE ROEHAMPTON SURGERY,-0.242431,51.451154
641.9200000000002,CRICK MEDICAL PRACTICE,-1.135861,52.343212
1175.84,THE VILLAGE SURGERY,-2.219972,53.033945
603.3600000000001,STONE CROSS MEDICAL CENTRE,-1.982689,52.545444
992.5900000000001,ILEX VIEW MEDICAL PRACTICE,-2.280663,53.70081
546.2299999999998,PEEL CROFT,-1.6339549999999998,52.799271
2097.2400000000007,BEDLINGTONSHIRE MED.GROUP,-1.598682,55.1322
1183.92,MALTINGS SURGERY,-0.337918,51.751851
1187.28,RECTORY MEADOW SURGERY,-0.6175,51.669079
3.22,CARE UK OOH,1.210633,52.034014
0.55,IC24 LTD (HWLH OOH),0.891514,51.129106
699.0199999999999,KIRKBY COMMUNITY PRIMARY CARE CENTRE (3),-1.248741,53.10176
992.54,BERKLEY PRACTICE,-2.024533,52.58916
1360.92,WOODLANDS MEDICAL PRACTICE,-2.142182,53.545559
855.4199999999998,BROOKS BAR MEDICAL CENTRE,-2.261969,53.461412
531.57,THE VILLAGE MEDICAL CTR,-0.512653,52.128152
11.55,GP COLLABORATIVE OOH,-1.455965,53.409821
454.93,ST NEOTS HEALTH CENTRE,-0.267116,52.228966
1040.37,MIDDLESTOWN,-1.600562,53.650545
797.2899999999998,AEGIS MEDICAL CENTRE,0.467525,51.57556
1818.89,LAVANT ROAD SURGERY,-0.781051,50.853385
156.52999999999997,BEGG PRACTICE,-0.179391,51.459968
976.09,EMMER GREEN SURGERY,-0.972861,51.483584
2668.4700000000007,ST THOMAS MEDICAL GROUP,-3.54518,50.714472
1013.05,BOSWORTH MEDICAL CENTRE,-1.7536330000000002,52.480569
2.21,EASTBOURNE  HAILSHAM & SEAFORD OOH,0.891514,51.129106
1233.77,WEM AND PREES MEDICAL PRACTICE,-2.722566,52.859338
602.61,ALL SAINTS SURGERY,-1.644121,52.794285
916.9,DORRIDGE SURGERY,-1.752074,52.372757
286.57,QUEENS ROAD SURGERY,-1.474524,52.522119
2601.689999999999,ASH TREES SURGERY,-2.769484,54.129481
359.7699999999999,FAMILY PRACTICE,-2.486748,53.750552
1321.7499999999995,LEESBROOK SURGERY,-2.07266,53.53879
1139.5099999999998,RADCLIFFE-ON-TRENT. HEALTH CENTRE,-1.03822,52.946139
525.4800000000001,MANCHESTER ROAD SURGERY,-1.521086,53.380573
730.4299999999998,PENSHURST GARDENS SURGERY,-0.272812,51.616129
186.9,ORCHARD END,0.539532,51.091415
79.54,BLOOMSBURY SURGERY,-1.871892,52.49324300000001
168.17000000000004,KHAN MEDICAL PRACTICE,-2.000799,52.613174
665.7199999999998,ASHURST PRIMARY CARE,-2.772723,53.563208
2122.42,PEASE WAY MEDICAL CENTRE,-1.576495,54.618581
597.3200000000002,ELSDON AVENUE SURGERY,-1.525885,55.07062
407.9500000000001,CROSLAND MOOR SURGERY,-1.809637,53.63841
999.95,PARKGATE MEDICAL CENTRE,-1.342798,53.455454
469.46,QUEENS AVENUE PRACTICE,-0.147916,51.591852
228.37000000000003,DR RHK SINHA'S PRACTICE,-0.103058,51.482668
300.85,THE ADDISCOMBE SURGERY,-0.061851,51.376293
2467.24,THE CAMBRIDGE PRACTICE,-0.76565,51.254364
910.1500000000002,BRICKFIELDS SURGERY,0.605168,51.653143
1340.4700000000005,THE CEDARS SURGERY,1.403174,51.217619
1538.0299999999993,ORCHID HOUSE SURGERY,-1.894499,50.801788
1998.89,WEAVERS MEDICAL,-0.733538,52.401531
2233.15,BIDEFORD MEDICAL CENTRE,-4.211785,51.017201
1334.78,CORBETT MEDICAL PRACTICE,-2.148792,52.263269
709.6099999999997,COBRIDGE SURGERY,-2.187008,53.035377
1627.3700000000006,ALBION MEDICAL PRACTICE,-2.088476,53.48960400000001
795.29,LONGFIELD MEDICAL PRACTICE,-2.28357,53.533828
4.0,GP EXTENDED HOURS,-2.597522,53.389256
635.06,BRERETON SURGERY,-1.924317,52.747482
23.66,THE LAWNS SURGERY,-0.502907,50.807746
0.85,BARNET COPD SERVICE,-0.271242,51.606493
532.33,BRIERLEY MEDICAL CENTRE,-1.382484,53.594188
630.6299999999999,TEMPLE FORTUNE MEDICAL GROUP,-0.197845,51.581101
1858.75,WEST MALLING GROUP PRACTICE,0.407707,51.293351
1086.09,MOAT HOUSE SURGERY,-0.146361,51.259819
848.77,DENHAM MEDICAL CENTRE,-0.502236,51.584564
898.77,CHEW MEDICAL PRACTICE,-2.629195,51.35619
1146.1699999999996,CHARING SURGERY,0.791374,51.20971
2487.2999999999993,HEART OF BATH,-2.373947,51.376364
689.1399999999999,LOSTWITHIEL SURGERY,-4.668763,50.407892
744.3299999999998,THE GROVE ROAD PRACTICE,-0.202341,51.358201
400.51,HANLEY PRIMARY CARE CENTRE,-0.12083699999999999,51.567951
861.0199999999999,LEYLAND SURGERY,-2.709316,53.689645
1.83,HP NMP'S RUSH CCG,-1.143101,53.130244
469.64,DEARNE VALLEY HEALTH CENTRE,-1.626482,53.588349
3124.98,SEAFORD MEDICAL PRACTICE,0.099275,50.772678
362.93,THE WHITEHORSE PRACTICE,-0.097391,51.385869
739.77,TOWER HOUSE SURGERY,-0.770004,51.636372
1160.2700000000002,CHURCH STREET PRACTICE,-1.425847,51.598763
1893.02,ROSEBANK HEALTH,-2.242194,51.852611
814.8899999999999,MAPLE VIEW MEDICAL PRACTICE,-1.905693,52.31659
1331.21,HOWDEN MEDICAL PRACTICE,-0.8694039999999998,53.744175
1067.63,THE WILSDEN MEDICAL PRACTICE,-1.86138,53.818377
460.77000000000015,GREASBROUGH MEDICAL CENTRE,-1.372776,53.452893
947.8,WEST MERSEA SURGERY,0.9193420000000002,51.778349
1502.37,TWYFORD SURGERY,-1.314229,51.019421
1230.48,IDE LANE SURGERY,-3.534972,50.699471
729.8199999999998,THE ARROW SURGERY,-1.861382,52.218546
409.24000000000007,WILLENHAL OAK MEDICAL CENTRE,-1.463131,52.388988
2283.83,THE OVER-WYRE MED.CTR.,-2.976492,53.928203
380.1,FAMILY SURGERY,-2.346055,53.396194
170.08000000000004,CRANBROOK MEDICAL PRACTICE,-3.416198,50.746596
3187.88,MARKET HARBOROUGH MED.CTR,-0.924843,52.477084
464.17,PORTLAND ROAD PRACTICE,-0.208019,51.507366
100.48,THE STROUDLEY WLK HTH CTR,-0.017533,51.527214
535.82,ST JOHN'S MEDICAL PRACTICE,0.195249,51.285009
682.57,DERRY DOWNS SURGERY,0.116651,51.385174
712.14,DANES CAMP MEDICAL CENTRE,-0.904374,52.205152
798.5900000000001,CULVERHAY SURGERY,-2.348649,51.638921
1009.42,SPRINGFIELDS MEDICAL CENTRE,-2.597522,53.389256
548.85,HALLIWELL SURGERY 1,-2.431738,53.588322
192.54,FITZMAURICE (KEW),-0.283117,51.475875
3675.93,THE MEDICAL GROUP,-1.628911,54.748296
376.23,KINGS HEAD MEDICAL PRACTICE,-0.011448,51.635688
344.89,THE GLENDALE SURGERY,-2.01842,55.546525
1473.4,THORNE MOOR MEDICAL PRACTICE,-0.966348,53.613648
1252.4,ST.PETER'S MEDICAL CENTRE,-0.135237,50.831002
644.29,YALDING,0.429804,51.221188
472.6,BIRDHURST MEDICAL PRACTICE,-0.092613,51.365279
1201.0599999999995,FORESTSIDE MEDICAL PRACTICE,-1.416173,50.851823
1147.49,GLASTONBURY SURGERY,-2.721853,51.148462
1234.2799999999995,MEDINA HEALTHCARE,-1.298686,50.697239
942.9,GREENWAY COMMUNITY PRACTICE,-2.611274,51.499595
1838.5099999999993,HIGHBRIDGE MEDICAL CENTRE,-2.979117,51.227372
1208.81,CANTILUPE SURGERY,-2.712261,52.055418
710.3599999999999,DRS SHAH & TALPUR,-2.194635,52.974032
1351.7499999999995,WHALLEY MEDICAL CENTRE,-2.406348,53.819793
872.8600000000004,PIKES LANE 1,-2.446348,53.572728
777.0,SEASCALE HEALTH CENTRE,-3.479998,54.396756
557.78,RIPLEY MEDICAL CENTRE,-1.405723,53.04704
451.15,DENABY MEDICAL PRACTICE,-1.245792,53.490666
545.61,UPTON ROAD SURGERY,-0.401058,51.656689
1599.3200000000004,THE HOLLIES,0.610574,51.555461
368.74,THE LEIGH SURGERY,0.656153,51.555504
1388.9,THE DOWNLAND PRACTICE,-1.312402,51.463442
866.1500000000002,EGERTON/DUNSCAR HEALTH CENTRE,-2.426383,53.617589
3.65,DONCASTER URGENT CARE & OUT OF HOURS,-1.109062,53.530806
793.5299999999999,FARROW MEDICAL CENTRE,-1.74312,53.802511
1527.67,BRAMLEY VILLAGE HEALTH & WELLBEING CTR,-1.623032,53.80781999999999
1307.7,CUFFLEY AND GOFFS OAK MEDICAL PRACTICE,-0.113106,51.708171
0.27,NEAS SOUTH TYNESIDE CCG,-1.712365,54.969713
7.899999999999999,GP SERVICES-CRAWLEY HUB,-0.175734,51.240416
10.84,MERTON REHAB BEDS,-0.224115,51.437407
1071.14,CAMPINGLAND SURGERY,0.690978,52.645997
1444.2800000000002,LEIGHTON ROAD SURGERY,-0.66795,51.915779
995.44,WILLOW TREE FAMILY DOCTORS,-0.265224,51.589337
469.94,MAIDSTONE RD RAINHAM SURGERY,0.600379,51.36233
428.46,BANK HOUSE SURGERY,0.069949,51.359218
585.0,YORK MEDICAL PRACTICE,-0.325697,51.449369
640.72,CARRINGTON HOUSE SURGERY,-0.749217,51.632299
687.0400000000002,HOLLYOAKS MEDICAL CENTRE,-1.869052,52.377979
397.68000000000006,GARSTON FAMILY HEALTH CENTRE,-2.89683,53.353909
759.4899999999999,COMMONFIELD RD SURGERY,-3.086369,53.370187
1289.89,SELSDON PARK MEDICAL PRACTICE,-0.06457300000000002,51.342409
929.69,LANCE LANE MEDICAL CENTRE,-2.911916,53.396196
159.55999999999997,DR GWD BHIMA,-2.154239,53.611617
375.4099999999999,THE BARHAM & CLAYDON SURGERY,1.109866,52.110175
24.52,NIGHTINGALE HOUSE,-0.159747,51.449354
561.27,I J HEALTHCARE,-1.531354,54.88104
1188.3399999999995,WELLINGTON HOUSE,-1.634561,53.714775
1029.61,FELTWELL SURGERY,0.527056,52.48268
536.6700000000001,ALBANY PRACTICE,-0.310054,51.48676
333.22,DR VM PATEL,0.228776,51.561113
327.11999999999995,CHILDS (THAMESIDE),-0.326599,51.427449
910.98,MOREDON MEDICAL CENTRE,-1.8070689999999998,51.582197
950.46,BUDSHEAD MEDICAL PRACTICE,-4.150289,50.417443
1038.0599999999997,HANDSWORTH WOOD MED.CTR.,-1.928196,52.51303299999999
2123.25,READESMOOR MEDICAL GROUP PRACTICE,-2.216792,53.163762
490.65,ABINGDON FAMILY HEALTH CARE CENTRE,-2.943503,53.440571
822.67,BARLBOROUGH MEDICAL PRACTICE,-1.284471,53.289528
528.7400000000001,THE WRAGBY SURGERY,-0.301337,53.287948
2355.370000000001,SOUTH GRANGE MEDICAL GROUP PRACTICE,-1.166506,54.56995500000001
1031.4199999999996,GLEADLESS MEDICAL CENTRE,-1.451325,53.356551
1020.4199999999997,WARRIOR SQUARE SURGERY,0.562007,50.852963
847.97,THE CORINTHIAN SURGERY,-2.0815,51.906706
841.1300000000001,CASTLEFIELDS,-2.129518,52.801013
596.4000000000002,REDGATE MEDICAL CENTRE,-2.987659,51.126385
692.5399999999998,RIVER BROOK MEDICAL CENTRE,-1.913809,52.43303
790.23,MURDISHAW,-2.662128,53.323997
1325.16,POPLAR HOUSE SURGERY,-3.03076,53.754721
913.7700000000002,SWANSWELL MEDICAL CENTRE,-1.816529,52.432515
385.9699999999999,DR MALIK - KENT ELMS HC,0.664114,51.563831
59.54,LEICESTER CITY ASSIST PRACTICE,-1.136115,52.637338
1324.7300000000002,THE HAWTHORNS SURGERY,-1.825965,52.538746
959.99,HORIZON HEALTH CENTRE,-2.965121,51.331294
862.13,OXFORD STREET SURGERY,-3.5505760000000004,54.64373
2064.72,LINGWELL CROFT SURGERY,-1.535053,53.749986
2.4,THE ROYAL MEWS SURGERY,-0.145223,51.498764
327.63000000000005,NORHEADS LANE SURGERY,0.026739,51.314542
500.12,TYNEMOUTH MEDICAL PRACTICE,-0.068331,51.586253
1894.11,TRINITY MEDICAL CENTRE,-0.172008,50.831228
447.06,ST ALBANS MEDICAL CENTRE,-0.302479,51.42195
2106.92,BARTON SURGERY,-3.473818,50.579848
3445.17,THE WESTGATE PRACTICE,-1.821176,52.683537
146.21,BURBURY MEDICAL CENTRE,-1.9103740000000002,52.502215
890.6200000000001,PLECK HEALTH CENTRE,-1.9980380000000002,52.574248
721.5499999999998,METRO INTERCHANGE SURGERY,-1.602943,54.961848
713.83,QUAKERS LANE SURGERY,-1.741713,54.406363
1010.65,PARSON DROVE SURGERY,0.050459,52.660947
1109.94,DAVENPORT HOUSE SURGERY,-0.354549,51.816177
208.97,WARRIOR SQUARE SURGERY,0.716503,51.539534
373.22,ALEXANDRA SURGERY,-0.205887,51.422912
2242.87,CANTERBURY MEDICAL PRACTICE,1.128982,51.245539
950.93,BALHAM PARK SURGERY,-0.155715,51.440487
729.32,OBSERVATORY MEDICAL PRACTICE,-1.265958,51.760293
1157.4999999999998,WERRINGTON VILLAGE SURGERY,-2.098023,53.021659
434.88,THE MARSHSIDE SURGERY,-2.963125,53.67143299999999
532.21,MERSEYBANK SURGERY,-2.263012,53.42276
1.13,COMMUNITY NURSING,-2.372621,51.358169
366.19,CHEVIOT MEDICAL GROUP,-2.01842,55.546525
445.92,THE UNIV OF NOTTINGHAM HEALTH SERV,-1.195942,52.942177
472.28,LISTER HOUSE SURGERY,-0.4515,51.89192
633.0500000000002,HOUNSLOW MEDICAL CENTRE,-0.37684,51.469395
206.17999999999995,SANCTA MARIA MEDICAL CENTRE,0.284011,51.507882
215.27,NEW INN SURGERY,-0.545657,51.257698
954.35,THE HEALTH CENTRE,-0.19711,51.363031
983.8499999999997,49 MARINE AVENUE SURGERY,-1.451082,55.046268
749.3900000000001,WELLSIDE SURGERY,-0.28478,52.440324
724.5899999999998,CLARE GUILDHALL SURGERY,0.580469,52.078259
772.3900000000001,LATTIMORE & VILLAGE SURGERY,-0.298547,51.726244
1366.2899999999995,CENTRAL UXBRIDGE SURGERY,-0.475739,51.546229
1373.5800000000004,HIGHLANDS SURGERY,0.637339,51.548005
279.24000000000007,ADDINGTON MEDICAL PRACTICE,-0.018557,51.344382
717.16,FISHERGATE HILL SURGERY,-2.714363,53.75445500000001
1450.1299999999994,PARK VIEW GROUP PRACTICE,-2.160577,53.445476
2005.24,WHITLEY BAY HEALTH CENTRE,-1.43996,55.04141
362.12,ELSDALE STREET SURGERY,-0.049094,51.543033
1032.1399999999996,STOPSLEY VILLAGE PRACTICE,-0.394147,51.901132
444.89,VALE DRIVE MEDICAL PRACTICE,-0.194727,51.648828
2855.21,AUDLEY MILLS SURGERY,0.607129,51.584978
322.88999999999993,STRATFORD HEALTH CENTRE,0.004714,51.544651
709.12,UPPER NORWOOD GROUP PRACTICE,-0.08482,51.413308
706.3299999999998,THE TOLLERFORD PRACTICE,-2.571586,50.778924
421.37,JUBILEE FIELD SURGERY,-2.191875,51.484091
1159.1399999999996,THORNBURY HEALTH CENTRE - BURNEY,-2.517723,51.612861
1333.44,SHAWBIRCH MEDICAL CENTRE,-2.531858,52.718121
2078.9999999999995,MOSS GROVE SURGERY,-2.1699,52.498674
873.7200000000001,HEATON MERSEY MED.PRACT.,-2.205118,53.412519
563.7600000000001,WOOTTON VALE HEALTHY LIVING CENTRE,-0.527951,52.093688
746.2899999999998,ST LUKE'S HEALTH CENTRE,0.7293039999999998,51.551
923.88,GLENPARK MEDICAL CENTRE,-1.640096,54.953229
1359.8899999999996,ROBIN LANE HEALTH AND WELLBEING CENTRE,-1.661311,53.79500899999999
937.7899999999998,HUGGLESCOTE SURGERY,-1.365684,52.71103
985.5400000000002,RED HOUSE SURGERY,0.129161,52.214906
1.82,BRIMPTON HOUSE,0.699534,51.835776
1155.2500000000002,MANOR AND PARK GROUP PRACTICE,-1.42716,53.373705
619.18,DR PS BATH'S PRACTICE,-0.394147,51.901132
683.36,THE NORTH LONDON HEALTH CENTRE,-0.11243199999999999,51.617571
275.95,BENTLEY VILLAGE SURGERY,-0.87992,51.189933
843.0600000000002,CLEOBURY MORTIMER SURGERY,-2.485608,52.377502
1504.5299999999993,ALCHESTER MEDICAL GROUP,-1.138371,51.891398
1431.8299999999995,DEAN CROSS SURGERY,-4.095355,50.358939
1263.7600000000002,NEW VALLEY PRACTICE,-3.654492,50.792383
379.81,NETHERTON SURGERY,-2.97236,53.488626
0.89,WOKING ALEXANDRA WARD,-0.556304,51.315132
465.08,WIDDRINGTON SURGERY,-1.62051,55.240248
594.0799999999998,DE MONTFORT SURGERY,-1.141192,52.6286
886.2899999999998,MENDLESHAM MEDICAL GROUP,1.0816,52.251866
616.7399999999999,THE EVERGLADE MEDICAL PRACTICE,-0.24421,51.601578
644.4999999999999,WEST HAMPSTEAD MEDICAL CENTRE,-0.196578,51.55004
963.75,STAUNTON GROUP PRACTICE,-0.112926,51.599388
1312.4799999999998,SOUTHBROOM SURGERY,-1.989037,51.352288
474.7200000000001,BLAKENEY SURGERY,-2.476364,51.759117
900.5499999999998,RIVERSIDE MED.PRACTICE,-2.755278,52.709209
1014.83,TOWNFIELD HEALTH CENTRE,-3.064248,53.378798
747.76,HOPWOOD MEDICAL CENTRE,-2.212052,53.587143
1836.59,THE KILTEARN MEDICAL CTR.,-2.518506,53.068155
1682.9799999999993,SADDLEWORTH MEDICAL PRACTICE,-2.004957,53.548331
147.02999999999997,SUMMERFIELD GROUP PRACTICE,-1.937353,52.487686
625.22,THURROCK HEALTH CENTRE,0.323317,51.477404
19.52,SKEGNESS & COAST GP EXTENDED ACCESS HUB,0.342219,53.188059
6.1000000000000005,LINCOLN OOH,-0.519635,53.233575
324.64,CAMP HILL GP LED HEALTH CENTRE,-1.507061,52.533074
474.43000000000006,THE PATEL PRACTICE,-1.1885709999999998,54.661404
818.3199999999998,PADDOCK AND LONGWOOD FAMILY PRACTICE,-1.80546,53.642119
3988.3300000000013,BEACHES MEDICAL CENTRE,1.727734,52.577124
798.73,LINDEN ROAD SURGERY,-0.479248,52.14361
51.5,PROCARE HEALTH SERVICES,-0.708282,51.091746
6.41,GLOUCESTER (CARE UK) OOH,-2.30608,51.879263
659.9100000000002,HAYDON BRIDGE & ALLENDALE MEDICAL PRACT,-2.250059,54.975681
362.07,BRAMCOTE SURGERY,-1.244985,52.935604
7.08,MEDICUS HEALTH PARTNERS-WILLOW HOUSE,-0.07659,51.654209
351.06,WEMBURY SURGERY,-4.072566,50.32186
974.63,SHERWOOD HOUSE MEDICAL PRACTICE,-1.959426,52.473851
1786.2800000000007,ST ANDREWS SURGERY,-0.361958,53.735566
510.44,PLEASLEY SURGERY,-1.250873,53.175809
709.42,CHIGWELL MEDICAL CENTRE,0.083876,51.60551
267.91,OLD PARSONAGE SURGERY,0.460418,51.112785
700.1700000000002,THE WELLBRIDGE PRACTICE,-2.225354,50.679039
531.59,COOKHAM MEDICAL CENTRE,-0.725805,51.558356
1094.6799999999996,ORCHARD MEDICAL CENTRE,-2.510659,51.462087
514.5,LYNGFORD PARK,-3.090916,51.036442
1247.5700000000004,STAFFORD HEALTH AND WELLBEING,-2.123291,52.817722
959.1400000000001,EVERGREEN PRIMARY CARE CENTRE,-0.059836,51.623784
5.83,BARDOC GP OOH,-2.427769,53.590447
31.27,SHAKESPEARE WIC,-1.525196,53.802098
161.86,WERNETH MEDICAL PRACTICE,-2.126938,53.53497
340.18000000000006,DR VICTORIA MUIR'S PRACTICE,-0.151358,51.490651
496.07000000000005,THE FAMILY PRACTICE,-3.229282,54.116755
518.02,COWGILL SURGERY,-1.814543,53.781952
470.2900000000001,THE GLENSIDE COUNTRY PRACTICE,-0.537958,52.75451
435.30000000000007,NORTH AVENUE SURGERY,0.735187,51.546618
2.67,MEDICUS HEALTH PARTNERS- BUSH HILL PARK,-0.066545,51.63953
922.5399999999998,HAWTHORNS SURGERY,-0.175174,51.241163
720.5999999999998,TRINITY MEDICAL CENTRE,-0.158437,51.437554
2362.9,HOMEWELL.CURLEW PRACTICE,-0.978019,50.851067
1071.85,SUNLIGHT GROUP PRACTICE,-3.00005,53.363076
603.7200000000001,BLYTH ROAD MEDICAL CENTRE,-1.20365,53.422231
888.2,HARBOUR MEDICAL PRACTICE,0.324489,50.797353
0.53,BROOMFIELD DOCTOR IN ED,0.465993,51.774654
2012.78,THE HAYMARKET HEALTH CTR,-2.211781,53.060343
566.1100000000001,HEATHERLANDS MED CTR,-3.089543,53.381475
808.67,CATHEDRAL MEDICAL CENTRE,0.275488,52.413145
14.0,EXTENDED ACCESS PRIMARY CARE HUB,-0.079465,51.533775
345.49,THE GAMSTON MEDICAL CTR.,-1.100495,52.924252
2.23,ERDINGTON GP HEALTH & WELLBEING WIC,-1.840871,52.522486
38.29,CENTRAL DURHAM GP EXT'D ACCESS SERVICE,-1.56716,54.7787
2721.8399999999992,AUCKLAND MEDICAL GROUP,-1.678996,54.648085
4614.5700000000015,HAXBY GROUP PRACTICE,-1.081866,54.019329
82.75,VERITAS HEALTH CENTRE,-1.481026,53.354257
1445.1,THE NEVELLS ROAD SURGERY,-0.22942,51.980882
167.01,COLLINGWOOD ROAD SURGERY,0.638271,51.802938
1372.1100000000004,STOCK HILL SURGERY,0.031768,51.312089
515.5999999999999,CLAREMONT MEDICAL CENTRE,-0.306132,51.390808
982.71,WATERFRONT AND SOLENT SURGERY,-1.403379,50.870013
715.6999999999998,CRAVEN ARMS SURGERY,-2.835416,52.442323
570.9500000000002,ARRAN MEDICAL CENTRE,-1.748679,52.50386700000001
1195.76,CHAPEL LANE SURGERY,-3.061428,53.557075
499.89,TOWN HALL SURGERY,-2.092973,53.478374
1.12,LCW WLCCG OOH,-0.217218,51.522362
505.87000000000006,DENMARK ROAD SURGERY,-0.06725100000000002,51.393136
2.48,HOME VISITING SERVICE,-2.165957,53.412542
429.57,HAMSTEAD ROAD SURGERY,-1.919012,52.504474
152.11,SURGERY AUBERY ROAD,-1.846411,52.46633
267.33000000000004,MOXLEY MEDICAL CENTRE,-2.051113,52.560033
312.94,MEDICARE UNIT SURGERY,-2.69241,53.725239
892.4399999999998,LOSTOCK MEDICAL CENTRE,-2.328128,53.45458000000001
567.37,LANGLEY MEDICAL PRACTICE,-0.299929,51.390825
2012.22,ASHBY TURN PRIMARY CARE PARTNERS,-0.6542,53.566147
327.61,BRADFORD MOOR PRACTICE,-1.7218490000000002,53.797834
1136.95,LONG STRATTON MEDICAL PARTNERSHIP,1.229088,52.491027
325.2800000000001,HIGHFIELD SURGERY,-0.459233,51.766434
1058.97,MARTINS OAK SURGERY,0.483675,50.91716
413.07000000000005,THE GLEBE FAMILY PRACTICE,0.544473,51.383164
1364.8,KNOLL MEDICAL PRACTICE,0.101068,51.375411
264.0,CORDWALLIS ROAD SURGERY,-0.7240259999999998,51.528097
558.0900000000001,ST. MARY'S SURGERY,-2.479869,51.326082
65.46,THE SUMMITT PRACTICE,0.04536,51.539588
2.89,SELDOC HEALTHCARE,-0.283378,51.412517
268.63,PASLEY ROAD HEALTH CENTRE (TK KHONG),-1.146741,52.591287
212.16000000000003,HAROLD STREET MEDICAL CENTRE,-1.492871,53.393121
470.19,BRENTFIELD MEDICAL CENTRE,-0.260251,51.550588
643.4899999999999,DR NAVIN KUMAR,0.70187,51.544989
247.64,RUSTON STREET CLINIC,-0.027306,51.536264
654.0600000000002,HAMPTON HILL MEDICAL CENTRE,-0.354892,51.427508
1.97,ST PETER'S URGENT TREATMENT CENTRE,-0.52706,51.377832
579.05,THE OAKLAND MEDICAL CENTRE,-0.45129300000000006,51.546055
283.19000000000005,ABERFELDY PRACTICE,-0.004927,51.514483
723.3599999999999,BROCKBANK (PARK ROAD),-0.334596,51.423912
331.85,HOLLINSWOOD SURGERY,-2.437453,52.673936
296.13999999999993,VICTORIA ROAD MEDICAL CTR,-1.887197,52.501868
1216.64,ST JOHN'S MEDICAL CENTRE,-1.932532,52.626307
2250.0599999999995,THE CORNERSTONE PRACTICE,-2.4524,53.739201
195.81,PARK GRANGE MEDICAL CENTRE,-1.775929,53.789415
380.45,HETHERINGTON AT THE PAVILION,-0.116397,51.461633
320.68,CASTLETOWN MEDICAL CENTRE,-1.450848,54.913341
325.33,ALDBROUGH ST JOHN SURGERY,-1.684645,54.496518
761.88,BRANSTON & HEIGHINGTON FAMILY PRACTICE,-0.467988,53.195831
280.25,CLIFTON HAMPDEN SURGERY,-1.211451,51.658625
1846.63,SWANSCOMBE HEALTH CENTRE,0.28731,51.424657
553.19,FRITHWOOD SURGERY,-2.162379,51.729707
951.94,THE ISLAND SURGERY,0.591014,51.520226
1368.3700000000003,GATEWAY PRIMARY CARE,-1.352431,53.429997
204.67,ESSINGTON MEDICAL CENTRE,-2.056915,52.63194
10.0,SLEAFORD EXTENDED ACCESS K2,-0.406507,52.997784
972.61,STONELEIGH SURGERY,-2.770704,54.227277
424.62000000000006,BROWNEY HOUSE SURGERY,-1.670679,54.800313
828.8099999999998,HONLEY SURGERY,-1.791936,53.602386
973.5399999999998,GOSBERTON MEDICAL CENTRE,-0.159263,52.869915
489.07,MAPESBURY MEDICAL GROUP,-0.209473,51.551496
449.11,CHOLMLEY GARDENS SURGERY,-0.195423,51.552261
2256.11,HIGH GLADES MEDICAL CENTRE,0.551301,50.878354
943.34,CHERRYMEAD SURGERY,-0.700228,51.608271
1889.0700000000006,HORFIELD HC,-2.576275,51.489998
712.78,WHITE HOUSE SURGERY,-1.705957,51.983554
895.13,CHURCH STRETTON MEDICAL CENTRE,-2.806169,52.537286
409.93000000000006,WARWICK ROAD SURGERY,-2.928541,54.893858
1476.0200000000002,WOODVILLE SURGERY,-1.5365030000000002,52.770685
553.3699999999999,GROOMBRIDGE AND HARTFIELD MED GRP,0.184416,51.113952
1130.8999999999996,BRANKSOMEWOOD H/CARE CTR,-0.8448069999999998,51.281888
384.09,WOODSIDE MEDICAL PRACTICE,-2.466175,52.637949
1469.9399999999994,BODEY MEDICAL CENTRE,-2.214798,53.440636
6.99,EPUT COMMUNITY CARDIOLOGY,0.12393,51.704295
13.97,SOUTH YORK HEART FAILURE NURSES,-1.082907,53.951837
8.120000000000001,EXTENDED HOURS SERVICE-ONE LIFE,-1.214164,54.682342
584.3900000000001,CRAMLINGTON MEDICAL GROUP,-1.591516,55.084481
2556.580000000001,KINGSTON MEDICAL GROUP,-0.349365,53.756137
221.75,WESTFIELD MEDICAL CENTRE,-1.531703,53.817673
676.2099999999998,STUBLEY MEDICAL CENTRE,-1.488541,53.304986
404.94000000000005,CHICHELE ROAD SURGERY,-0.216241,51.55483
316.80000000000007,SHIRLAND ROAD MEDICAL CENTRE,-0.203904,51.5292
421.92,STEWKLEY ROAD SURGERY,-0.71666,51.898041
1639.4399999999996,NEW COURT SURGERY,-2.958059,51.345794
2746.46,COLERIDGE MEDICAL CENTRE,-3.2835660000000004,50.751704
769.96,YARDLEY WOOD HEALTH CENTRE,-1.859168,52.418648
771.93,SHEET STREET SURGERY,-0.605507,51.479648
1135.3700000000003,HEDENA HEALTH,-1.204547,51.76203
275.38,SELLY OAK HEALTH CENTRE,-1.939144,52.438251
2210.33,PEELHOUSE MEDICAL PLAZA,-2.72256,53.372135
1010.5,LANE ENDS SURGERY,-2.727014,53.770173
849.5799999999998,WHITTAKER LANE MED CENTRE,-2.268645,53.528488
1.18,NMP CASTLE POINT AND ROCHFORD CCG,0.702782,51.583955
6.0,SALFORD ACUTE HOME VISITING SERVICE,-2.33763,53.484827
8.949999999999998,EXTENDED ACCESS PCD TICKHILL SURGERY,-1.110773,53.43304499999999
2265.2100000000005,BIRTLEY MEDICAL GROUP,-1.576441,54.891881
758.0299999999999,APOLLO COURT MEDICAL CENTRE,-1.524816,53.542364
749.39,SUDBURY & ALPERTON MEDICAL CENTRE,-0.298046,51.536916
1639.51,THE CHESTERFIELD DRIVE PRACTICE,1.132012,52.07623
501.78,MONTPELIER SURGERY,-0.149079,50.827148
643.1999999999998,SELLINDGE SURGERY,1.002785,51.103536
1895.26,HARBOUR VIEW HEALTHCARE,-0.27437,50.833817
1573.39,WILSON PRACTICE,-0.966958,51.153736
1428.84,KINGSTEIGNTON MEDICAL PRACTICE,-3.597395,50.54898
2469.56,STIRCHLEY MEDICAL PRACTICE,-2.433777,52.655188
698.2199999999998,RED LION SURGERY,-2.030614,52.693241
726.64,HAZELDENE MEDICAL CENTRE,-0.275394,51.547592
508.05,CLOISTER ROAD SURGERY,-0.265589,51.521352
1270.59,MANOR PARK MEDICAL CENTRE,0.24261,50.819107
1040.5800000000004,LILLIPUT SURGERY,-1.954229,50.711523
1742.3500000000006,PENRYN SURGERY,-5.10336,50.167504
1086.4699999999998,CROWN MEDICAL CENTRE,-3.080969,51.029111
906.16,GREASBY GROUP PRACTICE,-3.121417,53.377628
649.69,ROSEWORTH SURGERY,-1.61867,55.001366
3265.69,GREENGATES MEDICAL GROUP,-0.418494,53.844343
1393.0300000000002,LINCOLN HOUSE SURGERY,-0.469093,51.737355
408.79,DR DEVARAJA VC PRACTICE,0.44359,51.520015
421.63,FOUNTAYNE ROAD HEALTH CENTRE,-0.065145,51.56442
369.97,ARCHWAY SURGERY,-0.532167,51.72275
1072.9199999999996,RYE MEDICAL CENTRE,0.730363,50.961944
262.87,VASSALL MEDICAL CENTRE,-0.10851199999999998,51.477558
1068.55,FARMHOUSE SURGERY,-1.7595,50.736437
2711.39,WESTONGROVE PARTNERSHIP,-0.74378,51.76588
927.95,MILBORNE PORT SURGERY,-2.471962,50.967502
519.3100000000001,PARADISE MEDICAL CENTRE,-1.494835,52.426778
595.22,WOODBANK SURGERY,-2.308802,53.60507
456.19,HIGHFIELD HEALTH,-1.395746,50.932777
1162.9299999999996,IBSTOCK HOUSE SURGERY,-1.401818,52.684869
1753.1799999999994,BARNBY GATE SURGERY,-0.8049699999999999,53.074931
1280.0799999999995,PRIORY FIELDS SURGERY,-0.179856,52.332272
631.74,DRS DE ROSA & WILLIAMS,-2.167857,52.569265
8.79,COMMUNITY CARDIOLOGY SERVICE,0.15356,51.455555
16.63,INTERMEDIATE CARE-GP SERVICE,-2.130253,53.548188
36.23,BASSETLAW HEALTH PARTNERSHIP,-0.950634,53.325451
565.9799999999998,DR RAOLU'S PRACTICE,-1.204348,53.423549
1251.0700000000004,EAST BARNET HEALTH CENTRE,-0.166424,51.646339
1460.86,OXTED HEALTH CENTRE,9.9e-05,51.257686
1221.26,THE WRYTHE GREEN SURGERY,-0.171312,51.371749
1391.8200000000004,TOPSHAM SURGERY,-3.462097,50.683825
734.4000000000002,BAMPTON SURGERY,-1.55034,51.729032
2539.51,PETROC GROUP PRACTICE,-4.943163,50.430739
1894.9,EAST QUAY MEDICAL CENTRE,-3.000471,51.135669
382.42,EASTMEAD AVENUE SURGERY,-0.36274,51.531443
205.5,KINCORA DOCTORS SURGERY,-0.412216,51.511666
441.97,HETHERINGTON GROUP PRACTICE,-0.12823,51.460932
964.12,TUTBURY HEALTH CENTRE,-1.686361,52.858454
880.9,MEREPARK MEDICAL CENTRE,-2.300747,53.093285
266.98,DR SP TALPAHEWA,-0.260303,51.616115
597.6400000000001,BRANDON MEDICAL PRACTICE,0.6233,52.448489
1205.3300000000004,THE SURGERY CLIFTON ROAD,-1.737497,53.013356
933.77,ORCHARD SURGERY MELBOURN,0.020092,52.080651
1534.87,HIGH STREET SURGERY,1.756043,52.482123
1556.41,KING GEORGE SURGERY,-0.206096,51.907416
555.5,ST.PETERS SURGERY,-1.372792,50.897829
861.26,LEVENSHULME MEDICAL PRACTICE,-2.188524,53.446352
1737.7099999999994,DMC ST MARYS ISLAND SURGERY,0.538105,51.406776
2958.07,THORNABY & BARWICK MEDICAL GROUP,-1.292128,54.538149
953.9,ROWLANDS GILL MEDICAL CENTRE,-1.742896,54.91936
4411.42,THE PARK MEDICAL PRACTICE,-1.432644,52.928801
1133.6999999999996,MERRIDALE MEDICAL CENTRE (RP TEW),-1.160752,52.620146
335.81,OVER SURGERY,0.012018,52.314809
1453.4100000000005,DR TUN & PARTNERS,-2.583571,53.532102
4.36,HILLINGDON UCC,-0.461175,51.526077
416.92,SOUTHOWRAM SURGERY,-1.831696,53.712293
1331.09,THE STANMORE MEDICAL CENTRE,-0.304021,51.60154
303.7200000000001,TOTTENHAM HEALTH CENTRE,-0.068474,51.604755
272.29999999999995,PARKSIDE MEDICAL CENTRE,-0.092642,51.475826
680.64,GRAND DRIVE SURGERY,-0.228811,51.402155
315.7999999999999,SOMERSET BRIDGE MEDICAL CENTRE,-2.995883,51.115105
1533.7099999999996,CORNISHWAY GROUP PRACTICE,-2.265017,53.379925
1507.5099999999998,BRADSHAW MEDICAL CENTRE,-2.688594,53.537889
187.68000000000004,SAVILE TOWN MEDICAL CTR.,-1.625804,53.68222900000001
708.3399999999998,THE ORCHARD SURGERY,-0.324352,50.828062
274.24,THE DANBY PRACTICE,-0.907874,54.468317
611.6299999999999,THE LAWSON PRACTICE,-0.079465,51.533775
321.65,FRANCIS ROAD MEDICAL CENTRE,-0.003831,51.561975
627.84,UNIVERSITY MEDICAL CENTRE,1.062127,51.296198
603.65,ST STEPHENS HOUSE SURGERY,-0.305726,51.31772
512.97,PARK VIEW HEALTH PARTNERSHIP,-0.137252,50.961825
1011.38,BYFIELD MEDICAL CENTRE,-1.242893,52.174071
512.96,SOHO ROAD PRIMARY CARE CENTRE,-1.934945,52.503094
829.1699999999998,LACHE HEALTH CENTRE,-2.914326,53.173615
305.4599999999999,WALNUT ST MED CTR (LEICESTER MED GROUP),-1.138855,52.624601
158.78,ETTINGSHALL MEDICAL CENTRE,-2.092879,52.570364
5.140000000000001,DONCASTER SOUTH ADULT CMHT,-1.146558,53.497488
1095.7799999999997,DARTFORD EAST HEALTH CENTRE,0.236914,51.440747
396.36,BOLINGBROKE MEDICAL CENTRE (THMP),-0.168282,51.45617
1288.8,THE BORDER PRACTICE,-0.740565,51.240995
1238.7099999999996,WHITELADIES MEDICAL GROUP,-2.612382,51.465097
1282.1299999999997,RIVERSIDE SURGERY,-3.006197,53.372004
1559.15,HT PRACTICE,-2.110496,53.478305
23.5,MEDICUS HEALTH PARTNERS-CURZON AVENUE,-0.036518,51.645435
34.05,CARDIAC SERVICE STOKE AND NORTH,-2.109085,52.810605
394.56,UPWELL STREET SURGERY,-1.434724,53.406424
925.14,PLOWRIGHT MEDICAL CENTRE,0.686691,52.655577
974.99,BEECHWOOD SURGERY,0.292731,51.608567
516.66,THE NIGHTINGALE PRACTICE,-0.062434,51.558261
1190.9199999999996,BELVEDERE MEDICAL CENTRE,0.144376,51.482567
1927.32,ST.LAWRENCE SURGERY,-0.390026,50.823979
1292.45,ESPLANADE SURGERY,-1.158697,50.731943
588.7000000000002,GLASTONBURY HEALTH CENTRE,-2.712893,51.148733
2344.120000000001,MAYFIELD SURGERY,-2.13456,52.982709
660.2899999999998,BRIDGE MEDICAL,-1.506726,55.038077
1.0,WILTSHIRE CCG SAS,-1.991573,51.347339
7.25,BCHC MEDICINES MANAGEMENT,-1.9537779999999998,52.398207
790.99,TASBURGH LODGE SURGERY,-0.21375,53.151242
1313.7400000000002,SOTHALL & BEIGHTON HEALTH CENTRES,-1.340221,53.337895
807.2899999999998,THE MEADS SURGERY,0.091624,50.969686
224.88,RAGSTONE ROAD SURGERY,-0.601832,51.503747
1086.82,WADEBRIDGE & CAMEL ESTUARY PRACTICE,-4.835729,50.514816
1010.14,EVE HILL MEDICAL PRACTICE,-2.096805,52.512922
1592.17,WEST DERBY MEDICAL CENTRE,-2.895944,53.431273
170.56,DR. B. K. PRASHARA,-2.114816,52.456326
1061.73,ORMSKIRK HOUSE SURGERY,-2.74261,53.456686
2042.5399999999993,PENNINE MEDICAL CENTRE,-2.040966,53.515337
2.67,HEART FAILURE SERVICE,-2.629091,53.55774
0.43,VIRGIN CARE SPECIALIST NURSING SHCCG,-0.7846419999999998,51.220491
2479.36,ALNWICK MEDICAL GROUP,-1.6967470000000002,55.410086
3536.2399999999993,BOROUGHBURY MEDICAL CENTRE,-0.245486,52.577858
1245.2700000000002,THE ROOKERY MEDICAL CENTRE,0.405573,52.245158
2.18,SJUH GPS IN A+E,-1.520359,53.806869
1068.31,FIELDHEAD SURGERY,-1.854229,53.641358
1054.16,CROFTON AND SHARLSTON MED PRAC,-1.427042,53.656573
475.46000000000015,ST.PAUL'S WAY MEDICAL CTR,-0.024483,51.517862
1921.7900000000006,WYKE REGIS & LANEHOUSE MEDICAL PRACTICE,-2.475127,50.594634
1443.0199999999998,KINGSWOOD HEALTH CENTRE,-2.499974,51.462895
1457.4500000000005,THREE VILLAGES MEDICAL PRACTICE,-2.146398,52.465406
849.99,MELROSE SURGERY,-0.9598620000000002,51.451692
1330.6900000000005,ACLE MEDICAL PARTNERSHIP,1.548667,52.640969
1114.0199999999998,MARTONSIDE MEDICAL CENTRE,-1.220329,54.553175
724.65,ROCKLIFFE COURT SURGERY,-1.544074,54.483444
679.93,CHAPELFORD PRIMARY CARE CENTRE,-2.633066,53.39615799999999
596.7400000000001,THE SELE MEDICAL PRACTICE,-2.095702,54.970372
1372.57,MARKET WEIGHTON GROUP PRACTICE,-0.674786,53.864903
3768.0399999999986,HEALTH CARE FIRST PARTNERSHIP,-1.393615,53.736872
1836.7200000000007,BROOM LANE MEDICAL CENTRE,-1.332311,53.417383
198.89,THE KILLINGHOLME SURGERY,-0.260335,53.62990799999999
842.2500000000001,COMBERTON SURGERY,0.018614,52.189811
900.11,SHEPHALL HEALTH CENTRE,-0.167642,51.890799
302.68000000000006,WESTBOURNE GROVE MEDICAL CENTRE,-0.200361,51.514211
307.35,MILTON REGIS SURGERY,0.7321839999999998,51.349193
343.55000000000007,BURBAGE SURGERY,-1.669545,51.348496
585.0900000000001,THE CREST FAMILY PRACTICE,-2.596274,51.428746
217.1,WORTHEN MEDICAL PRACTICE,-3.000165,52.635224
455.85,KIRKDALE MEDICAL CENTRE,-2.973842,53.433523
319.1500000000001,FACCINI HOUSE SURGERY,-0.189379,51.389682
415.5399999999999,JRB HEALTHCARE BEECHDALE SURGERY,-1.198142,52.961504
1893.68,WOODLANDS FAMILY MEDICAL CENTRE,-1.321204,54.561215
1153.1,THE UPPINGHAM SURGERY,-0.723557,52.594972
776.8199999999998,THE THORPE BAY SURGERY,0.757986,51.534599
1002.67,HUDSON (SEYMOUR HOUSE),-0.292773,51.462401
1674.97,WHADDON MEDICAL CENTRE,-0.7662759999999998,52.000308
351.24000000000007,BONEY HAY SURGERY,-1.926768,52.690328
116.91,GREENFIELD MEDICAL CENTRE,-1.855764,52.491684
746.0499999999998,THE SURGERY,-2.605295,53.024859
937.6,MARPLE MEDICAL PRACTICE,-2.064954,53.39495
346.00999999999993,CLOVER CITY PRACTICE,-1.46659,53.38187
881.4599999999998,ASPATRIA MEDICAL GROUP,-3.337992,54.762123
740.7799999999999,WELLSPRING MEDICAL PRACT.,-1.564066,55.037289
364.7300000000001,FAMILY DOCTORS,-1.440964,53.798248
417.5400000000001,NORTH FULHAM SURGERY,-0.199224,51.486415
52.89,LAI CHUNG FONG QUEENS PARK HEALTH CENTRE,-0.205826,51.530911
1367.7799999999995,WHEATFIELD SURGERY,-0.495144,51.904445
1465.87,LONG CATLIS ROAD SURGERY,0.595579,51.348325
665.0300000000002,MINET GREEN HEALTH PRACTICE,-0.105204,51.475715
789.4999999999997,NEW ADDINGTON GROUP PRACTICE,-0.018557,51.344382
2170.39,THE ARMADA FAMILY PRACTICE,-2.571861,51.413438
1201.5399999999995,LEEK HEALTH CENTRE,-2.019347,53.105691
892.74,CHASE MEADOW HEALTH CENTRE,-1.608604,52.268838
368.18,CASTLE STREET MEDICAL CENTRE,-1.293753,53.229627
3555.350000000001,HOLT MEDICAL PRACTICE,1.116042,52.914476
551.3100000000001,UXENDON CRESCENT SURGERY,-0.292809,51.572063
245.1,STERNDALE SURGERY,-0.221441,51.498326
720.4,WESTERHAM PRACTICE,0.070437,51.266465
977.0,STEYNING HEALTH CENTRE,-0.329972,50.890666
585.52,YOXALL,-1.7931740000000003,52.767984
5.11,LCW HOUNSLOW CCG OOH,-0.217218,51.522362
322.89,SCHOOLACRE ROAD SURGERY,-1.785797,52.497659
1717.0700000000006,WITTON MEDICAL CENTRE,-2.507553,53.740232
225.09,WALMERSLEY ROAD MEDICAL PRACTICE,-2.289525,53.599849
470.48999999999984,BEVAN HEALTHCARE CIC,-1.753352,53.795581
16.98,MERSEYCARE NHS TRUST,-2.826417,53.424035
1612.7299999999998,THE COUNTY PRACTICE,-1.069884,52.70073000000001
1477.9499999999996,ORCHARD SURGERY,0.944176,52.678309
1257.0800000000004,DR JK MARSDEN'S PRACTICE,-0.436528,51.894968
1017.9599999999997,WHITLEY HOUSE SURGERY,0.455723,51.726539
369.29,JOYDENS WOOD MEDICAL CENTRE,0.166397,51.42449
2627.5600000000004,TRAFALGAR MEDICAL GROUP PRACTICE,-1.092485,50.785331
1067.17,EASTFIELD HOUSE SURGERY,-1.323251,51.395555
1402.1799999999996,TUDOR LODGE SURGERY,-2.975378,51.332396
859.8199999999998,PRAZE-AN-BEEBLE SURGERY,-5.309264,50.173753
1138.9400000000005,HALL GREEN SURGERY,-2.741349,53.540745
197.7,LATIMER HEALTH CENTRE,-0.049503,51.54659
729.89,WHITCHURCH SURGERY,-1.340372,51.230256
474.61000000000007,DR NEWMAN,-1.975441,50.719722
3.8,BURNLEY LOCALITY NMPS,-2.238948,53.791326
288.31,THE WHITSWOOD PRACTICE,-2.253502,53.455769
2388.78,BEESTON VILLAGE SURGERY,-1.569152,53.772415
354.6000000000001,BLURTON MEDICAL CENTRE,-2.156565,52.972002
29.31,HASTINGS AND ROTHER OOH,0.891514,51.129106
544.17,BEWICK ROAD SURGERY,-1.601653,54.956398
1093.47,KEIGHLEY ROAD SURGERY,-1.893907,53.754239
1068.4499999999996,MULBERRY STREET MEDICAL PRACTICE,-1.66397,53.794738
1034.2099999999996,CHATSWORTH ROAD MEDICAL CENTRE,-1.467337,53.231374
3.51,HAVEN COURT,-1.428468,54.971208
1040.5000000000002,BENTHAM ROAD HEALTH CENTRE,-2.50627,53.73058399999999
1964.1499999999994,DENMARK STREET SURGERY,-1.552252,54.538825
1132.27,PALLION FAMILY PRACTICE,-1.414195,54.908604
555.7,UEA MEDICAL CENTRE,1.241391,52.622369
155.32000000000005,THE STREATFIELD MEDICAL CENTRE,-0.30083,51.595343
219.52,THE CHELSEA PRACTICE,-0.166915,51.486814
1007.8599999999997,RYDAL,0.020102,51.608432
1263.5499999999995,GROSVENOR & ST JAMES MEDICAL CENTRE,0.264349,51.137424
217.29,THE THREE ZERO SIX MEDICAL CENTRE,-0.076403,51.450741
779.0299999999999,NEW OTTERSHAW SURGERY,-0.526005,51.361938
1365.8000000000004,RIDGEWAY VIEW FAMILY PRACTICE,-1.7915709999999998,51.524175
976.72,THE HALL PRACTICE,-0.561016,51.606986
305.35,HARTLAND SURGERY,-4.482549,50.992721
1665.1200000000006,RED BANK GROUP PRACTICE,-2.323706,53.560143
749.7899999999998,GRAVESEND MEDICAL CENTRE,0.369986,51.443932
399.28,DR WICKREMESINGHE SSG,-0.123521,51.469491
9.64,HAROLD WOOD WIC,0.225699,51.593184
12.29,LEARNING DISABILITIES SERVICE,-1.904396,52.412409
1005.16,BEECH HOUSE SURGERY,-1.465892,54.010836
2215.6100000000006,MANOR PARK SURGERY,-1.628914,53.814076
1104.0199999999998,PARKSIDE SURGERY,-1.391868,53.097732
770.2099999999998,BURWELL SURGERY,0.331841,52.273327
298.1600000000001,WEST LONDON MEDICAL CENTRE,-0.454699,51.525731
1278.9599999999996,ADELAIDE MEDICAL CENTRE,-1.475274,51.208539
301.52,TUDOR PRACTICE STOCKLAND GREEN,-1.857329,52.52388199999999
570.9500000000002,WALTON SURGERY,1.335453,51.973564
639.3300000000002,PARKGATE SURGERY,-1.548606,54.523273
212.64,POLLARD ROW SURGERY,-0.064328,51.528266
18.0,RUSHCLIFFE URGENT CARE SERVICE,-1.100495,52.924252
2.55,PML NEIGHBOURHOOD HUB (BANBURY),-1.349027,52.057771
489.52,ULVERSTON COMMUNITY HEALTH CENTRE,-3.097833,54.198882
1569.7899999999993,BISHOPS WALTHAM SURGERY,-1.212149,50.95528
1108.89,LOCKWOOD GP SURGERY,-2.989833,53.850947
429.92,THE ENTERPRISE PRACTICE,-0.320613,51.601113
867.38,ODDFELLOWS HALL & ST CLEMENTS,0.327906,51.480703
2.0,COMMUNITY ENT SERVICE,-2.146398,52.465406
436.03,CHAUCER SURGERY,-1.45237,52.515151
899.3499999999998,THE ENDEAVOUR PRACTICE,-1.235397,54.575047
341.6500000000001,MAYFAIR MEDICAL CENTRE,-0.150172,51.513536
1027.7699999999998,FOWEY RIVER PRACTICE,-4.635394,50.337915
1496.7599999999998,HOLTS HEALTH CENTRE,-2.406966,51.931555
1021.12,CUMBERLAND HOUSE,-2.145844,52.901549
445.2800000000001,DR A GUPTA BENIM MEDICAL CENTRE,-2.947804,53.419395
1820.77,RIVERSIDE MEDICAL CENTRE,-2.672299,53.748112
293.23,LITTLETOWN FAMILY MED PRACT,-2.134298,53.529137
384.23,CROWN WOOD MEDICAL CENTRE,-0.736934,51.395919
19.6,CITY REACH HEALTH SERVICES,1.288137,52.633042
3.71,PELC REDBRIDGE OOH,0.066648,51.55684
41.1,SOUTH DOC VIRTUAL SERVICES,-1.96202,52.401797
636.71,GREENWOOD SURGERY,0.605168,51.653143
1666.2399999999998,SKELMANTHORPE FAMILY DOCTORS,-1.650686,53.591604
399.3,PHOENIX PRIMARY CARE (SOUTH) LTD,-0.435422,51.918016
0.85,I.C.B. (HENLEY),-0.907912,51.53874
298.84,CASSIDY ROAD MEDICAL CENTRE,-0.199015,51.479154
691.66,ROWHEDGE SURGERY,0.945058,51.85767
639.9400000000002,THE CHESSER SURGERY,-0.177303,51.374927
1142.3300000000004,BUGBROOKE MEDICAL PRACTICE,-1.005426,52.211409
539.44,TEIGN ESTUARY MEDICAL GROUP,-3.496462,50.5456
800.8099999999998,LUSON,-3.229566,50.977398
271.47,HEDNESFORD MEDICAL PRACTICE,-2.000697,52.71233
367.59,ROTTON PARK MEDICAL CENTRE,-1.947079,52.482162
956.52,NEWTOWN SURGERY,-2.735705,53.362158
1876.1,WINGATE MEDICAL CENTRE,-2.874647,53.488385
464.37,EGTON SURGERY,-0.7552379999999999,54.445555
247.03000000000003,THE PRACTICE-SAYEED,-1.106589,52.63081700000001
1599.5399999999993,TRAMWAYS AND MIDDLEWOOD MEDICAL CENTRES,-1.515268,53.418958
1481.2099999999996,TULASI MEDICAL CENTRE,0.12448900000000002,51.561005
634.7199999999998,SUTTON VALENCE GROUP PRACTICE,0.59403,51.211195
910.35,THE STAUNTON SURGERY,-0.978019,50.851067
1284.35,BLUNDELLSANDS SURGERY,-3.041273,53.484452
459.38,SLAG LANE MC,-2.575634,53.47856899999999
14.19,PRIMARY HEALTHCARE DARLINGTON,-1.561958,54.528141
755.1899999999998,GREAT WITLEY SURGERY,-2.361004,52.291152
1010.4699999999997,MADELEY PRACTICE,-2.345126,52.999856
1544.9900000000002,QUEENSWAY MEDICAL CENTRE,-2.995384,53.846569
1342.2799999999995,DR KK CHAN & PARTNERS,-2.489022,53.524185
290.19,CITY ROAD MEDICAL CENTRE,-0.091116,51.527895
476.14,BOTOLPH BRIDGE COMMUNITY HEALTH CENTRE,-0.261557,52.562595
717.2499999999997,GUTTERIDGE MEDICAL CENTRE,-2.691248,53.769881
741.2699999999999,ST MARY'S MEDICAL CENTRE,-2.108554,53.543625
7.92,BEDSER HUB,-0.556304,51.315132
116.36,WRAYSDALE HOUSE SURGERY,-3.076077,54.367247
2229.67,SAVILLE MEDICAL GROUP,-1.609598,54.976095
1079.35,COOK BF,-0.357512,53.780969
1049.43,ADELAIDE MEDICAL CENTRE,-0.161257,51.543548
286.7300000000001,HOLLINGTON SURGERY,0.872487,51.151423
496.8,HARTLAND WAY SURGERY,-0.045782,51.374372
637.56,COLVILLE HEALTH CENTRE,-0.206231,51.515837
592.03,THE KINGS FAMILY PRACTICE,0.534548,51.377821
914.51,FOUNTAIN PRACTICE,-0.252307,51.350378
1167.86,NUFFIELD HEALTH CENTRE,-1.486793,51.786441
263.1,240 WEXHAM ROAD,-0.57838,51.516902
1356.38,THISTLEMOOR MEDICAL CENTRE,-0.254566,52.595274
678.6700000000002,CANTERBURY HEALTH CENTRE,1.082981,51.274249
414.8400000000001,SOHO HEALTH CENTRE,-1.934945,52.503094
0.23,DAWN CLINIC,-1.7272,51.538528
2111.72,HOLLYNS HEALTH & WELLBEING - CLAYTON,-1.81454,53.779166
785.2199999999997,BRIDGE STREET MEDICAL PRACTICE,-1.20716,52.774841
547.1800000000001,PRIORS FIELD SURGERY,0.124169,52.388951
1597.3200000000004,MILLWAY MEDICAL PRACTICE,-0.24359099999999997,51.614985
14.11,MOULSHAM LODGE SURGERY,0.475137,51.716565
433.3999999999999,YORK ROAD SURGERY,0.065859,51.559165
857.09,ST.GEORGE'S SURGERY,-2.0815,51.906706
2.0,OLDHAM URGENT TREATMENT GTD HEALTHCARE,-2.121831,53.553248
378.21,CROPREDY SURGERY,-1.320027,52.116731
660.0899999999998,BIRCHWOOD MEDICAL PRACTICE,-2.547938,51.446246
297.5499999999999,WEST PARK SURGERY,-2.141256,52.587783
328.54,UPTON ROCKS PRIMARY CARE,-2.754371,53.373367
1004.25,WELLSBOURNE HEALTHCARE CIC,-0.107386,50.825445
322.18,P A PATEL SURGERY,0.582273,51.56978
610.6400000000001,CLINTON ROAD SURGERY,-5.224966,50.23093
115.72,BLOOMSBURY HEALTH CENTRE,-1.876618,52.493743
958.3,HOUGHTON MEDICAL GROUP ,-1.469175,54.842322
611.48,LUNDWOOD MEDICAL CENTRE PMS PRACTICE,-1.438538,53.557711
1248.38,BALLARDS WALK SURGERY,0.441841,51.573232
380.49,THE HALFWAY SURGERY,0.524157,51.380429
713.7200000000001,ELIZABETH HOUSE MEDICAL PRACTICE,-0.050005,51.308093
208.69000000000003,SARAJLIC (STAINES ROAD),-0.357923,51.439672
3324.38,THE DOWNEND HEALTH GROUP,-2.505301,51.485109
340.4000000000001,THE SINGH MEDICAL PRACTICE,-2.213622,53.512042
12.06,STROKE PATHWAY AND REHABILITATION CENTRE,-1.461102,53.37116700000001
1628.18,BLACKBURN RD.MEDICAL CTR.,-1.664718,53.731348
784.9399999999998,COMMUNITY HEALTH CENTRE (ZS OSAMA),-1.113421,52.632387
1217.94,TRAMWAYS MEDICAL CENTRE (O'CONNELL),-1.503023,53.402044
3188.200000000001,SHEFFORD HEALTH CENTRE,-0.321643,52.034788
568.49,THE FRYENT WAY SURGERY,-0.280565,51.582963
682.57,BELMONT MEDICAL CENTRE,-0.478036,51.548264
1111.9599999999996,BEXLEY GROUP PRACTICE,0.10965599999999999,51.465832
382.4099999999999,THE MOORINGS MEDICAL PRACTICE,-0.095892,51.322229
1265.35,BLACKTHORN HEALTH CENTRE,-1.327194,50.876037
1156.6899999999996,ELM HAYES SURGERY,-2.492756,51.300546
930.68,THE DOVE MEDICAL PRACTICE,-1.864605,52.535155
1293.4599999999996,WARLEY MEDICAL CENTRE,-2.006757,52.468122
478.5,OLIVE MEDICAL CENTRE,-2.484193,53.752309
370.49,SOMERS TOWN MEDICAL CENTRE,-0.130607,51.529916
594.3,LAUREL BANK SURGERY,-1.587333,53.816942
623.3200000000002,HEALTH CARE COMPLEX  KIRKBY,-1.244634,53.100062
462.11,THE AZAD PRACTICE,0.044868,51.531234
2.6,BRIGHTON STATION WALK-IN,-0.141323,50.827937
1.0,SW INTEGRATED TEAM MALVERN,-2.178135,52.192339
1554.92,COQUET MEDICAL GROUP,-1.580504,55.332599
688.47,ALLERTON MEDICAL CENTRE,-1.533879,53.826921
602.0599999999998,SOLE BAY H/C,1.6664740000000002,52.336325
340.37999999999994,WATERSIDE MEDICAL CENTRE,-0.363984,51.502165
582.3999999999999,AMPTHILL PRACTICE,-0.137293,51.5346
531.1299999999999,THE WILLOWS PRACTICE,0.104416,51.60776
1687.26,HIGHPARKS MEDICAL PRACTICE,0.496762,51.434213
1024.64,CRAWLEY DOWN HEALTH CENTRE,-0.07762099999999998,51.122557
1219.61,COTSWOLD MEDICAL PRACTICE,-1.75678,51.886317
1622.68,BEDFORD STREET SURGERY,-0.729782,51.995784
937.59,SOUTHOVER MEDICAL PRACTICE,-3.528075,50.474733
1123.3200000000004,THE STOKE ROAD SURGERY ,-2.068173,51.94667
569.16,HAWKESLEY MEDICAL PRACTICE,-1.937498,52.39544
1610.5199999999998,PARK MEDICAL CENTRE,-2.873099,53.202665
1339.26,NORWOOD SURGERY,-2.97819,53.65000799999999
134.98,SLAIDBURN HEALTH CENTRE,-2.444001,53.967313
196.3,DR PATHAK ND,-1.9843959999999998,52.51273
410.34,DILSTON MEDICAL CENTRE,-1.640355,54.976621
615.3900000000001,NORTH CHELMSFORD NHS HCC,0.510815,51.750584
867.34,FRIERN BARNET MEDICAL CENTRE,-0.155988,51.613267
1356.14,THE GOLD STREET SURGERY,0.240471,52.021716
1381.1699999999996,WELLS HEALTH CENTRE,-2.655326,51.203403
576.9000000000002,VILLAGE MEDICAL PRACTICE,-2.095994,53.574817
166.45999999999995,THE OM SURGERY,-1.2057,53.034978
1143.48,HOLMSIDE MEDICAL GROUP,-1.66023,54.969004
310.6500000000001,SEVERN SURGERY,-1.065583,52.598801
938.6399999999999,SPRING TERRACE HEALTH CENTRE,-1.450673,55.010941
1231.58,SOUTH WIGSTON HEALTH CTR.,-1.129183,52.580452
618.1200000000001,QUEENS WALK PRACTICE,-0.312985,51.524803
1563.28,OLD ROAD SURGERY,1.148421,51.795466
454.59,THE LIMEHOUSE PRACTICE,-0.028747,51.511253
907.83,FORDBRIDGE MEDICAL CENTRE,-0.46301,51.431269
825.83,EVERSLEY MEDICAL CENTRE,-0.11191300000000001,51.388514
1088.75,CRICKET GREEN MEDICAL PRACTICE,-0.174025,51.404579
861.2799999999999,WELLFIELD MEDICAL CENTRE,-2.242019,53.512545
1188.38,WIGTON GROUP MEDICAL PRACTICE,-3.159002,54.820303
1659.4,VILLAGE SURGERY,-1.485797,52.896347
958.4099999999997,THE MEDICAL CENTRE  DR JEFFERIES & PARTN,-0.212607,51.481206
118.99,MEANWHILE GARDEN MEDICAL CENTRE,-0.203126,51.522228
296.84,ROSERTON STREET SURGERY,-0.010049,51.498482
1640.08,ALBION PLACE MEDICAL PRACTICE,0.529542,51.274206
401.15,TRIVENI PMS,0.058438,51.490321
1585.5799999999995,THE HARVEY PRACTICE,-1.993525,50.761018
1141.91,THE MISBOURNE SURGERY,-0.558045,51.607786
685.7599999999999,SHAY LANE MEDICAL CENTRE (KELMAN),-2.31556,53.372189
1305.6999999999996,MORRAB SURGERY,-5.538987,50.116924
4.05,SCS DIABETES SERVICE,-0.150861,51.357264
2.88,LGI GPS IN A+E,-1.551744,53.801445
1245.69,BARBOURNE HEALTH CENTRE,-2.224952,52.208752
754.1399999999999,LILFORD PARK SURGERY,-2.511455,53.503236
15.9,MARSDEN INTERMEDIATE CARE,-1.696689,53.676075
128.87,MALLING HEALTH AT STOKE ALDERMOOR,-1.479565,52.402142
978.2400000000001,MEIR PARK & WESTON COYNEY MEDICAL PRACT,-2.094889,52.966305
579.24,OAKWOOD SURGERY,-1.858645,52.444556
295.26,THE GROVE MEDICAL PRACTICE,-0.362401,51.55534
506.58000000000015,THE DURU PRACTICE,-2.116945,53.543824
2026.74,ASH GROVE,-1.245572,53.704968
871.43,HOLLIES MEDICAL CENTRE,-1.494834,53.363179
544.79,THE ABINGDON HEALTH CENTRE,-0.197138,51.496085
427.81,ELTHAM PALACE PMS,0.053714,51.449946
1238.07,CHAWTON PARK SURGERY,-0.989411,51.139814
1728.16,THE OAKS MEDICAL CENTRE,-1.895827,52.552454
676.0999999999998,NEWBRIDGE SURGERY,-2.155299,52.5936
165.60000000000005,ST.GEORGES MEDICAL CENTRE,-0.24612,51.558731
649.2500000000001,OAKWOOD MEDICAL CENTRE,-0.134269,51.646534
52.24,SMGPF,-2.237795,53.434307
636.1,REDBURN PARK MEDICAL CENTRE,-1.474775,55.00092
419.2799999999999,BARKEREND HC - EL ELIWI,-1.7218490000000002,53.797834
437.02,ROSEMEAD DRIVE SURGERY,-1.083088,52.5934
625.9999999999998,BRENTFORD GROUP PRACTICE,-0.310054,51.48676
1918.79,JUBILEE MEDICAL CENTRE,0.300332,51.3978
517.21,LAMBETH WALK GROUP PRACTICE,-0.11259100000000001,51.495609
536.14,SOUTHMEAD SURGERY,-0.616953,51.552538
132.74,MALLING HEALTH BLUE SUITE,0.609995,51.363412
1143.51,FARNHAM DENE MEDICAL PRACTICE,-0.777405,51.200549
2124.63,BRUNEL MEDICAL PRACTICE,-3.516948,50.479349
1882.27,THE MANOR PRACTICE,-1.8236169999999998,52.55816
749.89,DUNCAN STREET PRIMARY CARE PARTNERSHIP,-2.126602,52.57346999999999
830.6499999999999,WESTOVER SURGERY,-5.07501,50.148927
156.92000000000004,LANGTHORNE SHARMA FAMILY PRACTICE,0.0021,51.555415
1397.0499999999995,WEST MEADS SURGERY,-0.701481,50.788299
13.53,PBORO WEEKEND HOURS GP PILOT,-0.279386,52.583921
1538.95,BUSHLOE SURGERY,-1.116921,52.583283
1017.63,LEISTON SURGERY,1.575953,52.207708
583.4,HEATHFIELDE MEDICAL CENTRE,-0.179797,51.585238
1705.76,MOTE,0.545625,51.246876
1114.21,WINSCOMBE SURGERY,-2.830537,51.315196
497.89,ELTHAM PARK SURGERY,0.061023,51.4547
641.5700000000002,JAMES O'RIORDAN MEDICAL CENTRE,-0.212686,51.385157
393.38,27 BEAUMONT STREET,-1.26216,51.755081
9.33,ST LUKES MEDICAL CENTRE,-3.517636,50.394313
1003.46,PRIMROSE SURGERY,-2.357311,53.456159
256.02,THE OLD DAIRY HEALTH CENTRE,-0.091201,51.436586
30.35,BRADFORD DERMATOLOGY SERVICE,-1.781103,53.830481
1.76,SUTTON COMMUNITY SERVICES,-0.183642,51.380313
1313.9999999999995,THE MANOR SURGERY,-1.216371,52.925036
1440.2699999999998,ESSEX LODGE,0.026685000000000004,51.527915
1083.62,BRIDGE MEDICAL CENTRE,-0.166439,51.117364
1470.56,THE CRANBORNE PRACTICE,-1.9192779999999998,50.919773
827.9,NEW FOREST MEDICAL GROUP,-1.576665,50.81471
1281.2800000000002,SWALLOWFIELD MEDICAL PRACTICE,-0.958531,51.378289
1201.27,TALBOT MEDICAL CENTRE,-1.440661,54.973054
1278.86,NOVA SCOTIA MEDICAL CNTR,-1.373051,53.747561
1825.71,ABBEY SURGERY,-4.150401,50.546904
1218.83,WHITEACRES MEDICAL CENTRE,-2.300547,52.124716
807.4099999999999,AUDLEM MEDICAL PRACTICE,-2.508717,52.989615
642.8000000000002,KENNETH MACRAE MED CENTRE,-2.786435,53.49903
432.00000000000006,WOODLANDS MEDICAL PRACTICE,-0.170943,51.592914
1596.9500000000005,VERNON STREET MEDICAL CTR,-1.49039,52.924019
1802.79,BRIDGE COTTAGE SURGERY,-0.215995,51.830002
617.8599999999999,DR KRISHNAN & PTNR - KENT ELMS HC,0.664114,51.563831
531.0600000000001,CRANHAM HEALTH CENTRE,0.265291,51.568865
480.87,LEWISHAM MEDICAL CENTRE,0.004522,51.458513
862.0399999999998,LYDNEY PRACTICE,-2.529867,51.727913
1568.5899999999995,ST. JOHNS SURGERY,-2.059728,52.337612
1403.0800000000004,MONTAGUE MEDICAL PRACTICE,-0.872899,53.707031
993.4000000000003,HORTON BANK PRACTICE,-1.806018,53.774478
1026.42,HIGH STREET PRACTICE,-1.458313,53.597926
715.2499999999999,DR BAKER & PARTNERS,0.548167,51.570733
419.75,INGREBOURNE MEDICAL CENTRE,0.210579,51.600308
523.94,CROUCH HALL ROAD SURGERY,-0.127301,51.579178
1290.4799999999998,CENTRAL SURGERY,-0.299929,51.390825
1649.38,ST PAUL'S SURGERY,-1.32139,51.065963
833.9299999999998,KINGTON MEDICAL PRACTICE,-3.022556,52.199361
1081.4700000000003,WEST GORTON MEDICAL PRACTICE,-2.203859,53.46720500000001
1261.87,THE LEEDS ROAD PRACTICE,-1.535156,53.980466
760.91,FOXHILL MEDICAL CENTRE,-1.501327,53.429911
706.7099999999998,CAULDWELL MEDICAL CENTRE,-0.472495,52.128265
279.87999999999994,SANDRINGHAM PRACTICE,-0.067207,51.547773
1323.46,LAKESIDE MEDICAL,0.122454,51.496518
1505.37,LEAP VALLEY MEDICAL CENTRE,-2.487852,51.496541
290.1000000000001,ST JAMES MEDICAL PRACTICE1,-2.097323,52.514234
686.3599999999999,MORETON MEDICAL CENTRE,-3.110005,53.39886
889.4600000000002,DRS HANIF &  BANNURU,-2.184157,53.484308
1820.88,SWALLOWNEST HEALTH CENTRE,-1.317097,53.362997
282.8500000000001,BOUNDARY HOUSE SURGERY,-0.054245,51.632475
2715.91,WESTBURY GROUP PRACTICE,-2.203558,51.252792
321.6,HIGHLEY MEDICAL CENTRE,-2.392978,52.456165
574.3799999999999,WOLSTON SURGERY,-1.392727,52.376806
567.23,BALLIOL ROAD SURGERY,-1.471449,52.415924
703.71,NEWTON MEDICAL CENTRE,-2.638386,53.457172
484.83,TIMPERLEY HEALTH CENTRE (WESTWOOD),-2.323566,53.397228
1239.38,LIMES MEDICAL CENTRE,-1.387885,53.098493
771.1499999999999,SELSTON SURGERY,-1.299871,53.070196
911.95,CRYSTAL PEAKS MEDICAL CENTRE,-1.354473,53.342881
471.9200000000001,CHURCH LANE SURGERY,-0.262165,51.574931
297.25999999999993,ACRE SURGERY,-0.411552,51.604465
465.75,CUMBERLAND MEDICAL CENTRE,0.026047,51.519716
273.54999999999995,MAIDSTONE RD CHATHAM SURGERY,0.516708,51.361226
396.32,LONG BARN LANE SURGERY,-0.967033,51.436181
753.04,OMBERSLEY MEDICAL CENTRE,-2.229023,52.276554
693.07,MAYFIELD MEDICAL CENTRE,-2.093284,52.583046
208.02,DR M GOYAL'S PRACTICE,0.156711,51.540066
794.5200000000002,TOLLGATE MEDICAL CENTRE,0.056362,51.515573
538.94,WAKE GREEN SURGERY,-1.883357,52.446103
970.52,RAINHILL VILLAGE SURGERY,-2.763813,53.41631
855.2899999999998,NEW ISLINGTON MEDICAL CENTRE,-2.219472,53.4829
1398.2799999999993,CLARENDON MEDICAL CENTRE,-2.079951,53.45264
2.0,WIRRAL WIC (APH)_WIC APH,-3.096815,53.36964
7.79,(FRACTURE CLINIC) NORTH OOH,-0.883829,52.236068
4.12,MERSEYCARE NHS TRUST - NMP,-2.933499,53.407265
1540.9299999999994,COLLEGE LANE SURGERY,-1.336292,53.644573
1267.5199999999998,THE ORCHARD MED PRACTICE,-1.231693,52.533972
3608.85,STANMORE MEDICAL GROUP,-0.204612,51.913274
626.86,KEATS GROUP PRACTICE,-0.17103,51.555534
1039.66,DOWNING STREET GROUP PRACTICE,-0.7989009999999998,51.212905
278.82000000000005,ASHBURTON PARK MEDICAL CENTRE,-0.064221,51.384147
405.62,NEATH HILL HEALTH CENTRE,-0.747321,52.060411
1357.1,BRINNINGTON SURGERY,-2.132367,53.427651
99.74,HALF PENNY STEPS HEALTH CENTRE,-0.206044,51.526213
4248.82,CARLISLE HEALTHCARE,-2.930647,54.893714
1464.17,THE GOLDEN BROOK PRACTICE,-1.272531,52.901553
987.5499999999998,RUSKINGTON SURGERY,-0.400977,53.048226
473.99,DUKE MEDICAL CENTRE,-1.455657,53.378576
411.22,THE TUDOR HOUSE MEDICAL CENTRE,-0.266689,51.564495
486.24,LABURNUM HEALTH CENTRE,0.151208,51.560662
466.49000000000007,PRIMECARE PMS (SOUTH STREET),-0.012448,51.476194
409.9,THE GARDENS SURGERY,-0.066803,51.46061
995.27,NORDEN HOUSE SURGERY,-0.882727,51.944924
452.4,BREDON HILL SURGERY,-2.104857,52.030166
614.2200000000001,PHOENIX FAMILY CARE,-1.51543,52.390005
1200.6799999999996,CHURCH STREET PRACTICE,-0.459783,51.37345
665.07,LEYBOURNE SURGERY,-1.88721,50.758437
1534.91,PATFORD HOUSE PARTNERSHIP,-2.005519,51.437601
524.9,ESTOVER SURGERY,-4.0952,50.411271
921.9,NORTHGATE MEDICAL CENTRE,-2.892972,53.19509300000001
805.65,WESTLEIGH MEDICAL PRACTICE,-2.526024,53.510851
464.81,WINDMILL SURGERY,-1.48555,52.449933
504.22,ARNOS GROVE MEDICAL CENTR,-0.129838,51.615476
161.35,ST.QUINTIN HEALTH CENTRE,-0.220325,51.519199
501.5199999999999,PARK COMMUNITY PRACTICE,-1.871717,53.725678
4.0,BELLE VUE (HOSPITAL BEDS),-1.215564,54.570237
6.0,CHESTERFIELD HEALTH PROVIDER LTD,-1.43962,53.233943
342.7800000000001,MELROSE SURGERY,-1.287301,54.609397
814.5399999999998,LAKENHAM SURGERY,1.296577,52.6183
657.78,ISLAND HEALTH,-0.013513,51.495357
1266.7800000000002,STANFORD MEDICAL CENTRE,-0.148293,50.838378
683.97,NEWINGTON ROAD SURGERY,1.399222,51.343459
1263.54,THE WHITELEY SURGERY,-1.266072,50.88262
1993.5099999999993,THE ELMS PRACTICE,-0.976476,50.789794
351.2600000000001,CHILLINGTON HEALTH CENTRE,-3.693645,50.272623
195.99,AMBAR MEDICAL CENTRE,-1.991354,52.575093
1154.3299999999995,RISEDALE SURGERY,-3.224778,54.109942
1427.0,BASLOW RD  SHOREHAM ST & YORK RD SRGIES,-1.531066,53.316325
1074.54,MANOR DRIVE MEDICAL CENTRE,-0.24836599999999998,51.380785
5.37,NELFT SOUTH WEST ESSEX CS,0.496195,51.591456
1578.1099999999994,WIBSEY & QUEENSBURY MED P,-1.779715,53.767225
219.03000000000003,BROOK GREEN SURGERY,-0.218145,51.495291
315.6400000000001,DR MOHAMMED GREEN MAN MEDICAL CENTRE,0.015000999999999999,51.571506
653.7900000000002,NORK CLINIC,-0.215842,51.326429
809.5200000000002,QUEENHILL MEDICAL PRACTICE,-0.066791,51.34499
1998.7299999999993,THE BOSMERE MEDICAL PRACTICE,-0.990581,50.850232
652.29,THE LONG BUCKBY PRACTICE,-1.08255,52.30049
662.74,GLOUCESTER CITY HEALTH CENTRE,-2.245328,51.860355
900.5599999999998,NORTHWAY MEDICAL CENTRE,-2.130997,52.54810500000001
1277.0,ASHBOURNE MEDICAL PRACTICE,-1.737589,53.012862
931.16,BIRLEY HEALTH CENTRE,-1.396985,53.340317
1480.4,PARKFIELD MEDICAL CENTRE,-0.179588,51.695129
454.9000000000001,REDWOOD PRACTICE,-0.359614,51.461125
292.2800000000001,ABBEY COURT,0.26122,51.137755
858.49,OPEN DOOR SURGERY,-0.155581,51.443166
504.2000000000001,BROSELEY MEDICAL PRACTICE,-2.481266,52.611554
591.08,BEECH TREE MEDICAL PRACTICE,-1.252936,52.377534
7.989999999999998,STORTHFIELD HOUSE,-1.332746,53.097559
1244.0,ROYSTON GROUP PRACTICE,-1.451018,53.600005
80.75,FULHAM CROSS MEDICAL CENTRE,-0.214067,51.482774
776.3899999999999,BELMONT SURGERY,0.340829,51.061952
505.3,BANBURY ROAD MEDICAL CENTRE,-1.263535,51.774771
192.77,HILL TOP PRACTICE,-2.011775,52.537791
26.22,GREAT CHAPEL STREET MEDICAL CENTRE,-0.134097,51.51508
1776.7800000000002,WINTERTON MEDICAL PRACTICE,-0.606876,53.652511
798.4399999999998,THE OLD SCHOOL MEDICAL PRACTICE,-1.1424040000000002,53.916163
805.0899999999998,MEXBOROUGH HEALTH CENTRE,-1.279795,53.494237
0.21,HMP EASTWOOD PARK,-2.467383,51.634454
20.58,UHMB COMMUNITY NMP,-2.799232,54.042726
2028.03,NORWOOD MEDICAL CENTRE,-3.222974,54.119201
718.98,PICTON MEDICAL CENTRE,-1.77624,53.807296
2744.96,ORCHARD MEDICAL PRACTICE,-1.206764,53.141121
517.39,THE VILLAGE SURGERY,-0.168135,51.648069
672.55,ST. BARTHOLOMEWS SURGERY,0.051755,51.532409
5575.230000000002,THE WILLOW GROUP,-1.143034,50.800579
847.2899999999998,PORT VIEW SURGERY,-4.214351,50.40735
1139.9,STANMORE HOUSE SURGERY,-2.231468,52.391138
5793.690000000001,SOLIHULL HEALTHCARE PARTNERSHIP,-1.775235,52.419642
12.13,RICHARDSON COMMUNITY HOSPITAL,-1.9161529999999998,54.545708
2251.68,IVY GROVE SURGERY,-1.402822,53.042198
1194.72,THE LINDEN MEDICAL GROUP,-1.273642,52.931099
582.71,BUTE HOUSE MEDICAL CENTRE,-0.423966,51.880162
453.24,GURU NANAK MEDICAL CENTRE,-0.387151,51.511774
17.7,WESTMINSTER SCHOOL,-0.128107,51.498762
383.64000000000016,SOUTH GREEN SURGERY,0.430504,51.613411
331.1,RICHMOND ROAD MEDICAL CENTRE,-0.065532,51.543051
1571.7900000000004,OLD SCHOOL SURGERY,0.100722,50.772062
893.5799999999998,LAMBTON ROAD MEDICAL PRACTICE,-0.231169,51.411219
1176.2,LORDSHILL HEALTH CENTRE,-1.448733,50.940999
1644.2700000000002,HOLES LANE MEDICAL CENTRE,-2.545107,53.399828
1013.72,THE GILL MEDICAL PRACTICE,-2.398384,53.524288
269.91,PAK HEALTH CENTRE,-1.856091,52.490749
262.0,WALFORD STREET  TIVIDALE,-2.059752,52.513192
379.25,RUSHEY MEAD HEALTH CENTRE,-1.103823,52.663187
2014.78,BRAMHALL HEALTH CENTRE,-2.162929,53.36001
474.78,AYLESBURY SURGERY,-1.876053,52.542854
209.86,NEVILLE ROAD SURGERY,-0.443036,51.906419
557.07,THE PRACTICE BEAUMONT LEYS,-1.15392,52.662296
204.65,KINGSWAY SURGERY,-0.437208,51.517478
1258.71,BELLEGROVE SURGERY,0.09579,51.464561
1934.21,CHEAM GP CENTRE,-0.225239,51.368621
202.88,HANDSWORTH MEDICAL PRACT.,-1.941212,52.505377
277.6,BEARWOOD MEDICAL CENTRE,-1.97344,52.476903
236.13,BEEHIVE SURGERY,-2.419172,53.564161
996.8999999999999,THE CHEYLESMORE SURGERY,-1.503924,52.391324
811.01,ST PETER'S SURGERY,-1.984855,52.594537
1120.4199999999996,MANOR HEALTH CTR,-3.044493,53.421061
355.36999999999995,THE CROSSROADS SURGERY,-2.770123,53.417492
14.549999999999995,LAS S.E. LONDON IUC CAS,-0.10903099999999999,51.500174
1721.6,ADELAIDE STREET SURGERY,-3.048397,53.817351
259.79,CAVENDISH HEALTH CENTRE,-0.148092,51.519331
1511.89,BROWNLOW GROUP PRACTICE,-2.96585,53.405021
900.67,THE LAKES MEDICAL PRACTICE,-2.742581,54.656125
2751.74,OSMASTON SURGERY,-1.467954,52.911084
1040.21,HOLBEACH MEDICAL CENTRE,0.014430000000000002,52.804778
518.88,LAMBOURN SURGERY,-1.526933,51.504696
1489.36,KNOWLE HOUSE SURGERY,-4.134098,50.40863
703.8899999999999,VALE OF RED HORSE,-1.510351,52.15797
1350.14,BALSALL COMMON & MERIDEN GROUP PRACTICE,-1.643862,52.394956
1459.5899999999995,DINAS LANE MEDICAL CENTRE,-2.861513,53.417388
17.34,DORKING HEALTHCARE LLP,-0.333421,51.225985
574.6300000000001,GREAT BRIDGE HEALTH CENTRE,-2.02775,52.527792
0.8399999999999997,NON MEDICAL PRESCRIBING SOUTHEND CCG,0.702782,51.583955
805.5100000000001,ST ANN'S ROAD SURGERY,-0.08783399999999998,51.581428
22.79,TAURUS HEALTHCARE LTD,-2.71099,52.05708
472.45,CARTMEL SURGERY,-2.946985,54.199165
1622.5199999999998,MEADOWGREEN HEALTH CENTRE,-1.480804,53.326831
1227.09,CRUDDAS PARK SURGERY,-1.630965,54.968173
1255.9800000000002,HAWORTH MEDICAL PRACTICE,-1.954883,53.831322
299.99,WELBECK SURGERY,-1.147823,52.979645
1255.09,WICKHAM MARKET MEDICAL CENTRE,1.363674,52.151842
334.74,DR YADAVA N PRACTICE,0.334586,51.476703
1566.6000000000006,THORNHILLS MEDICAL PRACTICE,0.440958,51.300117
1967.4,BIDDULPH VALLEY SURGERY,-2.178498,53.116111
1956.81,STOCKTON HEATH MED.CENTRE,-2.582161,53.37195
1683.41,CHORLTON FAMILY PRACTICE,-2.279717,53.443773
148.65,DR R KAPUR & PARTNERS,-1.119092,52.631036
410.53,WESTBOURNE SURGERY,-1.8061,53.650937
506.25000000000006,DR WEBB AND PARTNERS,-1.308041,52.968251
676.8999999999997,SILVERDALE MEDICAL CENTRE,-1.090548,52.672318
1328.3,PARKBURY HOUSE SURGERY,-0.334063,51.756766
642.2399999999999,THORNTON & VALLEY PARK SURGERY,-0.120709,51.388871
1037.28,MOORDOWN MEDICAL CENTRE,-1.874485,50.756212
1537.8799999999994,WOLVERTON HEALTH CENTRE,-0.814934,52.054197
195.63,GREET MEDICAL PRACTICE,-1.857778,52.453195
1985.1800000000005,THE PARK MEDICAL PRACTICE,-2.739045,53.77018
244.31,CROSSWAYS PRACTICE,-3.023992,53.484655
2012.41,CENTRAL SURGERY,-1.265473,52.371743
383.93,BHF LUNDWOOD SURGERY,-1.438538,53.557711
912.0100000000001,WOODLANDS PARK HEALTH CTR,-1.628825,55.04614
1616.3000000000006,MAYFORD HOUSE SURGERY,-1.446534,54.328376
1118.14,HAVEN MEDICAL CENTRE,-1.416874,52.891498
1418.4499999999996,CASTLE HEALTHCARE PRACTICE,-1.144908,52.930476
681.86,IMEARY STREET PRACTICE,-1.424863,54.98753000000001
996.72,TRINITY & BOWTHORPE MEDICAL PRACTICE,1.280248,52.624411
335.05,WAKEMANS HILL SURGERY,-0.254209,51.587088
832.3499999999997,HARROW ROAD GP CENTRE,0.012856,51.559538
2529.070000000001,THE SWAN PRACTICE,-0.985664,52.001593
1037.5,NESTON MEDICAL CENTRE,-3.064349,53.291818
1689.4799999999998,ST.MARY'S HEALTH CENTRE,-2.729589,53.747433
200.64,ASKAM SURGERY,-3.210918,54.183705
767.2299999999998,GRANGE PARK SURGERY,-1.7481080000000002,53.912695
2693.59,BEECHFIELD MEDICAL CENTRE,-0.145012,52.787253
861.49,GRIMETHORPE SURGERY,-1.378978,53.573614
506.8399999999999,HANWELL HEALTH CENTRE (NAISH),-0.334375,51.510263
1627.2599999999998,WEST ROAD SURGERY,0.70187,51.544989
610.2400000000001,PENN SURGERY,-2.145001,52.568567
290.95,SARAF MEDICAL PRACTICE,-2.076954,53.561455
509.39,DELL MEDICAL CENTRE,0.328114,51.480258
0.1,GATDOC OOH,-1.580781,54.93938000000001
443.09,THE TRINITY MEDICAL CENTRE,0.085815,51.478803
332.56,ASHVILLE SURGERY,-0.201145,51.476255
4.0,DR HANTSDOC N OOH,-1.109918,51.280633
3.22,HOLYWELL AT LANGLEY HOUSE HCT,-0.391206,51.683651
469.69000000000005,OAK GLEN SURGERY,-1.816352,53.854799
343.95,OAKWOOD SURGERY,-1.4290459999999998,52.941386
735.9699999999998,THE KAKOTY PRACTICE,-1.473444,53.5464
7.95,NEWCASTLE GP IN MOLINEUX WIC,-1.583491,54.977507
663.5999999999998,BURNGREAVE SURGERY,-1.459815,53.393327
3611.81,COLCHESTER MEDICAL PRACTICE,0.909325,51.890029
1089.6,ESHER GREEN SURGERY,-0.370196,51.375782
862.4599999999998,ASHFIELD MEDICAL CENTRE,-0.7382729999999998,52.019666
1616.85,TETTENHALL MEDICAL PRACTICE,-2.159502,52.600723
534.2900000000001,PENNY LANE SURGERY,-2.915004,53.389404
550.62,CORNERSTONE SURGERY,-2.457402,53.58815500000001
520.59,VICTORIA PARK HEALTH CENTRE,-1.1192,52.619071
541.66,OLD FORGE SURGERY,-2.079758,54.623041
984.35,VESPER ROAD,-1.615337,53.827318
672.7500000000001,GLADSTONE HOUSE SURGERY,-1.307927,52.968816
566.2300000000001,LANGSTONE WAY SURGERY,-0.210815,51.606981
186.37,ELMTREES SURGERY,-0.335968,51.550787
1143.42,SNODLAND MEDICAL PRACTICE,0.441488,51.326053
848.1099999999999,LEITH HILL PRACTICE,-0.322969,51.150452
376.53,MALTHOUSE MEADOWS SURGERY,-2.568038,50.668698
577.5,HARBURY SURGERY,-1.458027,52.236759
2134.31,QUEEN SQUARE MEDICAL PRACTICE,-2.800994,54.046219
686.6200000000001,MARUS BRIDGE PRACTICE,-2.643772,53.529393
75.51,HEALTH E1,-0.07152500000000002,51.518304
138.46,CAXTON HOUSE SURGERY,-1.382415,53.575347
6.0,OUT OF HOURS CENTRE,-1.842798,54.869081
476.25000000000006,WESTCOTES MEDICAL CENTRE,-1.153587,52.63133199999999
8.0,WEST MERTON ACCESS HUB,-0.210281,51.409967
12.0,DERBY CITY SOUTH HEALTHCARE LTD,-1.531656,52.891817
708.5399999999998,BUNBURY MEDICAL PRACTICE,-2.649377,53.116827
1347.9799999999998,CASTLETON HEALTH CENTRE,-2.18229,53.597034
6.88,SALFORD GP OUT OF HOURS,-2.323424,53.487545
17.32,NOTTINGHAM CITYCARE,-1.155769,52.951832
8.48,ASHTON PCC SEVEN DAY ACCESS OOH,-2.099981,53.485827
719.9400000000002,DR A CALOW'S PRACTICE,-2.503837,53.742584
2020.83,CHEADLE MEDICAL PRACTICE,-2.213539,53.393745
691.8000000000002,GREEN STREET GREEN MED CT,0.089996,51.354366
448.82,3/ST ANDREWS MEDICAL CENTRE,-2.339619,53.484875
567.84,BLACKFRIARS,-2.254244,53.484135
471.86,CALDBECK SURGERY,-3.050622,54.749864
903.23,DR INGRAM & PTRS,-1.526892,54.136451
486.16,HOUNSFIELD SURGERY,-0.811033,53.183702
456.24000000000007,LENSFIELD MEDICAL PRACTICE,0.124449,52.198365
812.24,CEDAR BROOK PRACTICE,-0.41413199999999994,51.534092
518.31,ROSE VILLA SURGERY,0.506616,51.566232
686.85,BOYATT WOOD SURGERY,-1.36001,50.977856
1330.02,RISING BROOK,-2.118782,52.787133
444.57000000000005,ST JAMES MEDICAL PRACTICE2,-2.097323,52.514234
592.1500000000002,LINGHOLME HEALTH CENTRE,-2.744752,53.457769
2557.83,PEEL HOUSE MEDICAL PRACTICE,-2.365995,53.75089200000001
1763.11,GRASMERE SURGERY,-2.511455,53.503236
4306.580000000001,TELDOC,-2.435206,52.672614
6.91,GP EXTENDED ACCESS - HARROGATE,-1.529793,53.996354
1735.9299999999996,ST ANDREW'S MEDICAL PRACTICE,-1.598213,54.699634
1433.0499999999995,SPINNEY HILL MEDICAL CENTRE,-1.109212,52.637381
889.5500000000003,MARTLESHAM SURGERY,1.272068,52.061314
251.5,THE AVENUE SURGERY,-0.319031,51.518389
2701.4999999999995,ST.JAMES SURGERY,1.147433,51.787326
1574.1099999999994,SANDWICH MEDICAL PRACTICE,1.337364,51.274071
40.39,MODALITY ANN JONES FAMILY HEALTH CENTRE,-1.871333,52.462659
942.43,CENTRAL SURGERY,-2.74261,53.456686
471.57,DALTON TM,-2.643772,53.529393
26.71,WIRRAL HEART SUPPORT,-3.026531,53.380029
920.8699999999997,BALDERTON SURGERY,-0.7864679999999998,53.052881
1111.89,NORTH ROAD SUITE RAVENSTHORPE HEALTH CTR,-1.661589,53.677829
1138.51,CASTLE MEAD MEDICAL CENTRE,-1.367743,52.541052
789.5599999999998,RISE PARK SURGERY,-1.174951,53.011477
778.0299999999999,THE MEDICI MEDICAL PRACTICE,-0.418382,51.874494
865.42,ELLIS PRACTICE,-0.276552,51.563894
694.4200000000002,NEW ELTHAM AND BLACKFEN MEDICAL CENTRE,0.074199,51.434495
1324.3800000000006,THE GROVE MEDICAL CENTRE,-2.513702,50.953273
2513.31,THE HADLEIGH PRACTICE,-1.993525,50.761018
2734.69,THREE CHEQUERS MEDICAL PRACTICE,-1.794625,51.071924
521.37,CORNERSTONE SURGERY,-2.724149,53.454211
301.41,HIGHER HEYS SURGERY,-2.394094,53.740865
1801.9300000000005,DELAMERE MEDICAL PRACTICE,-2.307365,53.450887
645.3599999999999,OAK TREE HEALTH CENTRE,-1.2409629999999998,51.614986
564.51,THE TRINITY MEDICAL PRACTICE,0.760305,51.684982
5.45,BECKENHAM BEACON URGENT CARE CENTRE,-0.033209,51.405232
1.68,BRAMLEY COMMUNITY CARE BEDS,-1.623032,53.80781999999999
1921.94,BRIDGE VIEW MEDICAL GROUP,-1.401824,54.919455
1314.9799999999998,CAYTHORPE & ANCASTER MEDICAL PRACTICE,-0.536327,52.981851
116.99000000000002,BRAYFORD SQUARE SURGERY,-0.050404,51.514375
1010.58,ELMDENE SURGERY,0.263153,51.446098
470.07,THAMES AVE SURGERY,0.603057,51.36344
257.88,TRAFALGAR SURGERY,-0.074414,51.485672
563.09,THE ORCHARD PRACTICE,-0.303542,51.369116
381.99,UNIVERSITY HEALTH SERVICE,-1.395714,50.934099
815.64,LINDEN MEDICAL CENTRE,-0.737415,51.530813
632.62,ST SAVIOURS SURGERY,-2.308488,52.130324
818.3499999999998,WEST HEATH SURGERY,-1.96202,52.401797
292.44999999999993,MOOR PARK MEDICAL PRACTICE,-1.7218490000000002,53.797834
2583.42,THE CENTRAL SURGERY BARTON,-0.439445,53.684236
1558.99,MICKLEOVER MEDICAL CENTRE,-1.54633,52.907111
457.3,THE ELMS SURGERY,-0.404224,51.661642
1847.03,BUXTED MEDICAL CENTRE,0.132095,50.989406
1369.26,WEST END ROAD SURGERY,-1.359281,50.916702
1779.3999999999994,PINHOE SURGERY,-3.469622,50.737528
551.05,PRESCOTT SURGERY,-2.852689,52.784345
940.21,HEATON ROAD SURGERY,-1.579814,54.978269
352.2199999999999,HANCOCKS ME,-0.41296400000000005,53.782123
253.99,COLSTERWORTH SURGERY,-0.619356,52.806388
130.94,SOMERSET MEDICAL CENTRE,-0.371127,51.522244
2208.73,DOWNLANDS MEDICAL CENTRE,0.244085,50.822919
1075.5999999999997,OTFORD MEDICAL PRACTICE,0.191446,51.31358
607.58,BURNEY STREET PMS,-0.009168,51.479034
3101.68,ROYAL CRESCENT SURGERY,-2.452679,50.616587
122.04,ABBEY MEDICAL CENTRE,-0.982406,51.453949
757.8099999999998,ST.BARTHOLOMEWS MEDICAL CENTRE,-1.232108,51.747668
1541.2799999999993,DR SN CLAY AND PARTNERS,-1.832005,52.528641
1429.7399999999998,WORDSLEY GREEN HEALTH CENTRE,-2.164692,52.480602
5.17,URGENT CARE,0.475497,50.850706
2505.63,SAFFRON HEALTH PARTNERSHIP,-0.264459,52.084232
759.2200000000001,GLADSTONE MEDICAL CENTRE,-0.24612,51.558731
414.0900000000001,ST MARTINS MEDICAL CENTRE,-0.424566,51.577646
404.45,ABRIDGE SURGERY,0.12458,51.653631
1120.4399999999996,WEAVER VALE PRACTICE,-2.696866,53.325561
1116.32,GLOVERS LANE SURGERY,-2.971961,53.488314
475.02,VILLAGE SURGERY,-0.255874,51.399503
153.46,DR KHALIQ,-1.799612,53.663276
516.78,NEWHOLME SURGERY,-2.74261,53.456686
834.0399999999998,LUNESDALE SURGERY,-2.602213,54.200573
1168.62,SPILSBY SURGERY,0.098963,53.173049
401.52,BRIDGEWAY PRACTICE,-1.147343,52.943574
2118.21,LITTLE WALTHAM & GT NOTLEY SURGERY,0.477622,51.787396
674.6999999999998,DR KUMAR & PARTNER STUDFALL MEDICAL CTR,-0.704816,52.495882
2259.1,CASTLE PLACE PRACTICE,-3.492865,50.908884
1306.38,NUNWELL SURGERY,-2.507177,52.187931
2097.94,THREE SPIRES MEDICAL PRACTICE,-5.055864,50.259982
1043.97,MYTTON OAK MEDICAL PRACT.,-2.797762,52.707667
763.2099999999998,DR VSR CHADALAVADA,-2.139143,53.0416
192.74000000000004,KEYNELL COVERT,-1.911857,52.408441
0.91,STRELLEY HEALTH CENTRE (COCKRILL),-1.227726,52.973231
530.7199999999999,PHOENIX MEDICAL PRACTICE,0.48126899999999995,51.328805
49.37,INTERGRATED COMMUNITY PAEDIATRIC SERVICE,-2.384279,53.582354
172.46000000000004,KIRKHOLT MEDICAL PRACTICE,-2.162243,53.59832
332.64,DR AZIM & PARTNERS,-0.225729,51.579655
404.02,BHF HIGHGATE SURGERY,-1.378978,53.573614
1502.65,DOLPHIN HOUSE SURGERY,-0.029818,51.810791
