total_cost,name,longitude,latitude
637.5600000000002,COLVILLE HEALTH CENTRE,-0.206231,51.515837
910.1499999999999,BRICKFIELDS SURGERY,0.605168,51.653143
500.12000000000006,TYNEMOUTH MEDICAL PRACTICE,-0.068331,51.586253
1894.11,TRINITY MEDICAL CENTRE,-0.172008,50.831228
1340.4699999999998,THE CEDARS SURGERY,1.403174,51.217619
592.03,THE KINGS FAMILY PRACTICE,0.534548,51.377821
914.5100000000001,FOUNTAIN PRACTICE,-0.252307,51.350378
447.06,ST ALBANS MEDICAL CENTRE,-0.302479,51.42195
1538.03,ORCHID HOUSE SURGERY,-1.894499,50.801788
2513.31,THE HADLEIGH PRACTICE,-1.993525,50.761018
2734.69,THREE CHEQUERS MEDICAL PRACTICE,-1.794625,51.071924
1998.89,WEAVERS MEDICAL,-0.733538,52.401531
1167.86,NUFFIELD HEALTH CENTRE,-1.486793,51.786441
2106.92,BARTON SURGERY,-3.473818,50.579848
2233.149999999999,BIDEFORD MEDICAL CENTRE,-4.211785,51.017201
1334.78,CORBETT MEDICAL PRACTICE,-2.148792,52.263269
3445.17,THE WESTGATE PRACTICE,-1.821176,52.683537
709.61,COBRIDGE SURGERY,-2.187008,53.035377
146.20999999999995,BURBURY MEDICAL CENTRE,-1.9103740000000002,52.502215
890.62,PLECK HEALTH CENTRE,-1.9980380000000002,52.574248
521.37,CORNERSTONE SURGERY,-2.724149,53.454211
301.41,HIGHER HEYS SURGERY,-2.394094,53.740865
1627.37,ALBION MEDICAL PRACTICE,-2.088476,53.48960400000001
1801.93,DELAMERE MEDICAL PRACTICE,-2.307365,53.450887
263.1,240 WEXHAM ROAD,-0.57838,51.516902
795.29,LONGFIELD MEDICAL PRACTICE,-2.28357,53.533828
1356.38,THISTLEMOOR MEDICAL CENTRE,-0.254566,52.595274
678.6699999999998,CANTERBURY HEALTH CENTRE,1.082981,51.274249
4.0,GP EXTENDED HOURS,-2.597522,53.389256
635.0599999999998,BRERETON SURGERY,-1.924317,52.747482
23.66,THE LAWNS SURGERY,-0.502907,50.807746
645.36,OAK TREE HEALTH CENTRE,-1.2409629999999998,51.614986
564.51,THE TRINITY MEDICAL PRACTICE,0.760305,51.684982
414.84,SOHO HEALTH CENTRE,-1.934945,52.503094
0.23,DAWN CLINIC,-1.7272,51.538528
0.85,BARNET COPD SERVICE,-0.271242,51.606493
5.45,BECKENHAM BEACON URGENT CARE CENTRE,-0.033209,51.405232
532.3299999999999,BRIERLEY MEDICAL CENTRE,-1.382484,53.594188
1.68,BRAMLEY COMMUNITY CARE BEDS,-1.623032,53.80781999999999
721.5499999999998,METRO INTERCHANGE SURGERY,-1.602943,54.961848
1921.94,BRIDGE VIEW MEDICAL GROUP,-1.401824,54.919455
713.8299999999998,QUAKERS LANE SURGERY,-1.741713,54.406363
2111.72,HOLLYNS HEALTH & WELLBEING - CLAYTON,-1.81454,53.779166
785.2199999999998,BRIDGE STREET MEDICAL PRACTICE,-1.20716,52.774841
1314.98,CAYTHORPE & ANCASTER MEDICAL PRACTICE,-0.536327,52.981851
1010.65,PARSON DROVE SURGERY,0.050459,52.660947
547.1800000000001,PRIORS FIELD SURGERY,0.124169,52.388951
1109.94,DAVENPORT HOUSE SURGERY,-0.354549,51.816177
1597.32,MILLWAY MEDICAL PRACTICE,-0.24359099999999997,51.614985
630.63,TEMPLE FORTUNE MEDICAL GROUP,-0.197845,51.581101
14.11,MOULSHAM LODGE SURGERY,0.475137,51.716565
208.97,WARRIOR SQUARE SURGERY,0.716503,51.539534
116.99,BRAYFORD SQUARE SURGERY,-0.050404,51.514375
433.4,YORK ROAD SURGERY,0.065859,51.559165
1858.75,WEST MALLING GROUP PRACTICE,0.407707,51.293351
1010.5799999999997,ELMDENE SURGERY,0.263153,51.446098
1086.0899999999997,MOAT HOUSE SURGERY,-0.146361,51.259819
373.22,ALEXANDRA SURGERY,-0.205887,51.422912
848.77,DENHAM MEDICAL CENTRE,-0.502236,51.584564
898.77,CHEW MEDICAL PRACTICE,-2.629195,51.35619
857.0899999999998,ST.GEORGE'S SURGERY,-2.0815,51.906706
2.0,OLDHAM URGENT TREATMENT GTD HEALTHCARE,-2.121831,53.553248
1146.1700000000005,CHARING SURGERY,0.791374,51.20971
470.07,THAMES AVE SURGERY,0.603057,51.36344
2242.869999999999,CANTERBURY MEDICAL PRACTICE,1.128982,51.245539
257.87999999999994,TRAFALGAR SURGERY,-0.074414,51.485672
563.09,THE ORCHARD PRACTICE,-0.303542,51.369116
950.9299999999998,BALHAM PARK SURGERY,-0.155715,51.440487
381.99,UNIVERSITY HEALTH SERVICE,-1.395714,50.934099
815.64,LINDEN MEDICAL CENTRE,-0.737415,51.530813
729.3200000000002,OBSERVATORY MEDICAL PRACTICE,-1.265958,51.760293
378.21,CROPREDY SURGERY,-1.320027,52.116731
2487.3,HEART OF BATH,-2.373947,51.376364
660.0899999999998,BIRCHWOOD MEDICAL PRACTICE,-2.547938,51.446246
689.1399999999996,LOSTWITHIEL SURGERY,-4.668763,50.407892
632.62,ST SAVIOURS SURGERY,-2.308488,52.130324
1157.5,WERRINGTON VILLAGE SURGERY,-2.098023,53.021659
818.35,WEST HEATH SURGERY,-1.96202,52.401797
297.55,WEST PARK SURGERY,-2.141256,52.587783
434.88000000000005,THE MARSHSIDE SURGERY,-2.963125,53.67143299999999
532.21,MERSEYBANK SURGERY,-2.263012,53.42276
744.3299999999998,THE GROVE ROAD PRACTICE,-0.202341,51.358201
292.4500000000001,MOOR PARK MEDICAL PRACTICE,-1.7218490000000002,53.797834
328.54,UPTON ROCKS PRIMARY CARE,-2.754371,53.373367
400.51,HANLEY PRIMARY CARE CENTRE,-0.12083699999999999,51.567951
861.0199999999996,LEYLAND SURGERY,-2.709316,53.689645
1.83,HP NMP'S RUSH CCG,-1.143101,53.130244
1.13,COMMUNITY NURSING,-2.372621,51.358169
1004.25,WELLSBOURNE HEALTHCARE CIC,-0.107386,50.825445
366.19000000000005,CHEVIOT MEDICAL GROUP,-2.01842,55.546525
2583.42,THE CENTRAL SURGERY BARTON,-0.439445,53.684236
469.64,DEARNE VALLEY HEALTH CENTRE,-1.626482,53.588349
1558.9900000000002,MICKLEOVER MEDICAL CENTRE,-1.54633,52.907111
445.92,THE UNIV OF NOTTINGHAM HEALTH SERV,-1.195942,52.942177
472.2800000000001,LISTER HOUSE SURGERY,-0.4515,51.89192
457.30000000000007,THE ELMS SURGERY,-0.404224,51.661642
633.05,HOUNSLOW MEDICAL CENTRE,-0.37684,51.469395
322.18,P A PATEL SURGERY,0.582273,51.56978
206.18,SANCTA MARIA MEDICAL CENTRE,0.284011,51.507882
3124.98,SEAFORD MEDICAL PRACTICE,0.099275,50.772678
1847.0299999999993,BUXTED MEDICAL CENTRE,0.132095,50.989406
215.27,NEW INN SURGERY,-0.545657,51.257698
362.93,THE WHITEHORSE PRACTICE,-0.097391,51.385869
954.35,THE HEALTH CENTRE,-0.19711,51.363031
1369.2600000000002,WEST END ROAD SURGERY,-1.359281,50.916702
739.7700000000002,TOWER HOUSE SURGERY,-0.770004,51.636372
1160.2699999999998,CHURCH STREET PRACTICE,-1.425847,51.598763
610.64,CLINTON ROAD SURGERY,-5.224966,50.23093
1779.4,PINHOE SURGERY,-3.469622,50.737528
1893.02,ROSEBANK HEALTH,-2.242194,51.852611
814.8899999999996,MAPLE VIEW MEDICAL PRACTICE,-1.905693,52.31659
551.0500000000002,PRESCOTT SURGERY,-2.852689,52.784345
115.72,BLOOMSBURY HEALTH CENTRE,-1.876618,52.493743
940.21,HEATON ROAD SURGERY,-1.579814,54.978269
983.85,49 MARINE AVENUE SURGERY,-1.451082,55.046268
958.3,HOUGHTON MEDICAL GROUP ,-1.469175,54.842322
1331.2099999999996,HOWDEN MEDICAL PRACTICE,-0.8694039999999998,53.744175
352.2200000000001,HANCOCKS ME,-0.41296400000000005,53.782123
1067.63,THE WILSDEN MEDICAL PRACTICE,-1.86138,53.818377
253.99000000000004,COLSTERWORTH SURGERY,-0.619356,52.806388
611.48,LUNDWOOD MEDICAL CENTRE PMS PRACTICE,-1.438538,53.557711
460.77,GREASBROUGH MEDICAL CENTRE,-1.372776,53.452893
749.3900000000001,WELLSIDE SURGERY,-0.28478,52.440324
724.5899999999998,CLARE GUILDHALL SURGERY,0.580469,52.078259
772.3899999999999,LATTIMORE & VILLAGE SURGERY,-0.298547,51.726244
130.94,SOMERSET MEDICAL CENTRE,-0.371127,51.522244
1366.2900000000004,CENTRAL UXBRIDGE SURGERY,-0.475739,51.546229
947.7999999999998,WEST MERSEA SURGERY,0.9193420000000002,51.778349
1373.5800000000004,HIGHLANDS SURGERY,0.637339,51.548005
1248.3799999999997,BALLARDS WALK SURGERY,0.441841,51.573232
2208.73,DOWNLANDS MEDICAL CENTRE,0.244085,50.822919
1075.6,OTFORD MEDICAL PRACTICE,0.191446,51.31358
380.49,THE HALFWAY SURGERY,0.524157,51.380429
607.5799999999998,BURNEY STREET PMS,-0.009168,51.479034
713.72,ELIZABETH HOUSE MEDICAL PRACTICE,-0.050005,51.308093
279.24,ADDINGTON MEDICAL PRACTICE,-0.018557,51.344382
208.69000000000003,SARAJLIC (STAINES ROAD),-0.357923,51.439672
3101.6800000000007,ROYAL CRESCENT SURGERY,-2.452679,50.616587
1502.3699999999994,TWYFORD SURGERY,-1.314229,51.019421
122.04,ABBEY MEDICAL CENTRE,-0.982406,51.453949
757.8099999999998,ST.BARTHOLOMEWS MEDICAL CENTRE,-1.232108,51.747668
3324.38,THE DOWNEND HEALTH GROUP,-2.505301,51.485109
1230.48,IDE LANE SURGERY,-3.534972,50.699471
729.82,THE ARROW SURGERY,-1.861382,52.218546
1541.2799999999993,DR SN CLAY AND PARTNERS,-1.832005,52.528641
409.24,WILLENHAL OAK MEDICAL CENTRE,-1.463131,52.388988
1429.7400000000002,WORDSLEY GREEN HEALTH CENTRE,-2.164692,52.480602
2283.8299999999995,THE OVER-WYRE MED.CTR.,-2.976492,53.928203
717.16,FISHERGATE HILL SURGERY,-2.714363,53.75445500000001
340.4000000000001,THE SINGH MEDICAL PRACTICE,-2.213622,53.512042
1450.1299999999994,PARK VIEW GROUP PRACTICE,-2.160577,53.445476
380.1,FAMILY SURGERY,-2.346055,53.396194
12.06,STROKE PATHWAY AND REHABILITATION CENTRE,-1.461102,53.37116700000001
5.17,URGENT CARE,0.475497,50.850706
170.07999999999996,CRANBROOK MEDICAL PRACTICE,-3.416198,50.746596
2005.24,WHITLEY BAY HEALTH CENTRE,-1.43996,55.04141
1628.1800000000005,BLACKBURN RD.MEDICAL CTR.,-1.664718,53.731348
3187.88,MARKET HARBOROUGH MED.CTR,-0.924843,52.477084
784.9400000000002,COMMUNITY HEALTH CENTRE (ZS OSAMA),-1.113421,52.632387
1217.94,TRAMWAYS MEDICAL CENTRE (O'CONNELL),-1.503023,53.402044
2505.63,SAFFRON HEALTH PARTNERSHIP,-0.264459,52.084232
759.2200000000001,GLADSTONE MEDICAL CENTRE,-0.24612,51.558731
414.09,ST MARTINS MEDICAL CENTRE,-0.424566,51.577646
404.45,ABRIDGE SURGERY,0.12458,51.653631
362.12,ELSDALE STREET SURGERY,-0.049094,51.543033
1032.14,STOPSLEY VILLAGE PRACTICE,-0.394147,51.901132
3188.2,SHEFFORD HEALTH CENTRE,-0.321643,52.034788
444.89,VALE DRIVE MEDICAL PRACTICE,-0.194727,51.648828
568.49,THE FRYENT WAY SURGERY,-0.280565,51.582963
682.5700000000002,BELMONT MEDICAL CENTRE,-0.478036,51.548264
464.17,PORTLAND ROAD PRACTICE,-0.208019,51.507366
2855.2100000000014,AUDLEY MILLS SURGERY,0.607129,51.584978
322.89,STRATFORD HEALTH CENTRE,0.004714,51.544651
100.48,THE STROUDLEY WLK HTH CTR,-0.017533,51.527214
535.82,ST JOHN'S MEDICAL PRACTICE,0.195249,51.285009
1111.96,BEXLEY GROUP PRACTICE,0.10965599999999999,51.465832
682.57,DERRY DOWNS SURGERY,0.116651,51.385174
709.1200000000001,UPPER NORWOOD GROUP PRACTICE,-0.08482,51.413308
382.41,THE MOORINGS MEDICAL PRACTICE,-0.095892,51.322229
706.3299999999998,THE TOLLERFORD PRACTICE,-2.571586,50.778924
1265.35,BLACKTHORN HEALTH CENTRE,-1.327194,50.876037
421.37,JUBILEE FIELD SURGERY,-2.191875,51.484091
712.1399999999999,DANES CAMP MEDICAL CENTRE,-0.904374,52.205152
1159.14,THORNBURY HEALTH CENTRE - BURNEY,-2.517723,51.612861
1156.6899999999996,ELM HAYES SURGERY,-2.492756,51.300546
798.59,CULVERHAY SURGERY,-2.348649,51.638921
1333.4399999999996,SHAWBIRCH MEDICAL CENTRE,-2.531858,52.718121
930.68,THE DOVE MEDICAL PRACTICE,-1.864605,52.535155
2079.0,MOSS GROVE SURGERY,-2.1699,52.498674
1293.4599999999996,WARLEY MEDICAL CENTRE,-2.006757,52.468122
1009.42,SPRINGFIELDS MEDICAL CENTRE,-2.597522,53.389256
1120.4400000000003,WEAVER VALE PRACTICE,-2.696866,53.325561
1116.3199999999997,GLOVERS LANE SURGERY,-2.971961,53.488314
478.5,OLIVE MEDICAL CENTRE,-2.484193,53.752309
548.85,HALLIWELL SURGERY 1,-2.431738,53.588322
873.7199999999997,HEATON MERSEY MED.PRACT.,-2.205118,53.412519
475.02,VILLAGE SURGERY,-0.255874,51.399503
370.49,SOMERS TOWN MEDICAL CENTRE,-0.130607,51.529916
192.54,FITZMAURICE (KEW),-0.283117,51.475875
563.7600000000001,WOOTTON VALE HEALTHY LIVING CENTRE,-0.527951,52.093688
746.2900000000003,ST LUKE'S HEALTH CENTRE,0.7293039999999998,51.551
3675.929999999999,THE MEDICAL GROUP,-1.628911,54.748296
923.88,GLENPARK MEDICAL CENTRE,-1.640096,54.953229
153.45999999999995,DR KHALIQ,-1.799612,53.663276
1359.89,ROBIN LANE HEALTH AND WELLBEING CENTRE,-1.661311,53.79500899999999
594.3000000000002,LAUREL BANK SURGERY,-1.587333,53.816942
937.79,HUGGLESCOTE SURGERY,-1.365684,52.71103
623.3200000000002,HEALTH CARE COMPLEX  KIRKBY,-1.244634,53.100062
985.54,RED HOUSE SURGERY,0.129161,52.214906
376.23,KINGS HEAD MEDICAL PRACTICE,-0.011448,51.635688
1.82,BRIMPTON HOUSE,0.699534,51.835776
462.11,THE AZAD PRACTICE,0.044868,51.531234
516.78,NEWHOLME SURGERY,-2.74261,53.456686
2.6,BRIGHTON STATION WALK-IN,-0.141323,50.827937
1.0,SW INTEGRATED TEAM MALVERN,-2.178135,52.192339
834.0399999999997,LUNESDALE SURGERY,-2.602213,54.200573
1554.9199999999994,COQUET MEDICAL GROUP,-1.580504,55.332599
344.89,THE GLENDALE SURGERY,-2.01842,55.546525
688.47,ALLERTON MEDICAL CENTRE,-1.533879,53.826921
1168.62,SPILSBY SURGERY,0.098963,53.173049
401.5199999999999,BRIDGEWAY PRACTICE,-1.147343,52.943574
1473.4000000000005,THORNE MOOR MEDICAL PRACTICE,-0.966348,53.613648
1155.25,MANOR AND PARK GROUP PRACTICE,-1.42716,53.373705
602.0600000000002,SOLE BAY H/C,1.6664740000000002,52.336325
619.1800000000002,DR PS BATH'S PRACTICE,-0.394147,51.901132
340.38,WATERSIDE MEDICAL CENTRE,-0.363984,51.502165
2118.21,LITTLE WALTHAM & GT NOTLEY SURGERY,0.477622,51.787396
582.4000000000002,AMPTHILL PRACTICE,-0.137293,51.5346
683.3599999999998,THE NORTH LONDON HEALTH CENTRE,-0.11243199999999999,51.617571
531.1300000000001,THE WILLOWS PRACTICE,0.104416,51.60776
1252.4,ST.PETER'S MEDICAL CENTRE,-0.135237,50.831002
1687.2599999999998,HIGHPARKS MEDICAL PRACTICE,0.496762,51.434213
644.29,YALDING,0.429804,51.221188
1024.64,CRAWLEY DOWN HEALTH CENTRE,-0.07762099999999998,51.122557
472.6,BIRDHURST MEDICAL PRACTICE,-0.092613,51.365279
1201.0600000000004,FORESTSIDE MEDICAL PRACTICE,-1.416173,50.851823
275.95000000000005,BENTLEY VILLAGE SURGERY,-0.87992,51.189933
674.6999999999998,DR KUMAR & PARTNER STUDFALL MEDICAL CTR,-0.704816,52.495882
2259.0999999999995,CASTLE PLACE PRACTICE,-3.492865,50.908884
1219.61,COTSWOLD MEDICAL PRACTICE,-1.75678,51.886317
1147.4900000000002,GLASTONBURY SURGERY,-2.721853,51.148462
1306.3799999999997,NUNWELL SURGERY,-2.507177,52.187931
843.0599999999998,CLEOBURY MORTIMER SURGERY,-2.485608,52.377502
1234.2799999999995,MEDINA HEALTHCARE,-1.298686,50.697239
1622.68,BEDFORD STREET SURGERY,-0.729782,51.995784
1504.53,ALCHESTER MEDICAL GROUP,-1.138371,51.891398
942.9,GREENWAY COMMUNITY PRACTICE,-2.611274,51.499595
2097.94,THREE SPIRES MEDICAL PRACTICE,-5.055864,50.259982
1431.8299999999995,DEAN CROSS SURGERY,-4.095355,50.358939
937.59,SOUTHOVER MEDICAL PRACTICE,-3.528075,50.474733
1263.7599999999998,NEW VALLEY PRACTICE,-3.654492,50.792383
1123.32,THE STOKE ROAD SURGERY ,-2.068173,51.94667
1838.51,HIGHBRIDGE MEDICAL CENTRE,-2.979117,51.227372
1208.8099999999995,CANTILUPE SURGERY,-2.712261,52.055418
1043.97,MYTTON OAK MEDICAL PRACT.,-2.797762,52.707667
710.3599999999999,DRS SHAH & TALPUR,-2.194635,52.974032
763.21,DR VSR CHADALAVADA,-2.139143,53.0416
569.1600000000002,HAWKESLEY MEDICAL PRACTICE,-1.937498,52.39544
192.74,KEYNELL COVERT,-1.911857,52.408441
1610.5200000000002,PARK MEDICAL CENTRE,-2.873099,53.202665
1339.2600000000002,NORWOOD SURGERY,-2.97819,53.65000799999999
1351.7499999999998,WHALLEY MEDICAL CENTRE,-2.406348,53.819793
134.98000000000002,SLAIDBURN HEALTH CENTRE,-2.444001,53.967313
872.8600000000004,PIKES LANE 1,-2.446348,53.572728
196.3,DR PATHAK ND,-1.9843959999999998,52.51273
0.91,STRELLEY HEALTH CENTRE (COCKRILL),-1.227726,52.973231
530.72,PHOENIX MEDICAL PRACTICE,0.48126899999999995,51.328805
379.81000000000006,NETHERTON SURGERY,-2.97236,53.488626
410.34,DILSTON MEDICAL CENTRE,-1.640355,54.976621
49.37,INTERGRATED COMMUNITY PAEDIATRIC SERVICE,-2.384279,53.582354
615.3899999999999,NORTH CHELMSFORD NHS HCC,0.510815,51.750584
172.46,KIRKHOLT MEDICAL PRACTICE,-2.162243,53.59832
0.89,WOKING ALEXANDRA WARD,-0.556304,51.315132
332.6400000000001,DR AZIM & PARTNERS,-0.225729,51.579655
404.02,BHF HIGHGATE SURGERY,-1.378978,53.573614
777.0,SEASCALE HEALTH CENTRE,-3.479998,54.396756
465.08,WIDDRINGTON SURGERY,-1.62051,55.240248
557.78,RIPLEY MEDICAL CENTRE,-1.405723,53.04704
594.0799999999998,DE MONTFORT SURGERY,-1.141192,52.6286
451.15,DENABY MEDICAL PRACTICE,-1.245792,53.490666
886.2899999999998,MENDLESHAM MEDICAL GROUP,1.0816,52.251866
545.61,UPTON ROAD SURGERY,-0.401058,51.656689
1502.6500000000005,DOLPHIN HOUSE SURGERY,-0.029818,51.810791
616.74,THE EVERGLADE MEDICAL PRACTICE,-0.24421,51.601578
867.3399999999997,FRIERN BARNET MEDICAL CENTRE,-0.155988,51.613267
184.58,THE CIVIC MEDICAL CENTRE,-0.337497,51.587155
1356.14,THE GOLD STREET SURGERY,0.240471,52.021716
1599.3200000000004,THE HOLLIES,0.610574,51.555461
531.98,GREEN PRACTICE,-0.371755,51.468263
495.73,THE ABBOTSBURY PRACTICE,-0.397406,51.579266
1139.7000000000005,NUFFIELD HOUSE HEALTH CENTRE,0.112828,51.774439
1058.97,MARTINS OAK SURGERY,0.483675,50.91716
413.07000000000005,THE GLEBE FAMILY PRACTICE,0.544473,51.383164
132.73999999999998,MALLING HEALTH BLUE SUITE,0.609995,51.363412
1364.8,KNOLL MEDICAL PRACTICE,0.101068,51.375411
225.5,CLIFTON RISE FAMILY PRACTICE,-0.03143300000000001,51.476334
240.8,BLACKFRIARS MEDICAL PRACTICE,-0.105775,51.505364
1829.9,HASLEMERE HEALTH CENTRE,-0.707586,51.092107
1143.51,FARNHAM DENE MEDICAL PRACTICE,-0.777405,51.200549
756.37,THE DORCHESTER RD SURGERY,-2.457512,50.625193
389.43,CRONDALL NEW SURGERY,-0.858386,51.237211
751.97,ST.JAMES SURGERY,-1.989956,51.352926
264.0,CORDWALLIS ROAD SURGERY,-0.7240259999999998,51.528097
1266.21,BOTLEY MEDICAL CENTRE,-1.299442,51.753753
558.09,ST. MARY'S SURGERY,-2.479869,51.326082
1085.46,QUEEN'S MEDICAL CENTRE,-4.057196,51.080161
2124.63,BRUNEL MEDICAL PRACTICE,-3.516948,50.479349
520.33,EXMOOR MEDICAL CENTRE,-3.544825,51.038507
409.27,CHADDESLEY SURGERY,-2.158038,52.361961
1882.27,THE MANOR PRACTICE,-1.8236169999999998,52.55816
296.8900000000001,CHARLES ROAD SURGERY,-1.850621,52.4722
749.8899999999999,DUNCAN STREET PRIMARY CARE PARTNERSHIP,-2.126602,52.57346999999999
855.93,DR JUDE'S PRACTICE - RIVERSIDE,-2.943016,53.398876
830.6500000000002,WESTOVER SURGERY,-5.07501,50.148927
156.92,LANGTHORNE SHARMA FAMILY PRACTICE,0.0021,51.555415
125.44,THE MANOR PARK PRACTICE,0.057339,51.55393
1397.0499999999995,WEST MEADS SURGERY,-0.701481,50.788299
632.4300000000002,TRENTHAM MEWS MEDICAL CENTRE,-2.189898,52.970452
533.4599999999999,WILLESDEN GREEN SURGERY,-0.216091,51.553773
65.46,THE SUMMITT PRACTICE,0.04536,51.539588
2.89,SELDOC HEALTHCARE,-0.283378,51.412517
5.0,PRUH URGENT CARE CENTRE,0.059146,51.366243
13.53,PBORO WEEKEND HOURS GP PILOT,-0.279386,52.583921
45.1,WIDNES GP EXTRA SERVICE,-2.735705,53.362158
726.4700000000001,DR THORNILEY-WALKER & PARTNERS,-1.460703,54.949762
139.39999999999998,DR U AKBAR,-1.777945,53.803569
1440.85,BROOKROYD HOUSE,-1.67818,53.707224
591.8900000000001,AIREBOROUGH FAMILY PRACTICE,-1.684881,53.866663
1538.9499999999996,BUSHLOE SURGERY,-1.116921,52.583283
1642.7599999999998,THE BURBAGE SURGERY,-1.361645,52.53009599999999
268.63000000000005,PASLEY ROAD HEALTH CENTRE (TK KHONG),-1.146741,52.591287
1573.87,NETTLEHAM MEDICAL PRACTICE,-0.476253,53.262865
212.16000000000003,HAROLD STREET MEDICAL CENTRE,-1.492871,53.393121
340.95,UNIVERSITY HEALTH SERVICE HEALTH CENTRE,-1.482709,53.380323
1017.63,LEISTON SURGERY,1.575953,52.207708
583.4,HEATHFIELDE MEDICAL CENTRE,-0.179797,51.585238
470.19,BRENTFIELD MEDICAL CENTRE,-0.260251,51.550588
643.49,DR NAVIN KUMAR,0.70187,51.544989
247.64,RUSTON STREET CLINIC,-0.027306,51.536264
1117.96,SCHOOL HILL MEDICAL PRACTICE,0.012064,50.873469
1705.7600000000007,MOTE,0.545625,51.246876
1314.5400000000004,SHEPPERTON MEDICAL PRACTICE,-0.453153,51.396402
1477.66,GRAYSHOTT SURGERY,-0.745626,51.110093
1258.92,THE MANOR PRACTICE,-0.234983,50.835138
654.0600000000002,HAMPTON HILL MEDICAL CENTRE,-0.354892,51.427508
211.38,CLAPHAM JUNCTION MEDICAL PRACTICE,-0.173908,51.465969
352.08,OLD SCHOOL HOUSE SURGERY,-1.604408,51.376032
1114.21,WINSCOMBE SURGERY,-2.830537,51.315196
3640.93,PEMBROKE MEDICAL GROUP,-3.560246,50.445527
1.97,ST PETER'S URGENT TREATMENT CENTRE,-0.52706,51.377832
430.60999999999984,PRIORY ROAD SURGERY,0.589253,50.860828
1846.63,SWANSCOMBE HEALTH CENTRE,0.28731,51.424657
497.89000000000016,ELTHAM PARK SURGERY,0.061023,51.4547
641.5700000000002,JAMES O'RIORDAN MEDICAL CENTRE,-0.212686,51.385157
2163.7600000000007,WISTARIA & MILFORD SURGERIES,-1.547285,50.760041
393.38,27 BEAUMONT STREET,-1.26216,51.755081
550.51,WIDCOMBE SURGERY,-2.354321,51.376371
9.33,ST LUKES MEDICAL CENTRE,-3.517636,50.394313
553.19,FRITHWOOD SURGERY,-2.162379,51.729707
1537.0800000000004,HILLVIEW MEDICAL CENTRE,-1.951153,52.305568
1023.09,GORDON STREET SURGERY,-1.644613,52.810998
543.4000000000001,LONGTON MEDICAL CENTRE,-2.770123,53.417492
1003.46,PRIMROSE SURGERY,-2.357311,53.456159
1411.7100000000007,DR AHMAD & PTNRS,-2.595925,53.522279
256.02,THE OLD DAIRY HEALTH CENTRE,-0.091201,51.436586
951.94,THE ISLAND SURGERY,0.591014,51.520226
643.74,JS MEDICAL PRACTICE,-0.078706,51.589103
1368.37,GATEWAY PRIMARY CARE,-1.352431,53.429997
30.35,BRADFORD DERMATOLOGY SERVICE,-1.781103,53.830481
204.67,ESSINGTON MEDICAL CENTRE,-2.056915,52.63194
4.56,SUMMERFIELD GP SURG & URGENT CARE CENTRE,-1.937353,52.487686
6.66,HAVERING CCG,0.179796,51.579247
543.12,THE WILLASTON SURGERY,-3.011643,53.292908
4.28,SOUTH KENT GROUP,1.118942,51.075872
1.76,SUTTON COMMUNITY SERVICES,-0.183642,51.380313
17.29,WHITTINGTON HEALTH (ISLINGTON),-0.139066,51.566482
5.6,ST MICHAELS HOSPICE,-1.518091,53.977242
4.0,URGENT CARE CENTRE NORTHWICK PARK HOSP,-0.322037,51.575407
10.0,SLEAFORD EXTENDED ACCESS K2,-0.406507,52.997784
972.61,STONELEIGH SURGERY,-2.770704,54.227277
424.62,BROWNEY HOUSE SURGERY,-1.670679,54.800313
1050.2999999999997,TOWNHEAD SURGERY,-2.276903,54.070534
427.65,HORNE STREET SURGERY,-1.871717,53.725678
828.81,HONLEY SURGERY,-1.791936,53.602386
973.5400000000003,GOSBERTON MEDICAL CENTRE,-0.159263,52.869915
1314.0000000000002,THE MANOR SURGERY,-1.216371,52.925036
526.59,PROSPECT MEDICAL PRACTICE,1.285656,52.643921
1038.9800000000002,THE GARDEN CITY PRACTICE,-0.209287,51.797151
489.07,MAPESBURY MEDICAL GROUP,-0.209473,51.551496
1093.14,RIVERMEAD GATE MED.CTR.,0.472887,51.740849
435.64,ROMAN WAY MEDICAL CENTRE,-0.10550599999999999,51.544561
449.11000000000007,CHOLMLEY GARDENS SURGERY,-0.195423,51.552261
1440.2699999999998,ESSEX LODGE,0.026685000000000004,51.527915
774.0299999999999,GROVELANDS MEDICAL CENTRE,-0.112028,51.620685
2256.11,HIGH GLADES MEDICAL CENTRE,0.551301,50.878354
975.73,ST JAMES' SURGERY,1.315702,51.128516
466.4,OXSHOTT MEDICAL PRACTICE,-0.360843,51.333099
1083.62,BRIDGE MEDICAL CENTRE,-0.166439,51.117364
485.25000000000006,LAVENDER HILL GROUP PRACTICE,-0.15683,51.466044
1470.5599999999995,THE CRANBORNE PRACTICE,-1.9192779999999998,50.919773
1219.4499999999996,ST.MARY'S SURGERY,-1.397475,50.905746
827.8999999999999,NEW FOREST MEDICAL GROUP,-1.576665,50.81471
1281.2799999999995,SWALLOWFIELD MEDICAL PRACTICE,-0.958531,51.378289
943.34,CHERRYMEAD SURGERY,-0.700228,51.608271
1889.07,HORFIELD HC,-2.576275,51.489998
771.48,CARNON DOWNS SURGERY,-5.091905,50.22345
712.78,WHITE HOUSE SURGERY,-1.705957,51.983554
568.2999999999998,SPRINGMEAD SURGERY  CHARD,-2.967972,50.869562
895.1300000000001,CHURCH STRETTON MEDICAL CENTRE,-2.806169,52.537286
1175.35,DR KS UPTON'S PRACTICE,-1.986582,52.988358
1442.0600000000004,KINGSWAY MEDICAL CENTRE,-1.289009,54.606459
409.93,WARWICK ROAD SURGERY,-2.928541,54.893858
751.4599999999998,PRUDHOE MEDICAL GROUP,-1.853822,54.96186
1201.27,TALBOT MEDICAL CENTRE,-1.440661,54.973054
1278.86,NOVA SCOTIA MEDICAL CNTR,-1.373051,53.747561
992.12,ARTHUR MEDICAL CENTRE,-1.422636,53.001503
1476.02,WOODVILLE SURGERY,-1.5365030000000002,52.770685
1366.7499999999998,NEWBOLD VERDON MED.PRACT.,-1.34334,52.634612
955.32,PORTLAND MEDICAL PRACTICE,-0.539074,53.22371999999999
1724.15,TORKARD HILL MEDICAL CTRE,-1.207389,53.029901
464.59,BAKERSFIELD MEDICAL CENTRE,-1.104957,52.960219
1026.42,HIGH STREET PRACTICE,-1.458313,53.597926
1283.4599999999996,VILLAGE SURGERY,-1.251934,53.39421
264.34,ALLENBY CLINIC,-0.376261,51.531514
2241.81,DR PUZEY DR KOTHARI AND DR NANDA,0.705992,51.582107
715.2500000000001,DR BAKER & PARTNERS,0.548167,51.570733
419.75,INGREBOURNE MEDICAL CENTRE,0.210579,51.600308
693.07,THE ORDNANCE UNITY CENTRE FOR HEALTH,-0.039073,51.672653
523.94,CROUCH HALL ROAD SURGERY,-0.127301,51.579178
1290.4800000000002,CENTRAL SURGERY,-0.299929,51.390825
1649.38,ST PAUL'S SURGERY,-1.32139,51.065963
771.9300000000003,SHEET STREET SURGERY,-0.605507,51.479648
1135.37,HEDENA HEALTH,-1.204547,51.76203
816.56,BLOXHAM SURGERY,-1.372977,52.018108
833.9299999999998,KINGTON MEDICAL PRACTICE,-3.022556,52.199361
1562.87,SEVERN FIELDS MEDICAL PRACTICE,-2.721619,52.728047
275.38,SELLY OAK HEALTH CENTRE,-1.939144,52.438251
2210.33,PEELHOUSE MEDICAL PLAZA,-2.72256,53.372135
1717.9499999999996,CUMBERLAND HOUSE SURGERY,-2.990437,53.638743
1010.4999999999997,LANE ENDS SURGERY,-2.727014,53.770173
224.09000000000003,HOLLINS GROVE SURGERY,-2.477472,53.705346
849.5799999999997,WHITTAKER LANE MED CENTRE,-2.268645,53.528488
1081.4700000000003,WEST GORTON MEDICAL PRACTICE,-2.203859,53.46720500000001
265.02000000000004,OLDHAM FAMILY PRACTICE,-2.116945,53.543824
497.22,SHAY LANE MEDICAL CENTRE (PATEL),-2.31556,53.372189
1.18,NMP CASTLE POINT AND ROCHFORD CCG,0.702782,51.583955
25.2,GP HUBS - GP HEALTH PARTNERS LTD,-0.266331,51.334184
6.0,SALFORD ACUTE HOME VISITING SERVICE,-2.33763,53.484827
8.949999999999998,EXTENDED ACCESS PCD TICKHILL SURGERY,-1.110773,53.43304499999999
2265.21,BIRTLEY MEDICAL GROUP,-1.576441,54.891881
1261.87,THE LEEDS ROAD PRACTICE,-1.535156,53.980466
758.0299999999999,APOLLO COURT MEDICAL CENTRE,-1.524816,53.542364
1144.7800000000002,THE LAKESIDE PRACTICE,-1.148909,53.61549599999999
760.9099999999999,FOXHILL MEDICAL CENTRE,-1.501327,53.429911
553.2499999999999,WESTWOOD CLINIC,-0.269054,52.591395
1079.19,THEOBALD MEDICAL CENTRE,-0.285584,51.661381
749.3899999999999,SUDBURY & ALPERTON MEDICAL CENTRE,-0.298046,51.536916
95.34,THE SURGERY,-0.184519,51.497627
1375.88,CHURCHILL MEDICAL CENTRE,-0.018466,51.618226
1639.51,THE CHESTERFIELD DRIVE PRACTICE,1.132012,52.07623
1199.83,COMBS FORD SURGERY,0.995999,52.180181
706.7100000000002,CAULDWELL MEDICAL CENTRE,-0.472495,52.128265
1045.04,PRIORY MEDICAL CENTRE,-0.50567,52.167181
748.6099999999999,HILLVIEW SURGERY,-0.318331,51.540536
220.42,DR HAFFIZ,-0.119262,51.539321
279.88,SANDRINGHAM PRACTICE,-0.067207,51.547773
68.04999999999998,ESK ROAD MEDICAL CENTRE,0.024266,51.522454
501.78,MONTPELIER SURGERY,-0.149079,50.827148
748.0499999999998,THE AVENUE SURGERY,-0.113425,50.844357
2202.2499999999995,REACH HEALTHCARE,0.52408,51.337756
643.2000000000002,SELLINDGE SURGERY,1.002785,51.103536
1323.46,LAKESIDE MEDICAL,0.122454,51.496518
726.0299999999999,CAMBERLEY HEALTH CENTRE,-0.754069,51.324435
1895.26,HARBOUR VIEW HEALTHCARE,-0.27437,50.833817
1140.0000000000002,NEW POND ROW SURGERY,-0.322292,50.824911
405.7300000000001,FLOOD (ESSEX HOUSE),-0.247469,51.472541
1573.3899999999994,WILSON PRACTICE,-0.966958,51.153736
628.8,WOLLASTON AND BOZEAT SURGERIES,-0.674311,52.252471
1505.37,LEAP VALLEY MEDICAL CENTRE,-2.487852,51.496541
1428.84,KINGSTEIGNTON MEDICAL PRACTICE,-3.597395,50.54898
931.2600000000001,ST.LEVAN SURGERY,-4.177328,50.383921
2469.5599999999995,STIRCHLEY MEDICAL PRACTICE,-2.433777,52.655188
1015.01,LUDLOW - PORTCULLIS,-2.715958,52.368905
849.0900000000001,BARTON,-1.725223,52.761751
698.2199999999998,RED LION SURGERY,-2.030614,52.693241
136.58,DADHANIA SURGERY,-1.491047,52.405815
290.1,ST JAMES MEDICAL PRACTICE1,-2.097323,52.514234
197.04,HAWTHORNS MEDICAL CENTRE,-1.967268,52.501507
696.7699999999996,BROWNLOW AT MARYBONE,-2.987806,53.411269
686.36,MORETON MEDICAL CENTRE,-3.110005,53.39886
636.2499999999999,LITTLE LEVER HEALTH CENTRE 1,-2.370624,53.55981800000001
595.2199999999998,WOODBANK SURGERY,-2.308802,53.60507
889.4599999999998,DRS HANIF &  BANNURU,-2.184157,53.484308
90.58,4/LOWER BROUGHTON MEDICAL PRACTICE,-2.258808,53.49359
1357.0999999999995,BRINNINGTON SURGERY,-2.132367,53.427651
1129.04,CONWAY ROAD MEDICAL PRACTICE,-2.303561,53.417873
518.8100000000001,DESFORD MEDICAL CENTRE,-1.296116,52.627473
104.46,DR VIJE'S SURGERY,-1.650877,52.617569
456.19000000000005,HIGHFIELD HEALTH,-1.395746,50.932777
51.0,DR R SHARMA'S PRACTICE,-0.096482,51.499125
99.73999999999998,HALF PENNY STEPS HEALTH CENTRE,-0.206044,51.526213
2466.120000000001,NORTON MEDICAL CENTRE,-1.308737,54.588737
4248.8200000000015,CARLISLE HEALTHCARE,-2.930647,54.893714
262.43,PEEL PARK SURGERY,-1.731903,53.806791
1122.3000000000004,MAYBUSH MEDICAL CENTRE,-1.489249,53.670273
1464.1699999999996,THE GOLDEN BROOK PRACTICE,-1.272531,52.901553
1162.93,IBSTOCK HOUSE SURGERY,-1.401818,52.684869
987.5499999999998,RUSKINGTON SURGERY,-0.400977,53.048226
1753.18,BARNBY GATE SURGERY,-0.8049699999999999,53.074931
473.99000000000007,DUKE MEDICAL CENTRE,-1.455657,53.378576
567.9500000000002,FALKLAND HOUSE SURGERY,-1.514423,53.359728
1280.08,PRIORY FIELDS SURGERY,-0.179856,52.332272
503.50999999999993,BOURN SURGERY,-0.063404,52.193155
692.3999999999999,COACHMANS MEDICAL PRACTICE,-0.203875,51.096335
920.12,MILTON KEYNES VILLAGE SURG,-0.697865,52.043891
631.74,DRS DE ROSA & WILLIAMS,-2.167857,52.569265
11.21,GPSI PALLIATIVE CARE,-3.007792,53.502483
8.79,COMMUNITY CARDIOLOGY SERVICE,0.15356,51.455555
16.63,INTERMEDIATE CARE-GP SERVICE,-2.130253,53.548188
36.23,BASSETLAW HEALTH PARTNERSHIP,-0.950634,53.325451
1788.7299999999993,FIELDHOUSE MEDICAL GROUP,-0.112579,53.564436
1627.2600000000002,HEREWARD MEDICAL CENTRE,-0.380913,52.768626
882.6599999999999,SAXON CROSS SURGERY,-1.273642,52.931099
2102.61,PENISTONE GROUP PMS PRACTICE,-1.630732,53.523565
523.1000000000001,THE NAYAR PRACTICE,-1.1933790000000002,53.480824
565.98,DR RAOLU'S PRACTICE,-1.204348,53.423549
1987.14,THE PARK SURGERY,1.7292759999999998,52.606218
1251.07,EAST BARNET HEALTH CENTRE,-0.166424,51.646339
723.0999999999998,LANFRANC MEDICAL CENTRE,-0.332746,51.561586
411.22,THE TUDOR HOUSE MEDICAL CENTRE,-0.266689,51.564495
486.24,LABURNUM HEALTH CENTRE,0.151208,51.560662
111.77,NEW NORTH HEALTH CENTRE,-0.091592,51.537534
1504.42,HOVE MEDICAL CENTRE,-0.19539,50.845024
466.49,PRIMECARE PMS (SOUTH STREET),-0.012448,51.476194
409.9,THE GARDENS SURGERY,-0.066803,51.46061
1025.0,FORT HOUSE SURGERY,-0.412578,51.37881
1460.86,OXTED HEALTH CENTRE,9.9e-05,51.257686
1221.26,THE WRYTHE GREEN SURGERY,-0.171312,51.371749
764.6999999999998,THE LAWN MEDICAL CENTRE,-1.7619029999999998,51.547821
995.2699999999999,NORDEN HOUSE SURGERY,-0.882727,51.944924
244.11000000000004,ST MARY'S HEALTH CENTRE,-6.308668,49.911605
1391.82,TOPSHAM SURGERY,-3.462097,50.683825
734.3999999999999,BAMPTON SURGERY,-1.55034,51.729032
1133.91,WOODLANDS MEDICAL CENTRE,-1.258898,51.603637
2539.51,PETROC GROUP PRACTICE,-4.943163,50.430739
1789.7,TAVYSIDE HEALTH CENTRE,-4.145976,50.545824
1894.9,EAST QUAY MEDICAL CENTRE,-3.000471,51.135669
452.4,BREDON HILL SURGERY,-2.104857,52.030166
604.22,HAGLEY SURGERY,-2.144103,52.420783
493.99,KNOCKIN MEDICAL CENTRE,-2.993042,52.79343
143.52999999999997,YARDLEY MEDICAL CENTRE,-1.828397,52.463189
614.2199999999998,PHOENIX FAMILY CARE,-1.51543,52.390005
3697.429999999999,ASHTON MEDICAL GROUP,-2.089184,53.489361
1507.5099999999998,BRADSHAW MEDICAL CENTRE,-2.688594,53.537889
187.68,SAVILE TOWN MEDICAL CTR.,-1.625804,53.68222900000001
172.43,LIMEFIELD ROAD MEDICAL PRACTICE,-2.26047,53.506995
708.3399999999998,THE ORCHARD SURGERY,-0.324352,50.828062
120.43999999999996,THE MATTHEWMAN PRACTICE,-0.149281,51.545823
12.13,RICHARDSON COMMUNITY HOSPITAL,-1.9161529999999998,54.545708
249.13,LAKESIDE SURGERY,-1.310932,53.52812
274.24,THE DANBY PRACTICE,-0.907874,54.468317
333.86999999999995,VALLEY VIEW SURGERY,-1.731903,53.806791
1633.55,THE NORTH LEEDS MEDICAL PRACTICE,-1.534037,53.843332
2251.6800000000007,IVY GROVE SURGERY,-1.402822,53.042198
952.67,FRIAR GATE SURGERY,-1.485624,52.924816
904.7,NAVENBY CLIFF VILLAGES SURGERY,-0.526297,53.103518
1194.72,THE LINDEN MEDICAL GROUP,-1.273642,52.931099
893.9899999999999,ASKERN MEDICAL PRACTICE,-1.148909,53.61549599999999
582.71,BUTE HOUSE MEDICAL CENTRE,-0.423966,51.880162
399.46,LICHFIELD GROVE SURGERY,-0.19329,51.599604
453.24,GURU NANAK MEDICAL CENTRE,-0.387151,51.511774
17.7,WESTMINSTER SCHOOL,-0.128107,51.498762
383.64,SOUTH GREEN SURGERY,0.430504,51.613411
331.1,RICHMOND ROAD MEDICAL CENTRE,-0.065532,51.543051
611.63,THE LAWSON PRACTICE,-0.079465,51.533775
882.7199999999998,LEYTON HEALTHCARE 4TH FLOOR,-0.013313,51.559894
321.6500000000001,FRANCIS ROAD MEDICAL CENTRE,-0.003831,51.561975
1571.7899999999993,OLD SCHOOL SURGERY,0.100722,50.772062
627.84,UNIVERSITY MEDICAL CENTRE,1.062127,51.296198
603.65,ST STEPHENS HOUSE SURGERY,-0.305726,51.31772
512.9699999999999,PARK VIEW HEALTH PARTNERSHIP,-0.137252,50.961825
893.58,LAMBTON ROAD MEDICAL PRACTICE,-0.231169,51.411219
1176.1999999999996,LORDSHILL HEALTH CENTRE,-1.448733,50.940999
1011.38,BYFIELD MEDICAL CENTRE,-1.242893,52.174071
314.45,CAMBRIDGE HOUSE,-2.144827,53.024433
1323.87,ARBURY MEDICAL CENTRE,-1.497961,52.51662
331.23,CHURCH LANE - KHAN,-1.793962,52.487056
512.9600000000002,SOHO ROAD PRIMARY CARE CENTRE,-1.934945,52.503094
189.92,PARK HOUSE SURGERY,-1.942965,52.54446
351.02,BEECHDALE CENTRE,-2.007339,52.600867
1644.27,HOLES LANE MEDICAL CENTRE,-2.545107,53.399828
829.17,LACHE HEALTH CENTRE,-2.914326,53.173615
1095.17,DINGLE PARK PRACTICE,-2.972885,53.38633
2364.88,RAINBOW MEDICAL CENTRE,-2.705931,53.435389
547.46,BEECHWOOD SURGERY,-3.009057,53.871568
1826.71,HEYWOOD HEALTH,-2.239335,53.58736999999999
1013.72,THE GILL MEDICAL PRACTICE,-2.398384,53.524288
801.7300000000001,GLOUCESTER HOUSE MEDICAL CENTRE,-2.352599,53.447337
269.91,PAK HEALTH CENTRE,-1.856091,52.490749
262.00000000000006,WALFORD STREET  TIVIDALE,-2.059752,52.513192
803.0,LITTLE LONDON SURGERY,-1.979284,52.574984
593.27,STRETTON MEDICAL CENTRE,-2.577017,53.339489
123.06999999999998,THE DALE MEDICAL PRACTICE,-2.154239,53.611617
305.46,WALNUT ST MED CTR (LEICESTER MED GROUP),-1.138855,52.624601
486.28,FIR TREE,-2.878691,53.44930600000001
40.28,CAMBRIDGE ACCESS SURGERY,0.138701,52.20875
7.66,NELPCT OUT OF HOURS SERVICE,-0.096229,53.544858
3.9,ANGEL LODGE,-1.50929,53.683308
158.78000000000003,ETTINGSHALL MEDICAL CENTRE,-2.092879,52.570364
0.31,WALK IN CENTRE (WIC),-1.784934,51.563016
4.1,HP NMP'S NN & E CCG,-1.143101,53.130244
5.140000000000001,DONCASTER SOUTH ADULT CMHT,-1.146558,53.497488
379.25000000000006,RUSHEY MEAD HEALTH CENTRE,-1.103823,52.663187
805.51,ST ANN'S ROAD SURGERY,-0.08783399999999998,51.581428
1758.6,LEIGH FAMILY PRACTICE,-2.511927,53.493519
442.75999999999993,THE PRACTICE FELTHAM,-0.411086,51.446367
698.51,HENDON WAY SURGERY,-0.241873,51.579182
1.82,NHS FYLDE & WYRE CCG,-2.881037,53.789498
9.55,SPECIALIST NURSE,-1.517573,53.993807
0.43,VIRGIN CARE SPECIALIST NURSING SHCCG,-0.7846419999999998,51.220491
22.79,TAURUS HEALTHCARE LTD,-2.71099,52.05708
36.0,NC GPA PLUS,-1.152649,52.954624
472.45,CARTMEL SURGERY,-2.946985,54.199165
2479.359999999999,ALNWICK MEDICAL GROUP,-1.6967470000000002,55.410086
728.6999999999998,NETHERFIELD HOUSE,-1.548435,55.063632
2075.52,PRACTICE 3  MEDICAL CENTRE  BRIDLINGTON,-0.201064,54.084715
1149.11,THE ALMONDBURY SURGERY,-1.751311,53.631868
457.50999999999976,NEWLAND SURGERY,-1.424247,53.695146
3858.51,BEACON MEDICAL PRACTICE,0.331219,53.157472
393.37,GREENFIELDS MEDICAL CENTRE (YVS RAO),-1.168583,52.966506
820.1599999999999,TREETON MEDICAL CENTRE,-1.354708,53.384994
1622.5199999999998,MEADOWGREEN HEALTH CENTRE,-1.480804,53.326831
3536.2399999999993,BOROUGHBURY MEDICAL CENTRE,-0.245486,52.577858
1245.2700000000004,THE ROOKERY MEDICAL CENTRE,0.405573,52.245158
0.8399999999999997,COMMUNITY MATRONS,-2.095555,52.599722
0.79,IC24-THANET CCG OOH,0.891514,51.129106
2.18,SJUH GPS IN A+E,-1.520359,53.806869
1227.09,CRUDDAS PARK SURGERY,-1.630965,54.968173
665.1199999999999,THE CHESTNUTS & HALLGATE SURGERY,-0.403621,53.778985
1255.98,HAWORTH MEDICAL PRACTICE,-1.954883,53.831322
1068.31,FIELDHEAD SURGERY,-1.854229,53.641358
1054.16,CROFTON AND SHARLSTON MED PRAC,-1.427042,53.656573
2078.9,SHIRES HEALTHCARE,-1.215692,53.202513
695.53,ORCHARD SURGERY,-1.278154,52.836522
1111.86,ST GEORGES MED PRACTICE,-1.132346,52.930754
299.99,WELBECK SURGERY,-1.147823,52.979645
1255.09,WICKHAM MARKET MEDICAL CENTRE,1.363674,52.151842
714.79,TODDINGTON MEDICAL CENTRE,-0.530482,51.945856
287.19000000000005,THE RANDOLPH SURGERY,-0.186852,51.529819
334.7399999999999,DR YADAVA N PRACTICE,0.334586,51.476703
475.46,ST.PAUL'S WAY MEDICAL CTR,-0.024483,51.517862
1566.5999999999995,THORNHILLS MEDICAL PRACTICE,0.440958,51.300117
1596.2199999999998,OAKLANDS HEALTH CENTRE,1.08253,51.069106
348.81,HEXTABLE SURGERY,0.182972,51.409182
1208.2499999999998,LONGCROFT CLINIC,-0.192332,51.325314
484.0,THE ROEHAMPTON SURGERY,-0.242431,51.451154
1921.79,WYKE REGIS & LANEHOUSE MEDICAL PRACTICE,-2.475127,50.594634
497.6,WHITCHURCH SURGERY,-0.8426209999999998,51.882174
641.92,CRICK MEDICAL PRACTICE,-1.135861,52.343212
1443.0200000000002,KINGSWOOD HEALTH CENTRE,-2.499974,51.462895
1175.84,THE VILLAGE SURGERY,-2.219972,53.033945
1967.4,BIDDULPH VALLEY SURGERY,-2.178498,53.116111
250.28000000000003,RIVERSIDE SURGERY,-1.699518,52.632337
1457.45,THREE VILLAGES MEDICAL PRACTICE,-2.146398,52.465406
603.36,STONE CROSS MEDICAL CENTRE,-1.982689,52.545444
1956.81,STOCKTON HEATH MED.CENTRE,-2.582161,53.37195
1034.7800000000002,THE VILLAGE SURGERIES GROUP,-2.771265,53.124246
992.59,ILEX VIEW MEDICAL PRACTICE,-2.280663,53.70081
764.77,SHIFA SURGERY,-2.475999,53.757295
1683.4099999999994,CHORLTON FAMILY PRACTICE,-2.279717,53.443773
763.2799999999999,OLDHAM MEDICAL SERVICES,-2.111235,53.52535699999999
849.9900000000001,MELROSE SURGERY,-0.9598620000000002,51.451692
148.65,DR R KAPUR & PARTNERS,-1.119092,52.631036
964.07,LEADGATE SURGERY,-1.805988,54.860562
1330.6899999999996,ACLE MEDICAL PARTNERSHIP,1.548667,52.640969
546.23,PEEL CROFT,-1.6339549999999998,52.799271
1114.02,MARTONSIDE MEDICAL CENTRE,-1.220329,54.553175
724.6500000000002,ROCKLIFFE COURT SURGERY,-1.544074,54.483444
2097.24,BEDLINGTONSHIRE MED.GROUP,-1.598682,55.1322
410.53,WESTBOURNE SURGERY,-1.8061,53.650937
1040.3699999999997,MIDDLESTOWN,-1.600562,53.650545
506.25,DR WEBB AND PARTNERS,-1.308041,52.968251
1306.47,GOYT VALLEY MEDICAL PRACTICE,-1.983113,53.3305
368.18,CASTLE STREET MEDICAL CENTRE,-1.293753,53.229627
676.8999999999999,SILVERDALE MEDICAL CENTRE,-1.090548,52.672318
3555.349999999999,HOLT MEDICAL PRACTICE,1.116042,52.914476
1266.35,HOWARD HOUSE SURGERY,1.349626,51.96149
1328.3,PARKBURY HOUSE SURGERY,-0.334063,51.756766
551.31,UXENDON CRESCENT SURGERY,-0.292809,51.572063
245.1,STERNDALE SURGERY,-0.221441,51.498326
797.2899999999998,AEGIS MEDICAL CENTRE,0.467525,51.57556
430.06,AMWELL GROUP PRACTICE,-0.11081700000000001,51.528043
1107.39,MEOPHAM MEDICAL CENTRE,0.359744,51.368901
720.4000000000002,WESTERHAM PRACTICE,0.070437,51.266465
565.8199999999998,FORGE CLOSE SURGERY,0.016555,51.377137
977.0,STEYNING HEALTH CENTRE,-0.329972,50.890666
1818.89,LAVANT ROAD SURGERY,-0.781051,50.853385
642.2400000000001,THORNTON & VALLEY PARK SURGERY,-0.120709,51.388871
497.39,JOHNSON (SHEEN LANE),-0.267239,51.465848
156.52999999999997,BEGG PRACTICE,-0.179391,51.459968
1037.28,MOORDOWN MEDICAL CENTRE,-1.874485,50.756212
420.9,LITTLEDOWN SURGERY,-1.833439,50.741638
976.09,EMMER GREEN SURGERY,-0.972861,51.483584
1537.88,WOLVERTON HEALTH CENTRE,-0.814934,52.054197
2668.4700000000007,ST THOMAS MEDICAL GROUP,-3.54518,50.714472
585.5200000000002,YOXALL,-1.7931740000000003,52.767984
195.63,GREET MEDICAL PRACTICE,-1.857778,52.453195
574.75,PEDMORE MEDICAL PRACTICE,-2.118211,52.457029
1013.0499999999997,BOSWORTH MEDICAL CENTRE,-1.7536330000000002,52.480569
1985.1800000000005,THE PARK MEDICAL PRACTICE,-2.739045,53.77018
244.31000000000003,CROSSWAYS PRACTICE,-3.023992,53.484655
416.15,THE OLD DISPENSARY,-1.987226,50.803427
318.82,STROUD GREEN MEDICAL CENTRE,-0.114328,51.570059
2.21,EASTBOURNE  HAILSHAM & SEAFORD OOH,0.891514,51.129106
5.11,LCW HOUNSLOW CCG OOH,-0.217218,51.522362
1606.94,WEST SOMERSET HEALTHCARE,-3.3186760000000004,51.161419
1233.7699999999998,WEM AND PREES MEDICAL PRACTICE,-2.722566,52.859338
602.61,ALL SAINTS SURGERY,-1.644121,52.794285
2012.41,CENTRAL SURGERY,-1.265473,52.371743
1018.1699999999997,OMNIA PRACTICE,-1.839082,52.475709
368.74000000000007,THE LEIGH SURGERY,0.656153,51.555504
644.5,WEST HAMPSTEAD MEDICAL CENTRE,-0.196578,51.55004
963.75,STAUNTON GROUP PRACTICE,-0.112926,51.599388
1312.4799999999998,SOUTHBROOM SURGERY,-1.989037,51.352288
1388.9,THE DOWNLAND PRACTICE,-1.312402,51.463442
474.72,BLAKENEY SURGERY,-2.476364,51.759117
1381.1699999999996,WELLS HEALTH CENTRE,-2.655326,51.203403
900.5499999999998,RIVERSIDE MED.PRACTICE,-2.755278,52.709209
1062.5199999999998,CHANCERY LANE SURGERY,-1.521755,52.536173
548.9699999999999,NECHELLS PRACTICE,-1.876618,52.493743
1081.48,THE LIMES MEDICAL CENTRE,-1.974677,52.58065500000001
1014.83,TOWNFIELD HEALTH CENTRE,-3.064248,53.378798
119.18,PRINGLE STREET SURGERY,-2.467594,53.742039
747.76,HOPWOOD MEDICAL CENTRE,-2.212052,53.587143
1836.5900000000006,THE KILTEARN MEDICAL CTR.,-2.518506,53.068155
1511.7999999999995,BROADWAY MEDICAL CENTRE,-3.033843,53.912667
866.1500000000003,EGERTON/DUNSCAR HEALTH CENTRE,-2.426383,53.617589
1682.9800000000007,SADDLEWORTH MEDICAL PRACTICE,-2.004957,53.548331
576.9,VILLAGE MEDICAL PRACTICE,-2.095994,53.574817
226.33,EASTGATE SURGERY,-0.519836,51.886145
147.03,SUMMERFIELD GROUP PRACTICE,-1.937353,52.487686
562.3,PHOENIX PRIMARY CARE (SOUTH) LTD,-0.441597,51.88973
625.2200000000001,THURROCK HEALTH CENTRE,0.323317,51.477404
8.87,CWP (WEST) PHYSICAL HEALTH,-2.897884,53.2088
7.01,NSC BOSWORTH HUB,-1.7536330000000002,52.480569
19.520000000000003,SKEGNESS & COAST GP EXTENDED ACCESS HUB,0.342219,53.188059
166.46000000000004,THE OM SURGERY,-1.2057,53.034978
6.1000000000000005,LINCOLN OOH,-0.519635,53.233575
848.5699999999998,THE NEW SPRINGWELLS PRACTICE,-0.340804,52.893623
6.0,SAME DAY HEALTH CNTRE COASTAL HEALTHCARE,-2.859565,54.072841
324.64,CAMP HILL GP LED HEALTH CENTRE,-1.507061,52.533074
3.65,DONCASTER URGENT CARE & OUT OF HOURS,-1.109062,53.530806
474.43000000000006,THE PATEL PRACTICE,-1.1885709999999998,54.661404
1143.48,HOLMSIDE MEDICAL GROUP,-1.66023,54.969004
793.5300000000002,FARROW MEDICAL CENTRE,-1.74312,53.802511
818.3200000000002,PADDOCK AND LONGWOOD FAMILY PRACTICE,-1.80546,53.642119
1527.67,BRAMLEY VILLAGE HEALTH & WELLBEING CTR,-1.623032,53.80781999999999
310.6500000000001,SEVERN SURGERY,-1.065583,52.598801
3988.3299999999986,BEACHES MEDICAL CENTRE,1.727734,52.577124
798.7299999999998,LINDEN ROAD SURGERY,-0.479248,52.14361
1307.6999999999996,CUFFLEY AND GOFFS OAK MEDICAL PRACTICE,-0.113106,51.708171
0.27,NEAS SOUTH TYNESIDE CCG,-1.712365,54.969713
7.899999999999999,GP SERVICES-CRAWLEY HUB,-0.175734,51.240416
51.5,PROCARE HEALTH SERVICES,-0.708282,51.091746
6.409999999999999,GLOUCESTER (CARE UK) OOH,-2.30608,51.879263
10.84,MERTON REHAB BEDS,-0.224115,51.437407
4.28,EXTENDED ACCESS PCD CONISBROUGH GROUP,-1.237653,53.482282
1610.39,THE GARTH,-1.055444,54.532597
803.81,THE GABLES MEDICAL GROUP,-1.564429,55.140811
659.9100000000002,HAYDON BRIDGE & ALLENDALE MEDICAL PRACT,-2.250059,54.975681
938.6400000000001,SPRING TERRACE HEALTH CENTRE,-1.450673,55.010941
1181.4499999999996,PRACTICE ONE,-0.201064,54.084715
1918.48,CHURCH STREET SURGERY,-1.583343,53.681523
1231.5799999999995,SOUTH WIGSTON HEALTH CTR.,-1.129183,52.580452
362.07,BRAMCOTE SURGERY,-1.244985,52.935604
1071.14,CAMPINGLAND SURGERY,0.690978,52.645997
1444.2799999999993,LEIGHTON ROAD SURGERY,-0.66795,51.915779
995.44,WILLOW TREE FAMILY DOCTORS,-0.265224,51.589337
618.1199999999999,QUEENS WALK PRACTICE,-0.312985,51.524803
931.6999999999998,HIGH STREET SURGERY  EPPING,0.113402,51.700812
1563.2799999999993,OLD ROAD SURGERY,1.148421,51.795466
348.64,HIGH STREET SURGERY,0.223589,51.561554
454.5900000000001,THE LIMEHOUSE PRACTICE,-0.028747,51.511253
7.08,MEDICUS HEALTH PARTNERS-WILLOW HOUSE,-0.07659,51.654209
469.94,MAIDSTONE RD RAINHAM SURGERY,0.600379,51.36233
428.46,BANK HOUSE SURGERY,0.069949,51.359218
907.8299999999997,FORDBRIDGE MEDICAL CENTRE,-0.46301,51.431269
825.8300000000002,EVERSLEY MEDICAL CENTRE,-0.11191300000000001,51.388514
585.0,YORK MEDICAL PRACTICE,-0.325697,51.449369
346.4000000000001,BERRYLANDS SURGERY,-0.299929,51.390825
1088.7499999999998,CRICKET GREEN MEDICAL PRACTICE,-0.174025,51.404579
640.72,CARRINGTON HOUSE SURGERY,-0.749217,51.632299
281.15,PROSPECT HOUSE SURGERY,-0.705258,51.701136
351.06,WEMBURY SURGERY,-4.072566,50.32186
687.04,HOLLYOAKS MEDICAL CENTRE,-1.869052,52.377979
921.95,WOODSETTON MEDICAL CENTRE,-2.10089,52.537994
974.63,SHERWOOD HOUSE MEDICAL PRACTICE,-1.959426,52.473851
397.68000000000006,GARSTON FAMILY HEALTH CENTRE,-2.89683,53.353909
759.4899999999999,COMMONFIELD RD SURGERY,-3.086369,53.370187
803.2500000000001,THE BORCHARDT MEDICAL CENTRE,-2.237795,53.434307
161.86,WERNETH MEDICAL PRACTICE,-2.126938,53.53497
275.35,CHAPEL MEDICAL CENTRE,-2.418293,53.449094
340.18000000000006,DR VICTORIA MUIR'S PRACTICE,-0.151358,51.490651
861.2799999999999,WELLFIELD MEDICAL CENTRE,-2.242019,53.512545
1545.4,NEWLANDS MEDICAL CENTRE,-1.226035,54.571931
1188.3800000000006,WIGTON GROUP MEDICAL PRACTICE,-3.159002,54.820303
496.07,THE FAMILY PRACTICE,-3.229282,54.116755
1874.38,SKERNE MEDICAL GROUP,-1.4488,54.654032
1786.28,ST ANDREWS SURGERY,-0.361958,53.735566
518.02,COWGILL SURGERY,-1.814543,53.781952
1659.4000000000005,VILLAGE SURGERY,-1.485797,52.896347
470.2900000000001,THE GLENSIDE COUNTRY PRACTICE,-0.537958,52.75451
510.44000000000005,PLEASLEY SURGERY,-1.250873,53.175809
763.3199999999998,BACON LANE SURGERY,-0.275903,51.605078
958.4099999999999,THE MEDICAL CENTRE  DR JEFFERIES & PARTN,-0.212607,51.481206
118.99,MEANWHILE GARDEN MEDICAL CENTRE,-0.203126,51.522228
2744.88,THE LIMES MEDICAL CENTRE,0.123958,51.706179
709.42,CHIGWELL MEDICAL CENTRE,0.083876,51.60551
435.3,NORTH AVENUE SURGERY,0.735187,51.546618
296.84,ROSERTON STREET SURGERY,-0.010049,51.498482
2.67,MEDICUS HEALTH PARTNERS- BUSH HILL PARK,-0.066545,51.63953
1640.0799999999995,ALBION PLACE MEDICAL PRACTICE,0.529542,51.274206
267.91,OLD PARSONAGE SURGERY,0.460418,51.112785
401.15,TRIVENI PMS,0.058438,51.490321
922.54,HAWTHORNS SURGERY,-0.175174,51.241163
720.5999999999998,TRINITY MEDICAL CENTRE,-0.158437,51.437554
218.54,MITCHAM FAMILY PRACTICE,-0.167118,51.410109
700.17,THE WELLBRIDGE PRACTICE,-2.225354,50.679039
1585.58,THE HARVEY PRACTICE,-1.993525,50.761018
2362.9,HOMEWELL.CURLEW PRACTICE,-0.978019,50.851067
1371.7599999999998,SPA MEDICAL CENTRE,-2.126012,51.366868
531.5899999999999,COOKHAM MEDICAL CENTRE,-0.725805,51.558356
1141.91,THE MISBOURNE SURGERY,-0.558045,51.607786
1094.6799999999996,ORCHARD MEDICAL CENTRE,-2.510659,51.462087
514.5000000000001,LYNGFORD PARK,-3.090916,51.036442
1247.57,STAFFORD HEALTH AND WELLBEING,-2.123291,52.817722
430.62,BOURNBROOK VARSITY MEDICAL CENTRE,-1.929903,52.445713
208.72,CAUSEWAY GREEN ROAD SURGERY,-2.014697,52.484564
1493.38,PATTERDALE LODGE MED CTRE,-2.64461,53.452446
1071.85,SUNLIGHT GROUP PRACTICE,-3.00005,53.363076
685.7599999999999,SHAY LANE MEDICAL CENTRE (KELMAN),-2.31556,53.372189
603.72,BLYTH ROAD MEDICAL CENTRE,-1.20365,53.422231
639.52,CENTRAL MEDICAL CENTRE,-0.245977,52.587
888.2000000000002,HARBOUR MEDICAL PRACTICE,0.324489,50.797353
1305.6999999999996,MORRAB SURGERY,-5.538987,50.116924
1284.6300000000006,WILLOW BANK SURGERY,-2.102853,52.97847
959.1400000000001,EVERGREEN PRIMARY CARE CENTRE,-0.059836,51.623784
4.05,SCS DIABETES SERVICE,-0.150861,51.357264
5.83,BARDOC GP OOH,-2.427769,53.590447
14.3,BANES ENHANCED MEDICAL SERVICE (BEMS+),-2.372621,51.358169
31.27,SHAKESPEARE WIC,-1.525196,53.802098
0.53,BROOMFIELD DOCTOR IN ED,0.465993,51.774654
2.88,LGI GPS IN A+E,-1.551744,53.801445
1245.69,BARBOURNE HEALTH CENTRE,-2.224952,52.208752
715.7000000000002,CRAVEN ARMS SURGERY,-2.835416,52.442323
2012.78,THE HAYMARKET HEALTH CTR,-2.211781,53.060343
940.44,GOLDENHILL MEDICAL CENTRE,-2.221385,53.076901
781.9700000000001,JIGGINS LANE MEDICAL CENTRE,-1.995411,52.436801
0.8399999999999997,DARTMOUTH MEDICAL CENTRE,-2.005409,52.520435
570.9500000000002,ARRAN MEDICAL CENTRE,-1.748679,52.50386700000001
1195.76,CHAPEL LANE SURGERY,-3.061428,53.557075
322.8900000000001,SCHOOLACRE ROAD SURGERY,-1.785797,52.497659
916.8999999999999,DORRIDGE SURGERY,-1.752074,52.372757
1077.36,MORETON CROSS GROUP PRACTICE,-3.111975,53.403551
1717.0699999999995,WITTON MEDICAL CENTRE,-2.507553,53.740232
225.09,WALMERSLEY ROAD MEDICAL PRACTICE,-2.289525,53.599849
939.83,WEST COMMON LANE TEACHING PRACTICE,-0.682441,53.57473100000001
286.56999999999994,QUEENS ROAD SURGERY,-1.474524,52.522119
470.49,BEVAN HEALTHCARE CIC,-1.753352,53.795581
864.25,RIVERSIDE MEDICAL PRACTICE,-1.315584,54.56887
21.41,MEDICUS HEALTH PARTNERS-ENFIELD ISLAND,-0.016992,51.668586
16.98,MERSEYCARE NHS TRUST,-2.826417,53.424035
1330.0200000000002,RISING BROOK,-2.118782,52.787133
79.53999999999998,BLOOMSBURY SURGERY,-1.871892,52.49324300000001
444.56999999999994,ST JAMES MEDICAL PRACTICE2,-2.097323,52.514234
168.17,KHAN MEDICAL PRACTICE,-2.000799,52.613174
592.15,LINGHOLME HEALTH CENTRE,-2.744752,53.457769
2557.83,PEEL HOUSE MEDICAL PRACTICE,-2.365995,53.75089200000001
665.72,ASHURST PRIMARY CARE,-2.772723,53.563208
1665.12,RED BANK GROUP PRACTICE,-2.323706,53.560143
1145.87,MARPLE BRIDGE SURGERY,-2.053323,53.400594
1763.11,GRASMERE SURGERY,-2.511455,53.503236
749.79,GRAVESEND MEDICAL CENTRE,0.369986,51.443932
2122.42,PEASE WAY MEDICAL CENTRE,-1.576495,54.618581
597.32,ELSDON AVENUE SURGERY,-1.525885,55.07062
399.28,DR WICKREMESINGHE SSG,-0.123521,51.469491
4306.580000000001,TELDOC,-2.435206,52.672614
9.64,HAROLD WOOD WIC,0.225699,51.593184
12.29,LEARNING DISABILITIES SERVICE,-1.904396,52.412409
407.9500000000001,CROSLAND MOOR SURGERY,-1.809637,53.63841
6.91,GP EXTENDED ACCESS - HARROGATE,-1.529793,53.996354
681.2500000000001,THE ROSEBERRY PRACTICE,-1.292215,54.611726
1735.9299999999996,ST ANDREW'S MEDICAL PRACTICE,-1.598213,54.699634
2135.84,TANFIELD VIEW MEDICAL GROUP,-1.701373,54.869939
485.38999999999993,DR MITCHELL,-0.503581,53.72075
1005.16,BEECH HOUSE SURGERY,-1.465892,54.010836
2215.61,MANOR PARK SURGERY,-1.628914,53.814076
1104.02,PARKSIDE SURGERY,-1.391868,53.097732
1433.0500000000004,SPINNEY HILL MEDICAL CENTRE,-1.109212,52.637381
290.32,SPRINGFIELD MEDICAL CENTRE,-1.195502,53.003599
999.95,PARKGATE MEDICAL CENTRE,-1.342798,53.455454
770.2099999999998,BURWELL SURGERY,0.331841,52.273327
889.5500000000003,MARTLESHAM SURGERY,1.272068,52.061314
251.5,THE AVENUE SURGERY,-0.319031,51.518389
700.52,THE LILYVILLE SURGERY,-0.199155,51.47377
298.1600000000001,WEST LONDON MEDICAL CENTRE,-0.454699,51.525731
2701.5000000000005,ST.JAMES SURGERY,1.147433,51.787326
592.6199999999998,WITHAM HEALTH CENTRE,0.642876,51.800559
469.4600000000001,QUEENS AVENUE PRACTICE,-0.147916,51.591852
1574.1100000000006,SANDWICH MEDICAL PRACTICE,1.337364,51.274071
228.37,DR RHK SINHA'S PRACTICE,-0.103058,51.482668
300.8499999999999,THE ADDISCOMBE SURGERY,-0.061851,51.376293
1278.96,ADELAIDE MEDICAL CENTRE,-1.475274,51.208539
2467.24,THE CAMBRIDGE PRACTICE,-0.76565,51.254364
566.11,HEATHERLANDS MED CTR,-3.089543,53.381475
717.25,GUTTERIDGE MEDICAL CENTRE,-2.691248,53.769881
499.89,TOWN HALL SURGERY,-2.092973,53.478374
754.14,LILFORD PARK SURGERY,-2.511455,53.503236
54.91,PEEL PRECINCT SURGERY,-0.198814,51.534421
808.6699999999998,CATHEDRAL MEDICAL CENTRE,0.275488,52.413145
15.9,MARSDEN INTERMEDIATE CARE,-1.696689,53.676075
14.0,EXTENDED ACCESS PRIMARY CARE HUB,-0.079465,51.533775
0.43,PCH WARD,-2.077775,52.114052
1.12,LCW WLCCG OOH,-0.217218,51.522362
128.87,MALLING HEALTH AT STOKE ALDERMOOR,-1.479565,52.402142
505.87,DENMARK ROAD SURGERY,-0.06725100000000002,51.393136
6.5,VC WEST LANCS HC-UCC,-2.871252,53.564616
2.48,HOME VISITING SERVICE,-2.165957,53.412542
978.24,MEIR PARK & WESTON COYNEY MEDICAL PRACT,-2.094889,52.966305
429.57000000000005,HAMSTEAD ROAD SURGERY,-1.919012,52.504474
579.24,OAKWOOD SURGERY,-1.858645,52.444556
152.11,SURGERY AUBERY ROAD,-1.846411,52.46633
267.33,MOXLEY MEDICAL CENTRE,-2.051113,52.560033
861.4,NORTH PARK HEALTH CENTRE,-2.995994,53.458392
312.94,MEDICARE UNIT SURGERY,-2.69241,53.725239
892.4400000000002,LOSTOCK MEDICAL CENTRE,-2.328128,53.45458000000001
295.26,THE GROVE MEDICAL PRACTICE,-0.362401,51.55534
345.49,THE GAMSTON MEDICAL CTR.,-1.100495,52.924252
567.3700000000001,LANGLEY MEDICAL PRACTICE,-0.299929,51.390825
506.58,THE DURU PRACTICE,-2.116945,53.543824
2.23,ERDINGTON GP HEALTH & WELLBEING WIC,-1.840871,52.522486
38.29,CENTRAL DURHAM GP EXT'D ACCESS SERVICE,-1.56716,54.7787
257.75,SHAP MEDICAL PRACTICE,-2.677931,54.52889
2721.84,AUCKLAND MEDICAL GROUP,-1.678996,54.648085
1195.16,THE GLEN MEDICAL GROUP,-1.52187,54.97385
2012.2200000000007,ASHBY TURN PRIMARY CARE PARTNERS,-0.6542,53.566147
4614.569999999999,HAXBY GROUP PRACTICE,-1.081866,54.019329
327.61,BRADFORD MOOR PRACTICE,-1.7218490000000002,53.797834
2026.74,ASH GROVE,-1.245572,53.704968
1371.28,MILLVIEW MEDICAL CENTRE,-0.30904,52.981326
871.4299999999998,HOLLIES MEDICAL CENTRE,-1.494834,53.363179
82.75,VERITAS HEALTH CENTRE,-1.481026,53.354257
1136.9499999999996,LONG STRATTON MEDICAL PARTNERSHIP,1.229088,52.491027
1445.1,THE NEVELLS ROAD SURGERY,-0.22942,51.980882
1160.36,THE HEALTH CENTRE PRACTICE,-0.020738999999999997,52.048757
325.2800000000001,HIGHFIELD SURGERY,-0.459233,51.766434
491.34,BELGRAVIA SURGERY,-0.14856,51.495004
167.01,COLLINGWOOD ROAD SURGERY,0.638271,51.802938
718.4300000000002,CHAPEL STREET SURGERY,0.051144,50.79327
1372.11,STOCK HILL SURGERY,0.031768,51.312089
515.6,CLAREMONT MEDICAL CENTRE,-0.306132,51.390808
982.71,WATERFRONT AND SOLENT SURGERY,-1.403379,50.870013
773.46,THE WILLESDEN MEDICAL CENTRE,-0.233873,51.547532
382.42,EASTMEAD AVENUE SURGERY,-0.36274,51.531443
205.5,KINCORA DOCTORS SURGERY,-0.412216,51.511666
208.02,DR M GOYAL'S PRACTICE,0.156711,51.540066
794.52,TOLLGATE MEDICAL CENTRE,0.056362,51.515573
441.9700000000001,HETHERINGTON GROUP PRACTICE,-0.12823,51.460932
238.48,SELHURST MEDICAL PRACTICE,-0.088969,51.390012
930.62,THE WATERFIELD PRACTICE,-0.733923,51.409204
289.75,JERICHO HEALTH CENTRE,-1.265958,51.760293
810.4900000000001,PONTESBURY MEDICAL PRAC,-2.887922,52.650521
964.12,TUTBURY HEALTH CENTRE,-1.686361,52.858454
973.4899999999997,TEAN SURGERY,-1.988036,52.954415
538.94,WAKE GREEN SURGERY,-1.883357,52.446103
630.6099999999999,THORNLEY STREET MEDICAL CENTRE,-2.125789,52.58843
880.8999999999999,MEREPARK MEDICAL CENTRE,-2.300747,53.093285
970.52,RAINHILL VILLAGE SURGERY,-2.763813,53.41631
585.8599999999999,MILE LANE HEALTH CENTRE,-2.335248,53.587814
855.2899999999998,NEW ISLINGTON MEDICAL CENTRE,-2.219472,53.4829
1398.28,CLARENDON MEDICAL CENTRE,-2.079951,53.45264
709.9200000000002,BRAITHWAITE RD SURGERY,-2.574985,53.477412
702.96,WOODGRANGE MEDICAL PRACTICE,0.025253,51.548596
279.18000000000006,JARVIS MEDICAL PRACTICE,-2.095095,53.537786
266.98,DR SP TALPAHEWA,-0.260303,51.616115
2.0,WIRRAL WIC (APH)_WIC APH,-3.096815,53.36964
1.76,IC24 LTD (NORFOLK & WISBECH OOH),0.891514,51.129106
597.6400000000001,BRANDON MEDICAL PRACTICE,0.6233,52.448489
560.2099999999999,BOLTON MEDICAL CENTRE,-2.431399,53.56543
640.0899999999998,THE MANSELL ROAD PRACTICE,-0.358969,51.525654
920.6,WESTCROFT HEALTH CENTRE,-0.795699,52.006367
81.73999999999998,FOUNDATIONS,-1.257899,54.563441
7.79,(FRACTURE CLINIC) NORTH OOH,-0.883829,52.236068
250.93,READING WALK-IN HEALTH CENTRE,-0.9758960000000002,51.454809
4.12,MERSEYCARE NHS TRUST - NMP,-2.933499,53.407265
28.0,NORTH TYNESIDE CARE PLUS,-1.456596,55.011193
0.8,KINGSTON CCG SLDUC OOH,-0.283378,51.412517
0.21,SUFFOLK GP FEDERATION OOH,1.164244,52.044508
1361.16,LOWTHER MEDICAL CENTRE,-3.586392,54.545056
1540.9299999999996,COLLEGE LANE SURGERY,-1.336292,53.644573
1205.3299999999995,THE SURGERY CLIFTON ROAD,-1.737497,53.013356
1267.52,THE ORCHARD MED PRACTICE,-1.231693,52.533972
2610.23,MUNRO MEDICAL CENTRE,-0.147427,52.794037
727.4099999999999,MOSBOROUGH HEALTH CENTRE,-1.364873,53.325238
933.7699999999999,ORCHARD SURGERY MELBOURN,0.020092,52.080651
1534.8700000000006,HIGH STREET SURGERY,1.756043,52.482123
881.62,ANDAMAN SURGERY,1.715485,52.45691600000001
3608.85,STANMORE MEDICAL GROUP,-0.204612,51.913274
722.1,PUCKERIDGE & STANDON SURGERY,0.019374,51.888296
1556.41,KING GEORGE SURGERY,-0.206096,51.907416
605.62,COMMONWEALTH HEALTH CENTRE,0.36308,51.463166
626.8600000000001,KEATS GROUP PRACTICE,-0.17103,51.555534
530.32,BURNT ASH SURGERY,0.009913000000000002,51.452782
1162.7,HILLVIEW MEDICAL CENTRE,-0.557727,51.315501
1039.66,DOWNING STREET GROUP PRACTICE,-0.7989009999999998,51.212905
278.82,ASHBURTON PARK MEDICAL CENTRE,-0.064221,51.384147
599.3299999999998,TAMWORTH HOUSE MEDICAL CENTRE.,-0.146254,51.40122
1002.69,PARKSIDE PRACTICE,-1.353169,50.970948
555.5,ST.PETERS SURGERY,-1.372792,50.897829
405.62000000000006,NEATH HILL HEALTH CENTRE,-0.747321,52.060411
690.28,BATHEASTON MEDICAL CENTRE,-2.317387,51.406032
914.5,DARTMOUTH MEDICAL PRACTICE,-3.580811,50.351157
1095.7799999999997,DARTFORD EAST HEALTH CENTRE,0.236914,51.440747
1200.68,CHURCH STREET PRACTICE,-0.459783,51.37345
687.8399999999998,THE GREYSWOOD PRACTICE,-0.144853,51.419489
396.36,BOLINGBROKE MEDICAL CENTRE (THMP),-0.168282,51.45617
665.0700000000002,LEYBOURNE SURGERY,-1.88721,50.758437
1288.8000000000004,THE BORDER PRACTICE,-0.740565,51.240995
1534.91,PATFORD HOUSE PARTNERSHIP,-2.005519,51.437601
495.21,CHATHAM STREET SURGERY,-0.981895,51.455924
1645.3500000000006,THE CROSS KEYS PRACTICE,-0.830848,51.723655
1238.7099999999996,WHITELADIES MEDICAL GROUP,-2.612382,51.465097
986.2999999999998,HILLCREST SURGERY,-2.431687,51.311982
1199.0499999999995,DEVON SQUARE SURGERY,-3.60508,50.529985
524.9,ESTOVER SURGERY,-4.0952,50.411271
792.8099999999998,THE ROYAL WELL SURGERY,-2.0815,51.906706
701.82,APSLEY SURGERY,-2.187008,53.035377
872.7899999999998,THE LIMES SURGERY MEDICAL CENTRE,-2.114052,52.456884
534.04,ASHFIELD ROAD SURGERY,-2.132841,52.62604399999999
921.9,NORTHGATE MEDICAL CENTRE,-2.892972,53.19509300000001
1282.13,RIVERSIDE SURGERY,-3.006197,53.372004
1193.22,LAYTON MEDICAL CENTRE,-3.027291,53.827425
1559.15,HT PRACTICE,-2.110496,53.478305
805.6499999999997,WESTLEIGH MEDICAL PRACTICE,-2.526024,53.510851
23.5,MEDICUS HEALTH PARTNERS-CURZON AVENUE,-0.036518,51.645435
464.81,WINDMILL SURGERY,-1.48555,52.449933
504.22,ARNOS GROVE MEDICAL CENTR,-0.129838,51.615476
161.35,ST.QUINTIN HEALTH CENTRE,-0.220325,51.519199
501.52,PARK COMMUNITY PRACTICE,-1.871717,53.725678
86.7,NT&H COMM CARDIAC N,-1.227837,54.702398
4.0,BELLE VUE (HOSPITAL BEDS),-1.215564,54.570237
6.53,CHELTENHAM LOCALITY NURSE PRESCRIBER,-2.176389,51.847073
34.05,CARDIAC SERVICE STOKE AND NORTH,-2.109085,52.810605
6.0,CHESTERFIELD HEALTH PROVIDER LTD,-1.43962,53.233943
342.78,MELROSE SURGERY,-1.287301,54.609397
1134.6,BLACKETTS MEDICAL PRACTICE,-1.559007,54.527221
699.2099999999998,DR A SINHA,-0.108523,53.567689
1248.0800000000004,WILLINGTON SURGERY,-1.566835,52.850285
394.56,UPWELL STREET SURGERY,-1.434724,53.406424
814.5399999999998,LAKENHAM SURGERY,1.296577,52.6183
1133.1,MANOR FARM MEDICAL CENTRE,0.690513,52.648544
925.1400000000001,PLOWRIGHT MEDICAL CENTRE,0.686691,52.655577
1518.78,REGAL CHAMBERS SURGERY,-0.275959,51.952843
535.27,STANHOPE SURGERY,-0.032073,51.688002
169.59,THE GARWAY MEDICAL PRACTICE,-0.185494,51.515392
974.99,BEECHWOOD SURGERY,0.292731,51.608567
516.66,THE NIGHTINGALE PRACTICE,-0.062434,51.558261
581.4899999999999,THE GRAHAM PRACTICE,0.048721,51.541534
657.7800000000002,ISLAND HEALTH,-0.013513,51.495357
1266.78,STANFORD MEDICAL CENTRE,-0.148293,50.838378
683.97,NEWINGTON ROAD SURGERY,1.399222,51.343459
1190.9199999999996,BELVEDERE MEDICAL CENTRE,0.144376,51.482567
1927.32,ST.LAWRENCE SURGERY,-0.390026,50.823979
1908.0800000000006,MID SUSSEX HEALTH CARE,-0.175279,50.933719
1263.5399999999995,THE WHITELEY SURGERY,-1.266072,50.88262
4758.24,ACORN HEALTH PARTNERSHIP,-1.114058,51.245047
5669.68,PORTSDOWN GROUP PRACTICE,-1.080952,50.812876
1993.51,THE ELMS PRACTICE,-0.976476,50.789794
1292.45,ESPLANADE SURGERY,-1.158697,50.731943
588.7000000000002,GLASTONBURY HEALTH CENTRE,-2.712893,51.148733
2344.120000000001,MAYFIELD SURGERY,-2.13456,52.982709
660.2900000000002,BRIDGE MEDICAL,-1.506726,55.038077
173.33000000000004,WINDSOR MEDICAL CENTRE,-1.622157,53.693875
1277.0,ASHBOURNE MEDICAL PRACTICE,-1.737589,53.012862
1153.1,THE UPPINGHAM SURGERY,-0.723557,52.594972
1476.6699999999996,ABBEY MEDICAL GROUP,-1.119194,53.100674
891.4099999999999,LOWMOOR ROAD SURGERY,-1.244634,53.100062
931.1600000000003,BIRLEY HEALTH CENTRE,-1.396985,53.340317
1480.4,PARKFIELD MEDICAL CENTRE,-0.179588,51.695129
454.9,REDWOOD PRACTICE,-0.359614,51.461125
508.5,SUNRISE MEDICAL CENTRE,-0.382255,51.51087
776.8199999999998,THE THORPE BAY SURGERY,0.757986,51.534599
371.81,HOLBORN MEDICAL CENTRE,-0.118539,51.522233
312.4899999999999,BRICK LANE SURGERY,-0.048612,51.657327
292.28,ABBEY COURT,0.26122,51.137755
401.8,ELM LODGE SURGERY,-0.096232,51.451506
1002.67,HUDSON (SEYMOUR HOUSE),-0.292773,51.462401
858.4899999999999,OPEN DOOR SURGERY,-0.155581,51.443166
1775.44,THE LIGHTHOUSE GROUP PRACTICE,-1.0805049999999998,50.796551
1414.1700000000005,THE ORCHARD PARTNERSHIP,-1.865867,51.077878
1674.9700000000007,WHADDON MEDICAL CENTRE,-0.7662759999999998,52.000308
661.73,SONNING COMMON HEALTH CTR,-0.982114,51.515603
2004.26,LANDER MEDICAL PRACTICE,-5.055864,50.259982
504.2,BROSELEY MEDICAL PRACTICE,-2.481266,52.611554
351.24,BONEY HAY SURGERY,-1.926768,52.690328
591.0799999999998,BEECH TREE MEDICAL PRACTICE,-1.252936,52.377534
593.34,ALUM ROCK MEDICAL CENTRE,-1.850664,52.489901
116.91,GREENFIELD MEDICAL CENTRE,-1.855764,52.491684
746.0499999999998,THE SURGERY,-2.605295,53.024859
1181.33,PARKGATE SURGERY,-2.882743,53.564772
937.6,MARPLE MEDICAL PRACTICE,-2.064954,53.39495
7.989999999999998,STORTHFIELD HOUSE,-1.332746,53.097559
346.0100000000001,CLOVER CITY PRACTICE,-1.46659,53.38187
10.0,WLCCG EXTENDED HOURS HUBS,-0.217218,51.522362
881.46,ASPATRIA MEDICAL GROUP,-3.337992,54.762123
3669.8700000000013,WILLIAM BROWN CENTRE,-1.33142,54.757994
740.7799999999999,WELLSPRING MEDICAL PRACT.,-1.564066,55.037289
262.47,RED HOUSE MEDICAL CENTRE,-1.424063,54.925457
1270.65,COLNE VALLEY GROUP PRACTICE,-1.9282130000000002,53.602096
364.73,FAMILY DOCTORS,-1.440964,53.798248
1244.0000000000002,ROYSTON GROUP PRACTICE,-1.451018,53.600005
288.88,SOUTHEY GREEN MEDICAL CTR,-1.477666,53.419051
1802.05,IVRY STREET MEDICAL PRACTICE,1.148624,52.064021
417.54,NORTH FULHAM SURGERY,-0.199224,51.486415
80.75,FULHAM CROSS MEDICAL CENTRE,-0.214067,51.482774
52.89000000000001,LAI CHUNG FONG QUEENS PARK HEALTH CENTRE,-0.205826,51.530911
734.2100000000002,NEWBURY GROUP PRACTICE,0.085981,51.576435
2953.5599999999986,HARDWICKE HOUSE GROUP PRACTICE,0.725792,52.0382
1367.78,WHEATFIELD SURGERY,-0.495144,51.904445
265.79999999999995,BRAMPTON HEALTH CENTRE,-0.277386,51.586099
444.72000000000014,DOCKLANDS MEDICAL CENTRE,-0.021143,51.491152
776.3899999999999,BELMONT SURGERY,0.340829,51.061952
1465.87,LONG CATLIS ROAD SURGERY,0.595579,51.348325
477.88000000000005,ABBEY WOOD SURGERY,0.11653,51.497094
643.1900000000002,WOOLSTONE MEDICAL CENTRE,-0.036776,51.438421
665.0300000000002,MINET GREEN HEALTH PRACTICE,-0.105204,51.475715
1146.1900000000005,SOUTHGATE MEDICAL GROUP,-0.194559,51.102316
789.4999999999997,NEW ADDINGTON GROUP PRACTICE,-0.018557,51.344382
505.3,BANBURY ROAD MEDICAL CENTRE,-1.263535,51.774771
2170.390000000001,THE ARMADA FAMILY PRACTICE,-2.571861,51.413438
1111.52,STAFFORD MEDICAL GROUP,-2.914755,51.35259
1151.63,BROCKWORTH SURGERY,-2.156696,51.844575
2236.59,SEVERN VALLEY MEDICAL PRACTICE,-2.235045,52.190415
1241.05,DAWLEY MEDICAL PRACTICE,-2.466781,52.664322
1201.54,LEEK HEALTH CENTRE,-2.019347,53.105691
892.7400000000001,CHASE MEADOW HEALTH CENTRE,-1.608604,52.268838
192.77,HILL TOP PRACTICE,-2.011775,52.537791
651.2399999999998,MAGHULL HEALTH CENTRE (DR SAPRE),-2.943932,53.515597
844.5299999999997,LIME SQUARE MEDICAL CENTRE,-2.164901,53.473649
383.3299999999999,WINDERMERE SURGERY,-2.205709,53.55956
2388.78,BEESTON VILLAGE SURGERY,-1.569152,53.772415
272.43999999999994,HATTON MEDICAL PRACTICE,-0.433285,51.457879
354.6,BLURTON MEDICAL CENTRE,-2.156565,52.972002
26.22,GREAT CHAPEL STREET MEDICAL CENTRE,-0.134097,51.51508
29.31,HASTINGS AND ROTHER OOH,0.891514,51.129106
1417.11,BIRBECK MEDICAL GROUP,-2.742581,54.656125
544.17,BEWICK ROAD SURGERY,-1.601653,54.956398
481.24,WENLOCK ROAD SURGERY,-1.455226,54.972635
1776.7800000000002,WINTERTON MEDICAL PRACTICE,-0.606876,53.652511
798.4399999999998,THE OLD SCHOOL MEDICAL PRACTICE,-1.1424040000000002,53.916163
1093.4699999999998,KEIGHLEY ROAD SURGERY,-1.893907,53.754239
1068.45,MULBERRY STREET MEDICAL PRACTICE,-1.66397,53.794738
1034.2099999999996,CHATSWORTH ROAD MEDICAL CENTRE,-1.467337,53.231374
1588.41,CRICH MEDICAL PRACTICE,-1.482573,53.084327
805.0899999999997,MEXBOROUGH HEALTH CENTRE,-1.279795,53.494237
2187.4,ST VINCENT MEDICAL CENTRE,-1.124029,53.525476
850.2999999999998,LUDHAM AND STALHAM GREEN SURGERIES,1.534423,52.709131
1.76,CASH SERVICES,-1.152629,53.207243
3.51,HAVEN COURT,-1.428468,54.971208
1040.5,BENTHAM ROAD HEALTH CENTRE,-2.50627,53.73058399999999
0.21,HMP EASTWOOD PARK,-2.467383,51.634454
746.62,CRESWELL AND LANGWITH MEDICAL CENTRE,-1.215835,53.262654
20.58,UHMB COMMUNITY NMP,-2.799232,54.042726
2028.03,NORWOOD MEDICAL CENTRE,-3.222974,54.119201
667.8499999999998,BEECHWOOD GROUP PRACTICE,-3.545472,54.642376
1964.15,DENMARK STREET SURGERY,-1.552252,54.538825
1239.2899999999995,WELL CLOSE MEDICAL GROUP,-2.006127,55.77245799999999
1132.2700000000002,PALLION FAMILY PRACTICE,-1.414195,54.908604
718.9799999999998,PICTON MEDICAL CENTRE,-1.77624,53.807296
1442.43,PARKSIDE MEDICAL CENTRE,-0.021998,52.981526
2744.959999999999,ORCHARD MEDICAL PRACTICE,-1.206764,53.141121
1787.0200000000002,THE BURNS PRACTICE,-1.12309,53.520707
936.19,WINCOBANK MEDICAL CENTRE,-1.416316,53.419405
555.7,UEA MEDICAL CENTRE,1.241391,52.622369
517.39,THE VILLAGE SURGERY,-0.168135,51.648069
155.32,THE STREATFIELD MEDICAL CENTRE,-0.30083,51.595343
219.52,THE CHELSEA PRACTICE,-0.166915,51.486814
672.5499999999998,ST. BARTHOLOMEWS SURGERY,0.051755,51.532409
1007.86,RYDAL,0.020102,51.608432
1263.55,GROSVENOR & ST JAMES MEDICAL CENTRE,0.264349,51.137424
564.13,KING GEORGE ROAD SURGERY,0.518518,51.348911
217.29,THE THREE ZERO SIX MEDICAL CENTRE,-0.076403,51.450741
458.9800000000001,VIRGINIA WATER MEDICAL PRACTICE,-0.568235,51.403367
779.0299999999999,NEW OTTERSHAW SURGERY,-0.526005,51.361938
184.20999999999995,THE ALTON PRACTICE,-0.239471,51.44914
5575.23,THE WILLOW GROUP,-1.143034,50.800579
974.49,ALEXANDER HOUSE SURGERY,-0.7520019999999998,51.293749
1365.8,RIDGEWAY VIEW FAMILY PRACTICE,-1.7915709999999998,51.524175
948.3499999999997,GREEN MEADOWS SURGERY,-0.677163,51.426939
847.29,PORT VIEW SURGERY,-4.214351,50.40735
1284.4900000000005,CHURCHDOWN SURGERY,-2.171559,51.882487
1139.9000000000005,STANMORE HOUSE SURGERY,-2.231468,52.391138
1248.9299999999996,WARGRAVE HOUSE SURGERY,-2.712261,52.055418
756.86,VENTNOR MEDICAL CENTRE,-1.203791,50.594548
976.72,THE HALL PRACTICE,-0.561016,51.606986
767.5499999999998,WEST VIEW SURGERY,-2.50212,51.411923
305.35,HARTLAND SURGERY,-4.482549,50.992721
1220.79,STATION DRIVE SURGERY,-2.715141,52.370132
5793.69,SOLIHULL HEALTHCARE PARTNERSHIP,-1.775235,52.419642
933.74,CONCEPT HOUSE SURGERY,-2.98492,53.449136
1721.6,ADELAIDE STREET SURGERY,-3.048397,53.817351
1108.89,LOCKWOOD GP SURGERY,-2.989833,53.850947
259.79,CAVENDISH HEALTH CENTRE,-0.148092,51.519331
1511.8900000000006,BROWNLOW GROUP PRACTICE,-2.96585,53.405021
309.99,HEATHROW MEDICAL CENTRE,-0.433924,51.49302
429.92,THE ENTERPRISE PRACTICE,-0.320613,51.601113
867.38,ODDFELLOWS HALL & ST CLEMENTS,0.327906,51.480703
2.0,COMMUNITY ENT SERVICE,-2.146398,52.465406
436.0299999999999,CHAUCER SURGERY,-1.45237,52.515151
899.35,THE ENDEAVOUR PRACTICE,-1.235397,54.575047
900.67,THE LAKES MEDICAL PRACTICE,-2.742581,54.656125
842.62,EAST PARADE SURGERY,-1.529793,53.996354
518.69,FIELDHEAD SURGERY,-1.639379,53.831787
478.2800000000001,BASLOW HEALTH CENTRE,-1.617823,53.246144
2751.74,OSMASTON SURGERY,-1.467954,52.911084
419.0899999999999,ASQUITH SURGERY,-1.117116,52.601489
1040.21,HOLBEACH MEDICAL CENTRE,0.014430000000000002,52.804778
470.78,YEADING MEDICAL CENTRE,-0.397019,51.533634
341.6500000000001,MAYFAIR MEDICAL CENTRE,-0.150172,51.513536
878.4999999999997,SUN LANE,1.087469,51.071536
425.94,LYDDEN SURGERY,1.23991,51.163193
629.43,THE CHURCH VIEW PRACTICE,0.609995,51.363412
388.86,TRIANGLE GROUP PRACTICE,-0.011071,51.457798
1289.89,SELSDON PARK MEDICAL PRACTICE,-0.06457300000000002,51.342409
518.88,LAMBOURN SURGERY,-1.526933,51.504696
980.18,BICESTER HEALTH CENTRE,-1.157239,51.896742
1027.7700000000002,FOWEY RIVER PRACTICE,-4.635394,50.337915
1489.36,KNOWLE HOUSE SURGERY,-4.134098,50.40863
1496.76,HOLTS HEALTH CENTRE,-2.406966,51.931555
1021.12,CUMBERLAND HOUSE,-2.145844,52.901549
817.5999999999998,BILBROOK MEDICAL CENTRE,-2.181749,52.624775
703.89,VALE OF RED HORSE,-1.510351,52.15797
1350.14,BALSALL COMMON & MERIDEN GROUP PRACTICE,-1.643862,52.394956
929.6899999999998,LANCE LANE MEDICAL CENTRE,-2.911916,53.396196
445.2799999999999,DR A GUPTA BENIM MEDICAL CENTRE,-2.947804,53.419395
1459.59,DINAS LANE MEDICAL CENTRE,-2.861513,53.417388
6830.810000000001,LANCASTER MEDICAL PRACTICE,-2.797202,54.047583
159.56,DR GWD BHIMA,-2.154239,53.611617
1820.77,RIVERSIDE MEDICAL CENTRE,-2.672299,53.748112
293.23,LITTLETOWN FAMILY MED PRACT,-2.134298,53.529137
855.66,NEW COURT SURGERY,-2.30878,52.113538
375.41,THE BARHAM & CLAYDON SURGERY,1.109866,52.110175
866.0199999999996,SWANWOOD PARTNERSHIP,0.519034,51.613356
24.520000000000003,NIGHTINGALE HOUSE,-0.159747,51.449354
384.23,CROWN WOOD MEDICAL CENTRE,-0.736934,51.395919
19.6,CITY REACH HEALTH SERVICES,1.288137,52.633042
974.1400000000001,THE JUNCTION SURGERY,-1.759212,53.643662
17.34,DORKING HEALTHCARE LLP,-0.333421,51.225985
10.69,BADGER GROUP OOH,-1.8778259999999998,52.477589
574.6300000000001,GREAT BRIDGE HEALTH CENTRE,-2.02775,52.527792
3.71,PELC REDBRIDGE OOH,0.066648,51.55684
0.8399999999999997,NON MEDICAL PRESCRIBING SOUTHEND CCG,0.702782,51.583955
42.1,COMMUNITY NURSING (SOUTH TEES),-1.215564,54.570237
4.56,WEST HERTS RESPIRATORY SERVICE,-0.468578,51.750846
41.1,SOUTH DOC VIRTUAL SERVICES,-1.96202,52.401797
636.7099999999998,GREENWOOD SURGERY,0.605168,51.653143
24.85,GP SERVICES - GP HUBS,-0.175734,51.240416
1561.4500000000005,MIDDLE CHARE MEDICAL GROUP,-1.573113,54.855636
561.27,I J HEALTHCARE,-1.531354,54.88104
469.69,OAK GLEN SURGERY,-1.816352,53.854799
1188.34,WELLINGTON HOUSE,-1.634561,53.714775
1666.24,SKELMANTHORPE FAMILY DOCTORS,-1.650686,53.591604
2107.33,LEIGH VIEW MEDICAL PRACTICE,-1.558358,53.728574
343.95,OAKWOOD SURGERY,-1.4290459999999998,52.941386
735.97,THE KAKOTY PRACTICE,-1.473444,53.5464
399.3,PHOENIX PRIMARY CARE (SOUTH) LTD,-0.435422,51.918016
7.95,NEWCASTLE GP IN MOLINEUX WIC,-1.583491,54.977507
0.85,I.C.B. (HENLEY),-0.907912,51.53874
663.34,GILDERSOME HEALTH CENTRE,-1.6293,53.756554
723.4299999999998,HAZELMERE MEDICAL CENTRE,-1.16453,52.57337
663.5999999999998,BURNGREAVE SURGERY,-1.459815,53.393327
1029.61,FELTWELL SURGERY,0.527056,52.48268
1101.32,QUEENS PARK HEALTH CENTRE,-0.493075,52.133151
536.67,ALBANY PRACTICE,-0.310054,51.48676
298.8400000000001,CASSIDY ROAD MEDICAL CENTRE,-0.199015,51.479154
3611.81,COLCHESTER MEDICAL PRACTICE,0.909325,51.890029
691.66,ROWHEDGE SURGERY,0.945058,51.85767
333.22,DR VM PATEL,0.228776,51.561113
222.38,THE HEATHCOTE PRIMARY CARE CENTRE,0.062768,51.593832
1089.6,ESHER GREEN SURGERY,-0.370196,51.375782
327.12,CHILDS (THAMESIDE),-0.326599,51.427449
639.9400000000002,THE CHESSER SURGERY,-0.177303,51.374927
910.98,MOREDON MEDICAL CENTRE,-1.8070689999999998,51.582197
862.46,ASHFIELD MEDICAL CENTRE,-0.7382729999999998,52.019666
1142.33,BUGBROOKE MEDICAL PRACTICE,-1.005426,52.211409
2123.72,TRESCOBEAS SURGERY,-5.085333,50.15531
950.46,BUDSHEAD MEDICAL PRACTICE,-4.150289,50.417443
539.44,TEIGN ESTUARY MEDICAL GROUP,-3.496462,50.5456
900.4800000000001,MITCHELDEAN SURGERY,-2.488369,51.865935
800.8100000000002,LUSON,-3.229566,50.977398
1718.51,HARESFIELD HOUSE SURGERY,-2.202996,52.194829
271.47,HEDNESFORD MEDICAL PRACTICE,-2.000697,52.71233
1691.8300000000006,LAUREL HOUSE SURGERY,-1.692825,52.636563
1038.0599999999997,HANDSWORTH WOOD MED.CTR.,-1.928196,52.51303299999999
367.59,ROTTON PARK MEDICAL CENTRE,-1.947079,52.482162
889.7500000000001,LONGFORD PRIMARY CARE CENTRE,-1.48555,52.449933
1616.85,TETTENHALL MEDICAL PRACTICE,-2.159502,52.600723
2123.2499999999995,READESMOOR MEDICAL GROUP PRACTICE,-2.216792,53.163762
956.52,NEWTOWN SURGERY,-2.735705,53.362158
3031.96,ROPE GREEN MEDICAL CENTRE,-2.453958,53.06655
534.29,PENNY LANE SURGERY,-2.915004,53.389404
490.65,ABINGDON FAMILY HEALTH CARE CENTRE,-2.943503,53.440571
1876.1,WINGATE MEDICAL CENTRE,-2.874647,53.488385
2077.04,AINSDALE MEDICAL CENTRE,-3.03882,53.602403
550.62,CORNERSTONE SURGERY,-2.457402,53.58815500000001
822.6699999999998,BARLBOROUGH MEDICAL PRACTICE,-1.284471,53.289528
520.5899999999998,VICTORIA PARK HEALTH CENTRE,-1.1192,52.619071
528.74,THE WRAGBY SURGERY,-0.301337,53.287948
2355.370000000001,SOUTH GRANGE MEDICAL GROUP PRACTICE,-1.166506,54.56995500000001
692.3600000000001,QUEEN STREET MEDICAL PRACTICE,-3.589063,54.546567
541.66,OLD FORGE SURGERY,-2.079758,54.623041
464.37000000000006,EGTON SURGERY,-0.7552379999999999,54.445555
984.35,VESPER ROAD,-1.615337,53.827318
672.7500000000001,GLADSTONE HOUSE SURGERY,-1.307927,52.968816
247.03,THE PRACTICE-SAYEED,-1.106589,52.63081700000001
1031.4199999999996,GLEADLESS MEDICAL CENTRE,-1.451325,53.356551
1599.54,TRAMWAYS AND MIDDLEWOOD MEDICAL CENTRES,-1.515268,53.418958
566.23,LANGSTONE WAY SURGERY,-0.210815,51.606981
186.37000000000003,ELMTREES SURGERY,-0.335968,51.550787
1481.2099999999996,TULASI MEDICAL CENTRE,0.12448900000000002,51.561005
643.2099999999998,THE MILLER PRACTICE,-0.092165,51.551419
1020.4199999999997,WARRIOR SQUARE SURGERY,0.562007,50.852963
1143.4199999999996,SNODLAND MEDICAL PRACTICE,0.441488,51.326053
634.7200000000001,SUTTON VALENCE GROUP PRACTICE,0.59403,51.211195
848.1099999999999,LEITH HILL PRACTICE,-0.322969,51.150452
1356.9900000000002,THE GROVES MEDICAL CENTRE,-0.26224,51.410048
1287.5199999999998,THE MARINE & OAKRIDGE PARTNERSHIP,-1.806532,50.722838
376.5299999999999,MALTHOUSE MEADOWS SURGERY,-2.568038,50.668698
910.35,THE STAUNTON SURGERY,-0.978019,50.851067
1351.9699999999998,PORT ISAAC SURGERY,-4.824594,50.589808
847.9699999999998,THE CORINTHIAN SURGERY,-2.0815,51.906706
1714.6899999999996,ST JOHNS HOUSE SURGERY,-2.25911,52.18874
841.13,CASTLEFIELDS,-2.129518,52.801013
623.2099999999998,ADDERLEY GREEN SURGERY,-2.135511,52.991714
577.5,HARBURY SURGERY,-1.458027,52.236759
475.23,DR BILAS,-2.063063,52.612824
1284.35,BLUNDELLSANDS SURGERY,-3.041273,53.484452
2134.31,QUEEN SQUARE MEDICAL PRACTICE,-2.800994,54.046219
299.51,DILL HALL SURGERY,-2.390844,53.754996
1259.14,WEST TIMPERLEY MEDICAL CENTRE,-2.353117,53.402699
686.6199999999999,MARUS BRIDGE PRACTICE,-2.643772,53.529393
156.75,SUMMERLEE MEDICAL CENTRE,-0.652145,52.337022
75.51,HEALTH E1,-0.07152500000000002,51.518304
459.38,SLAG LANE MC,-2.575634,53.47856899999999
182.56,THE GRANGE MEDICAL CENTRE,-0.262039,52.57839
138.46,CAXTON HOUSE SURGERY,-1.382415,53.575347
6.0,OUT OF HOURS CENTRE,-1.842798,54.869081
476.25,WESTCOTES MEDICAL CENTRE,-1.153587,52.63133199999999
14.19,PRIMARY HEALTHCARE DARLINGTON,-1.561958,54.528141
8.0,WEST MERTON ACCESS HUB,-0.210281,51.409967
12.0,DERBY CITY SOUTH HEALTHCARE LTD,-1.531656,52.891817
596.4000000000002,REDGATE MEDICAL CENTRE,-2.987659,51.126385
755.19,GREAT WITLEY SURGERY,-2.361004,52.291152
1010.4699999999997,MADELEY PRACTICE,-2.345126,52.999856
1185.9900000000002,GREEN RIDGE SURGERY,-1.8710349999999998,52.428433
692.54,RIVER BROOK MEDICAL CENTRE,-1.913809,52.43303
708.5399999999998,BUNBURY MEDICAL PRACTICE,-2.649377,53.116827
790.23,MURDISHAW,-2.662128,53.323997
859.63,ROCK COURT SURGERY,-2.916187,53.411597
1325.16,POPLAR HOUSE SURGERY,-3.03076,53.754721
1544.9899999999998,QUEENSWAY MEDICAL CENTRE,-2.995384,53.846569
1347.9799999999996,CASTLETON HEALTH CENTRE,-2.18229,53.597034
853.88,HAVEN HEALTH,1.327039,51.96536
1342.2799999999995,DR KK CHAN & PARTNERS,-2.489022,53.524185
3.39,DANEHOUSE MEDICAL PRACTICE,-2.238948,53.791326
913.7699999999999,SWANSWELL MEDICAL CENTRE,-1.816529,52.432515
385.97,DR MALIK - KENT ELMS HC,0.664114,51.563831
290.19000000000005,CITY ROAD MEDICAL CENTRE,-0.091116,51.527895
6.88,SALFORD GP OUT OF HOURS,-2.323424,53.487545
59.54,LEICESTER CITY ASSIST PRACTICE,-1.136115,52.637338
476.14,BOTOLPH BRIDGE COMMUNITY HEALTH CENTRE,-0.261557,52.562595
279.90000000000003,SHORTSTOWN MEDICAL CENTRE,-0.432463,52.110853
23.02,MK URGENT CARE SERVICES OOH,-0.7357599999999997,52.026384
17.32,NOTTINGHAM CITYCARE,-1.155769,52.951832
8.48,ASHTON PCC SEVEN DAY ACCESS OOH,-2.099981,53.485827
1324.7300000000002,THE HAWTHORNS SURGERY,-1.825965,52.538746
1008.86,PARK HOUSE MEDICAL CENTRE,-2.805295,53.42670699999999
1099.1699999999996,SOUTH KING STREET MEDICAL CENTRE,-3.047855,53.816775
719.94,DR A CALOW'S PRACTICE,-2.503837,53.742584
741.2700000000002,ST MARY'S MEDICAL CENTRE,-2.108554,53.543625
2020.83,CHEADLE MEDICAL PRACTICE,-2.213539,53.393745
691.8000000000002,GREEN STREET GREEN MED CT,0.089996,51.354366
448.82000000000005,3/ST ANDREWS MEDICAL CENTRE,-2.339619,53.484875
959.99,HORIZON HEALTH CENTRE,-2.965121,51.331294
5.11,ANN MARIE HOWES CENTRE,-1.7785380000000002,52.464805
567.8400000000001,BLACKFRIARS,-2.254244,53.484135
7.92,BEDSER HUB,-0.556304,51.315132
1.69,AIREBOROUGH COMMUNITY CARE,-1.684881,53.866663
471.85999999999984,CALDBECK SURGERY,-3.050622,54.749864
862.13,OXFORD STREET SURGERY,-3.5505760000000004,54.64373
116.36,WRAYSDALE HOUSE SURGERY,-3.076077,54.367247
2229.6700000000005,SAVILLE MEDICAL GROUP,-1.609598,54.976095
1079.35,COOK BF,-0.357512,53.780969
490.68000000000006,PEELER HOUSE SURGERY,-0.438756,53.72252
903.23,DR INGRAM & PTRS,-1.526892,54.136451
2064.7200000000007,LINGWELL CROFT SURGERY,-1.535053,53.749986
486.16,HOUNSFIELD SURGERY,-0.811033,53.183702
456.24,LENSFIELD MEDICAL PRACTICE,0.124449,52.198365
812.2400000000001,CEDAR BROOK PRACTICE,-0.41413199999999994,51.534092
2.4,THE ROYAL MEWS SURGERY,-0.145223,51.498764
518.31,ROSE VILLA SURGERY,0.506616,51.566232
1049.43,ADELAIDE MEDICAL CENTRE,-0.161257,51.543548
289.51,DR DHITAL PRACTICE,-0.003074,51.587786
286.73,HOLLINGTON SURGERY,0.872487,51.151423
1478.4899999999998,WOODLANDS HEALTH CENTRE,0.38485,51.18077
327.63,NORHEADS LANE SURGERY,0.026739,51.314542
496.8,HARTLAND WAY SURGERY,-0.045782,51.374372
686.85,BOYATT WOOD SURGERY,-1.36001,50.977856
420.92,GREENFORD ROAD MED.CTR.,-0.345702,51.537697
579.0500000000002,THE OAKLAND MEDICAL CENTRE,-0.45129300000000006,51.546055
376.13,QUEENS WALK MEDICAL CENTRE,-0.393155,51.562716
544.79,THE ABINGDON HEALTH CENTRE,-0.197138,51.496085
937.5299999999999,THE ARDLEIGH SURGERY,0.985096,51.927073
1239.88,ADDISON HOUSE - HAQUE PRACTICE,0.088979,51.770891
365.71,ST PETER'S STREET MEDICAL PRACTICE,-0.100772,51.535597
283.19,ABERFELDY PRACTICE,-0.004927,51.514483
1905.95,STONE CROSS SURGERY,0.289944,50.816757
427.81000000000006,ELTHAM PALACE PMS,0.053714,51.449946
723.36,BROCKBANK (PARK ROAD),-0.334596,51.423912
1238.0699999999995,CHAWTON PARK SURGERY,-0.989411,51.139814
681.54,STOKENCHURCH MEDICAL CTRE,-0.904033,51.660479
398.8500000000001,MARSHALLS ROAD SURGERY,-0.539225,52.344743
331.85,HOLLINSWOOD SURGERY,-2.437453,52.673936
446.92,ABBOTS BROMLEY SURGERY,-1.880966,52.819974
1919.24,DARWIN MEDICAL CENTRE,-1.831505,52.694061
1728.16,THE OAKS MEDICAL CENTRE,-1.895827,52.552454
296.14,VICTORIA ROAD MEDICAL CTR,-1.887197,52.501868
1216.64,ST JOHN'S MEDICAL CENTRE,-1.932532,52.626307
676.0999999999998,NEWBRIDGE SURGERY,-2.155299,52.5936
2250.06,THE CORNERSTONE PRACTICE,-2.4524,53.739201
728.1699999999998,TOWNSIDE SURGERY,-2.29898,53.59031
387.00000000000006,GOODMAYES MEDICAL CENTRE,0.10990599999999999,51.567626
195.81,PARK GRANGE MEDICAL CENTRE,-1.775929,53.789415
165.60000000000005,ST.GEORGES MEDICAL CENTRE,-0.24612,51.558731
380.4500000000001,HETHERINGTON AT THE PAVILION,-0.116397,51.461633
649.25,OAKWOOD MEDICAL CENTRE,-0.134269,51.646534
864.4900000000001,SOUTH HERMITAGE SURGERY,-2.752497,52.699728
46.65,GPSI CARDIOLOGY - WESTCLIFFE,-1.781103,53.830481
22.82,EAST KENT HEADACHE SERVICE,1.414787,51.390277
52.24,SMGPF,-2.237795,53.434307
1.82,INSULIN HUB - EAST LOCALITY,-1.374025,54.895168
636.1,REDBURN PARK MEDICAL CENTRE,-1.474775,55.00092
320.68,CASTLETOWN MEDICAL CENTRE,-1.450848,54.913341
325.3300000000001,ALDBROUGH ST JOHN SURGERY,-1.684645,54.496518
300.06,EAST PARADE MEDICAL PRACTICE,-1.061835,53.965993
419.2799999999999,BARKEREND HC - EL ELIWI,-1.7218490000000002,53.797834
2719.630000000001,SHAFTESBURY MEDICAL CTR.,-1.497858,53.800234
769.7899999999997,GROBY ROAD MEDICAL CENTRE (ID PATCHETT),-1.150468,52.644337
437.02,ROSEMEAD DRIVE SURGERY,-1.083088,52.5934
90.83,AR-RAZI MEDICAL CENTRE,-1.101204,52.623926
761.88,BRANSTON & HEIGHINGTON FAMILY PRACTICE,-0.467988,53.195831
1724.68,FOUNTAIN MEDICAL CENTRE,-0.8043829999999998,53.07286
972.6699999999998,OAKENHALL MEDICAL PRACT,-1.199437,53.03661700000001
1184.29,SCAWSBY HEALTH CENTRE PRACTICE,-1.167843,53.53678299999999
1286.8399999999995,ST. GEORGE'S MEDICAL CENTRE,0.298817,52.458085
1092.0500000000004,LAWNS PRACTICE,1.109092,52.378889
1007.2099999999997,CENTRAL SURGERY,0.147747,51.812546
430.7900000000001,CHURCH END MEDICAL CENTRE,-0.253241,51.54757
625.9999999999999,BRENTFORD GROUP PRACTICE,-0.310054,51.48676
612.8000000000002,THE DEVONSHIRE LODGE PRACTICE,-0.397406,51.579266
241.57,THE HOXTON SURGERY,-0.086829,51.533527
340.46,LL MEDICAL CARE LTD,0.0021,51.555415
1918.7899999999993,JUBILEE MEDICAL CENTRE,0.300332,51.3978
517.21,LAMBETH WALK GROUP PRACTICE,-0.11259100000000001,51.495609
921.24,STANWELL ROAD SURGERY,-0.470567,51.438013
4880.28,THE ADAM PRACTICE,-2.07822,50.757881
536.14,SOUTHMEAD SURGERY,-0.616953,51.552538
280.25,CLIFTON HAMPDEN SURGERY,-1.211451,51.658625
553.3699999999999,GROOMBRIDGE AND HARTFIELD MED GRP,0.184416,51.113952
916.42,POND TAIL SURGERY,-0.066728,51.246436
1471.4,THE WALL HOUSE SURGERY,-0.208192,51.241304
314.79,THE HALING PARK PARTNERSHIP,-0.098109,51.357113
785.1099999999999,THE PRINCE OF WALES SURGERY,-2.457579,50.713502
1130.9,BRANKSOMEWOOD H/CARE CTR,-0.8448069999999998,51.281888
678.32,THE GROVE SURGERY,-0.735114,52.023651
1282.48,PROBUS SURGERY,-4.948542,50.290121
1825.71,ABBEY SURGERY,-4.150401,50.546904
1218.8299999999995,WHITEACRES MEDICAL CENTRE,-2.300547,52.124716
384.0899999999999,WOODSIDE MEDICAL PRACTICE,-2.466175,52.637949
1094.36,LYME VALLEY MEDICAL CENTRE,-2.22375,53.006305
807.41,AUDLEM MEDICAL PRACTICE,-2.508717,52.989615
642.8000000000002,KENNETH MACRAE MED CENTRE,-2.786435,53.49903
1469.94,BODEY MEDICAL CENTRE,-2.214798,53.440636
368.52,WOODLANDS MEDICAL PRACTICE,-2.31213,53.406624
356.22999999999985,DR PAL,-2.595495,53.47988
484.02,BATH ROAD SURGERY,-0.37684,51.469395
664.9400000000002,CHAPEL ROW SURGERY,-1.17086,51.425877
432.0,WOODLANDS MEDICAL PRACTICE,-0.170943,51.592914
6.989999999999999,EPUT COMMUNITY CARDIOLOGY,0.12393,51.704295
13.97,SOUTH YORK HEART FAILURE NURSES,-1.082907,53.951837
4.0,HEALTHBRIDGE DIRECT,0.020102,51.608432
8.12,EXTENDED HOURS SERVICE-ONE LIFE,-1.214164,54.682342
584.39,CRAMLINGTON MEDICAL GROUP,-1.591516,55.084481
2556.5799999999995,KINGSTON MEDICAL GROUP,-0.349365,53.756137
221.75,WESTFIELD MEDICAL CENTRE,-1.531703,53.817673
1596.95,VERNON STREET MEDICAL CTR,-1.49039,52.924019
676.21,STUBLEY MEDICAL CENTRE,-1.488541,53.304986
1802.79,BRIDGE COTTAGE SURGERY,-0.215995,51.830002
812.0300000000002,GRANGE STREET SURGERY,-0.335878,51.757298
404.93999999999994,CHICHELE ROAD SURGERY,-0.216241,51.55483
316.80000000000007,SHIRLAND ROAD MEDICAL CENTRE,-0.203904,51.5292
617.86,DR KRISHNAN & PTNR - KENT ELMS HC,0.664114,51.563831
531.06,CRANHAM HEALTH CENTRE,0.265291,51.568865
582.06,ST PETER'S SURGERY,1.41893,51.362936
480.87,LEWISHAM MEDICAL CENTRE,0.004522,51.458513
421.92,STEWKLEY ROAD SURGERY,-0.71666,51.898041
222.68000000000004,SIBFORD SURGERY,-1.479244,52.037614
1639.4400000000005,NEW COURT SURGERY,-2.958059,51.345794
2013.16,AXMINSTER MEDICAL PRACTICE,-2.999226,50.780899
2746.46,COLERIDGE MEDICAL CENTRE,-3.2835660000000004,50.751704
862.0399999999998,LYDNEY PRACTICE,-2.529867,51.727913
903.77,PRICES MILL SURGERY,-2.224938,51.693801
1568.5899999999995,ST. JOHNS SURGERY,-2.059728,52.337612
1487.5200000000007,THE ALDERGATE MED.PRACT.,-1.695644,52.639079
769.96,YARDLEY WOOD HEALTH CENTRE,-1.859168,52.418648
1403.0800000000004,MONTAGUE MEDICAL PRACTICE,-0.872899,53.707031
1946.05,EASTGATE MEDICAL GROUP,-1.462815,54.006795
993.4,HORTON BANK PRACTICE,-1.806018,53.774478
1294.37,MARSH MEDICAL PRACTICE,0.143689,53.445069
2341.6999999999994,HUDDERSFIELD ROAD SURGERY,-1.485631,53.558165
1820.88,SWALLOWNEST HEALTH CENTRE,-1.317097,53.362997
1380.4299999999994,SHERINGHAM MEDICAL PRACTICE,1.214777,52.939688
1715.69,KNEBWORTH & MARYMEAD MEDICAL PRACTICE,-0.184972,51.866323
232.79,THE HODFORD ROAD PRACTICE,-0.199318,51.569038
726.6399999999999,HAZELDENE MEDICAL CENTRE,-0.275394,51.547592
508.05,CLOISTER ROAD SURGERY,-0.265589,51.521352
519.5599999999997,ABBEY ROAD MEDICAL PRACTICE,0.005881,51.534784
282.85,BOUNDARY HOUSE SURGERY,-0.054245,51.632475
1270.5899999999995,MANOR PARK MEDICAL CENTRE,0.24261,50.819107
1077.1700000000003,CHURCH LANE HEALTH CENTRE,0.941162,50.984187
2642.95,BETHESDA MEDICAL CENTRE,1.414787,51.390277
969.16,WOODLANDS SURGERY,0.088913,51.439755
1040.58,LILLIPUT SURGERY,-1.954229,50.711523
2715.9100000000008,WESTBURY GROUP PRACTICE,-2.203558,51.252792
1742.35,PENRYN SURGERY,-5.10336,50.167504
1086.47,CROWN MEDICAL CENTRE,-3.080969,51.029111
1059.8999999999996,BARN CLOSE SURGERY,-1.859248,52.03627
321.6000000000001,HIGHLEY MEDICAL CENTRE,-2.392978,52.456165
294.4199999999999,ALVELEY MEDICAL PRACTICE,-2.353309,52.454738
574.38,WOLSTON SURGERY,-1.392727,52.376806
567.2299999999998,BALLIOL ROAD SURGERY,-1.471449,52.415924
703.71,NEWTON MEDICAL CENTRE,-2.638386,53.457172
906.1599999999999,GREASBY GROUP PRACTICE,-3.121417,53.377628
591.65,LOSTOCK HALL MEDICAL CTR.,-2.688037,53.727502
396.88,KNOWSLEY MEDICAL CENTRE,-2.300551,53.588497
484.83,TIMPERLEY HEALTH CENTRE (WESTWOOD),-2.323566,53.397228
78.04999999999998,SUMMERFIELD URGENT CARE CENTRE WIC,-1.937353,52.487686
418.95,PENINSULA MEDICAL PRACTICE,-2.915665,54.18795600000001
649.69,ROSEWORTH SURGERY,-1.61867,55.001366
3265.69,GREENGATES MEDICAL GROUP,-0.418494,53.844343
2290.17,HEBDEN BRIDGE GROUP PRACTICE,-2.010942,53.744036
1239.38,LIMES MEDICAL CENTRE,-1.387885,53.098493
815.5899999999997,CHURCHSIDE MEDICAL PRACTICE,-1.203539,53.146592
771.1499999999999,SELSTON SURGERY,-1.299871,53.070196
911.95,CRYSTAL PEAKS MEDICAL CENTRE,-1.354473,53.342881
1393.0300000000002,LINCOLN HOUSE SURGERY,-0.469093,51.737355
1036.6500000000003,STOCKWELL LODGE MED.CTR.,-0.055287,51.713792
463.47,SOUTHEND MEDICAL CENTRE,0.708516,51.540069
408.79,DR DEVARAJA VC PRACTICE,0.44359,51.520015
380.88,DR PM PATEL,0.219281,51.55632
274.94,THE MITCHISON ROAD SURGERY,-0.087357,51.544992
421.63000000000005,FOUNTAYNE ROAD HEALTH CENTRE,-0.065145,51.56442
1359.7399999999998,FRAMLINGHAM SURGERY,1.334192,52.227216
369.97,ARCHWAY SURGERY,-0.532167,51.72275
471.92,CHURCH LANE SURGERY,-0.262165,51.574931
144.17999999999995,CHISWICK FAMILY DRS PRACTICE,-0.259879,51.493563
297.26,ACRE SURGERY,-0.411552,51.604465
298.7800000000001,CHOWDHURY,0.233898,51.592339
465.75,CUMBERLAND MEDICAL CENTRE,0.026047,51.519716
769.5699999999998,ILFORD MEDICAL CENTRE,0.07431899999999998,51.556823
1072.92,RYE MEDICAL CENTRE,0.730363,50.961944
273.55000000000007,MAIDSTONE RD CHATHAM SURGERY,0.516708,51.361226
262.87,VASSALL MEDICAL CENTRE,-0.10851199999999998,51.477558
1227.69,WITLEY SURGERY,-0.650163,51.156457
1068.55,FARMHOUSE SURGERY,-1.7595,50.736437
1095.08,JENNER HOUSE SURGERY,-0.7745189999999998,51.294302
396.32,LONG BARN LANE SURGERY,-0.967033,51.436181
2711.390000000001,WESTONGROVE PARTNERSHIP,-0.74378,51.76588
927.95,MILBORNE PORT SURGERY,-2.471962,50.967502
753.04,OMBERSLEY MEDICAL CENTRE,-2.229023,52.276554
1979.88,FURLONG MEDICAL CENTRE,-2.208139,53.063325
1057.7799999999997,NORFOLK STREET SURGERY,-2.182794,53.01602
519.31,PARADISE MEDICAL CENTRE,-1.494835,52.426778
693.0700000000002,MAYFIELD MEDICAL CENTRE,-2.093284,52.583046
861.2600000000001,LEVENSHULME MEDICAL PRACTICE,-2.188524,53.446352
944.4899999999997,HEALD GREEN HEALTH CENTRE 2,-2.229276,53.369878
444.88,SMITH (RICHMOND LOCK),-0.322897,51.464517
351.26,CHILLINGTON HEALTH CENTRE,-3.693645,50.272623
696.11,JUBILEE GARDENS MEDICAL CENTRE,-0.368739,51.521097
489.2699999999999,BLACKHEATH MED CTR,-3.104694,53.412239
195.99,AMBAR MEDICAL CENTRE,-1.991354,52.575093
247.24000000000004,GOLDINGTON ROAD SURGERY,-0.456174,52.140172
1737.7100000000007,DMC ST MARYS ISLAND SURGERY,0.538105,51.406776
460.8,POPLAR PRIMARY CARE CENTRE,-1.890326,52.43631
2958.07,THORNABY & BARWICK MEDICAL GROUP,-1.292128,54.538149
1943.76,BRAMPTON MEDICAL PRACTICE,-2.734846,54.94237
1154.33,RISEDALE SURGERY,-3.224778,54.109942
953.9000000000002,ROWLANDS GILL MEDICAL CENTRE,-1.742896,54.91936
1344.85,THE SUTTON MANOR SURGERY,-0.315294,53.785759
1229.18,PLANE TREES GROUP PRACTICE,-1.894437,53.730448
1146.89,THORNTON MEDICAL CENTRE,-1.576209,53.791908
2801.3100000000004,JESSOP MEDICAL PRACTICE,-1.372226,53.074348
4411.42,THE PARK MEDICAL PRACTICE,-1.432644,52.928801
707.74,BRAILSFORD & HULLAND MEDICAL PRACTICE,-1.624927,52.96943
1133.6999999999996,MERRIDALE MEDICAL CENTRE (RP TEW),-1.160752,52.620146
873.4299999999998,THE MAYFLOWER MEDICAL PRACTICE,-1.01945,53.431872
1427.0,BASLOW RD  SHOREHAM ST & YORK RD SRGIES,-1.531066,53.316325
335.81,OVER SURGERY,0.012018,52.314809
1453.41,DR TUN & PARTNERS,-2.583571,53.532102
1007.14,ST.ANTHONY'S HEALTH CENTRE,-1.55655,54.966674
1074.5399999999997,MANOR DRIVE MEDICAL CENTRE,-0.24836599999999998,51.380785
8.939999999999998,WESTCALL OOH,-0.8315749999999998,51.410524
5.37,NELFT SOUTH WEST ESSEX CS,0.496195,51.591456
4.36,HILLINGDON UCC,-0.461175,51.526077
0.85,EAST STAFFS IMPROVING LIVES,-1.6480290000000002,52.798809
1228.07,BISHOPS CLOSE MEDICAL PRACTICE,-1.599142,54.699817
2364.82,CLEE MEDICAL CENTRE,-0.041433,53.566223
1578.11,WIBSEY & QUEENSBURY MED P,-1.779715,53.767225
416.92,SOUTHOWRAM SURGERY,-1.831696,53.712293
478.82,WHITWICK HEALTH CENTRE,-1.3606790000000002,52.742576
1743.74,MARKET SURGERY,-1.345958,53.502635
434.66999999999985,BALDWINS LANE SURGERY,-0.448705,51.654076
430.62000000000006,DERWENT CRESCENT MEDICAL CENTRE,-0.175285,51.622908
1331.09,THE STANMORE MEDICAL CENTRE,-0.304021,51.60154
736.51,NEASDEN MEDICAL CENTRE,-0.247382,51.559667
219.03,BROOK GREEN SURGERY,-0.218145,51.495291
2246.8099999999995,ABBEY FIELD MEDICAL CENTRE,0.898575,51.877487
126.14999999999998,JOHN SMITH MEDICAL CENTRE,0.112125,51.538899
303.72,TOTTENHAM HEALTH CENTRE,-0.068474,51.604755
315.63999999999993,DR MOHAMMED GREEN MAN MEDICAL CENTRE,0.015000999999999999,51.571506
611.2499999999999,FAIRFIELD PMS,0.038949,51.483908
272.29999999999995,PARKSIDE MEDICAL CENTRE,-0.092642,51.475826
653.7900000000002,NORK CLINIC,-0.215842,51.326429
809.5200000000002,QUEENHILL MEDICAL PRACTICE,-0.066791,51.34499
680.6399999999999,GRAND DRIVE SURGERY,-0.228811,51.402155
1998.73,THE BOSMERE MEDICAL PRACTICE,-0.990581,50.850232
1741.5599999999995,BURNHAM HEALTH CENTRE,-0.662137,51.5349
652.2900000000002,THE LONG BUCKBY PRACTICE,-1.08255,52.30049
3251.3900000000012,ASPEN MEDICAL PRACTICE,-2.225797,51.865969
662.7399999999999,GLOUCESTER CITY HEALTH CENTRE,-2.245328,51.860355
3279.28,ABBEY HOUSE MEDICAL PRACTICE,-1.160725,52.260319
1392.15,NORTON BROOK MEDICAL CENTRE,-3.782122,50.288739
315.8,SOMERSET BRIDGE MEDICAL CENTRE,-2.995883,51.115105
1577.36,TRENT VALE MEDICAL PRACTICE,-2.201785,52.987386
386.59,BROOKSIDE SURGERY,-1.399088,52.35048
900.5599999999998,NORTHWAY MEDICAL CENTRE,-2.130997,52.54810500000001
1484.94,MARTON MEDICAL PRACTICE,-3.034524,53.812843
1533.7099999999994,CORNISHWAY GROUP PRACTICE,-2.265017,53.379925
2014.78,BRAMHALL HEALTH CENTRE,-2.162929,53.36001
819.5900000000001,MAYNARD COURT SURGERY,0.020165,51.685605
474.78,AYLESBURY SURGERY,-1.876053,52.542854
209.86,NEVILLE ROAD SURGERY,-0.443036,51.906419
1.39,UNIV HOSP NORTH DURHAM OOH,-1.593834,54.788497
1.0,WILTSHIRE CCG SAS,-1.991573,51.347339
505.17,BOWLING GREEN STREET SURGERY,-1.133096,52.63304599999999
7.25,BCHC MEDICINES MANAGEMENT,-1.9537779999999998,52.398207
1665.18,YARM MEDICAL PRACTICE,-1.355519,54.50530500000001
670.04,BENSHAM FAMILY PRACTICE,-1.617038,54.952781
1244.3200000000004,BURTON CROFT SURGERY,-1.57692,53.820807
290.17,EASTMOOR HEALTH CENTRE,-1.476864,53.690004
361.72,HARTINGTON SURGERY,-1.810816,53.142488
557.07,THE PRACTICE BEAUMONT LEYS,-1.15392,52.662296
790.9899999999997,TASBURGH LODGE SURGERY,-0.21375,53.151242
1313.74,SOTHALL & BEIGHTON HEALTH CENTRES,-1.340221,53.337895
204.65,KINGSWAY SURGERY,-0.437208,51.517478
321.6,FIVE ELMS MEDICAL PRACTICE,0.14235,51.553315
123.15,SPUR ROAD SURGERY,-0.086621,51.586597
807.2899999999998,THE MEADS SURGERY,0.091624,50.969686
515.06,ALBION STREET SURGERY,-0.133965,50.827627
1258.71,BELLEGROVE SURGERY,0.09579,51.464561
1161.5299999999995,SOUTH VIEW PARTNERSHIP,0.026125,51.405111
467.67,CORNERWAYS SURGERY,-0.404519,50.81566
1934.21,CHEAM GP CENTRE,-0.225239,51.368621
141.98000000000005,WALLINGTON MEDICAL CENTRE,-0.129285,51.357345
1309.2500000000005,THE BANKS & BEARWOOD MEDICAL CENTRE,-1.9292169999999997,50.768326
487.33,MERE SURGERY,-2.265342,51.089873
224.88,RAGSTONE ROAD SURGERY,-0.601832,51.503747
755.86,COMBE DOWN SURGERY,-2.345599,51.361003
1086.82,WADEBRIDGE & CAMEL ESTUARY PRACTICE,-4.835729,50.514816
703.6199999999999,NORTH PETHERTON SURGERY,-3.013922,51.09139
202.88,HANDSWORTH MEDICAL PRACT.,-1.941212,52.505377
1010.14,EVE HILL MEDICAL PRACTICE,-2.096805,52.512922
277.6,BEARWOOD MEDICAL CENTRE,-1.97344,52.476903
910.84,THE GROUP PRACTICE ALFRED SQUIRE ROAD,-2.080754,52.599417
1592.1699999999996,WEST DERBY MEDICAL CENTRE,-2.895944,53.431273
236.13,BEEHIVE SURGERY,-2.419172,53.564161
296.13,QUEENS MEDICAL CENTRE,-2.235847,53.50081899999999
1681.9199999999996,LANGWORTHY MEDICAL PRACTICE,-2.294771,53.489371
219.33,LEY HILL SURGERY,-1.983266,52.421346
996.9,THE CHEYLESMORE SURGERY,-1.503924,52.391324
170.56000000000003,DR. B. K. PRASHARA,-2.114816,52.456326
811.0100000000001,ST PETER'S SURGERY,-1.984855,52.594537
1061.7299999999998,ORMSKIRK HOUSE SURGERY,-2.74261,53.456686
1120.4199999999996,MANOR HEALTH CTR,-3.044493,53.421061
1898.78,THE PENDLE MEDICAL PARTNERSHIP,-2.144307,53.915882
1470.8999999999994,3/SPRINGFIELD HOUSE MEDICAL PRACTICE,-2.362019,53.480252
2042.54,PENNINE MEDICAL CENTRE,-2.040966,53.515337
355.37000000000006,THE CROSSROADS SURGERY,-2.770123,53.417492
273.2,CRESCENT SURGERY,0.106446,51.389854
257.45,GREEN CEDARS MEDICAL CENTRE,-0.073642,51.616071
259.38,THE KINGSWAY PRACTICE,-2.135588,53.612168
81.97,WHITE HORSE SURGERY,0.343258,51.435153
14.549999999999995,LAS S.E. LONDON IUC CAS,-0.10903099999999999,51.500174
2.67,HEART FAILURE SERVICE,-2.629091,53.55774
15.46,WEST KENT GROUP,1.118942,51.075872
679.9300000000002,CHAPELFORD PRIMARY CARE CENTRE,-2.633066,53.39615799999999
8.349999999999998,BRAMHOPE DERMATOLOGY COMMUNITY CLINIC,-1.61581,53.881903
383.93000000000006,BHF LUNDWOOD SURGERY,-1.438538,53.557711
8.0,SOTON COMMUNITY ENT SERVICE WESTON LANE,-1.370694,50.888213
1348.97,DALTON SURGERY,-3.179816,54.155917
596.74,THE SELE MEDICAL PRACTICE,-2.095702,54.970372
912.0100000000001,WOODLANDS PARK HEALTH CTR,-1.628825,55.04614
634.65,CONCORD MEDICAL PRACTICE,-1.524864,54.913411
1372.5700000000004,MARKET WEIGHTON GROUP PRACTICE,-0.674786,53.864903
706.1099999999997,RAJ MEDICAL CENTRE,-0.113968,53.550655
1616.2999999999995,MAYFORD HOUSE SURGERY,-1.446534,54.328376
1322.03,OAKWOOD LANE MEDICAL PRACTICE,-1.493931,53.819982
3768.04,HEALTH CARE FIRST PARTNERSHIP,-1.393615,53.736872
1118.14,HAVEN MEDICAL CENTRE,-1.416874,52.891498
1101.66,COUNTESTHORPE HEALTH CENTRE,-1.136767,52.554536
1418.4499999999994,CASTLE HEALTHCARE PRACTICE,-1.144908,52.930476
1836.72,BROOM LANE MEDICAL CENTRE,-1.332311,53.417383
558.03,CADDINGTON SURGERY,-0.458179,51.864502
681.1,ANNANDALE MEDICAL CENTRE,-0.17421099999999998,51.698571
8.81,GREENWICH CCG GP ACCESS HUB,0.050556,51.457843
516.8900000000001,WEST ROAD MEDICAL CENTRE,-1.656263,54.976209
681.8600000000001,IMEARY STREET PRACTICE,-1.424863,54.98753000000001
198.89000000000004,THE KILLINGHOLME SURGERY,-0.260335,53.62990799999999
1011.07,DR SINHA & PARTNERS,0.100204,53.030138
419.67,THE HEALTH CARE SURGERY,-1.487911,53.42172
842.25,COMBERTON SURGERY,0.018614,52.189811
996.72,TRINITY & BOWTHORPE MEDICAL PRACTICE,1.280248,52.624411
899.9200000000003,THE LIMES SURGERY,-0.010842,51.759413
900.1099999999999,SHEPHALL HEALTH CENTRE,-0.167642,51.890799
335.0499999999999,WAKEMANS HILL SURGERY,-0.254209,51.587088
302.67999999999995,WESTBOURNE GROVE MEDICAL CENTRE,-0.200361,51.514211
1083.1900000000003,FOREST PRACTICE,0.07523499999999998,51.654789
277.99000000000007,PRASAD,0.210579,51.600308
832.35,HARROW ROAD GP CENTRE,0.012856,51.559538
355.43,SEVEN DIALS MEDICAL CENTRE,-0.147743,50.829681
1487.13,NORTHDOWN SURGERY,1.368001,51.379866
307.35,MILTON REGIS SURGERY,0.7321839999999998,51.349193
1052.38,BARCROFT MEDICAL CENTRE,-1.780526,51.172939
343.55,BURBAGE SURGERY,-1.669545,51.348496
2529.07,THE SWAN PRACTICE,-0.985664,52.001593
1725.9199999999996,PIONEER MEDICAL GROUP,-2.617628,51.510306
585.0899999999998,THE CREST FAMILY PRACTICE,-2.596274,51.428746
217.1,WORTHEN MEDICAL PRACTICE,-3.000165,52.635224
1037.5,NESTON MEDICAL CENTRE,-3.064349,53.291818
455.8499999999999,KIRKDALE MEDICAL CENTRE,-2.973842,53.433523
685.5500000000002,WITHNELL HEALTH CENTRE,-2.556663,53.692491
2209.67,DARWEN HEALTHLINK,-2.471427,53.695744
1689.4800000000002,ST.MARY'S HEALTH CENTRE,-2.729589,53.747433
677.92,DAVID MEDICAL CENTRE,-2.268652,53.43186
668.2199999999998,DR ABBAS,-0.841253,52.26834
319.15,FACCINI HOUSE SURGERY,-0.189379,51.389682
748.87,EDLESBOROUGH SURGERY,-0.588625,51.868423
438.6,DR GS KALKAT'S PRACTICE,0.103861,51.527941
415.54,JRB HEALTHCARE BEECHDALE SURGERY,-1.198142,52.961504
161.72,THE LYNWOOD SURGERY,-0.29964,51.528594
340.5099999999999,CHURCH VIEW MEDICAL CENTRE,-2.960328,50.935622
1893.6799999999994,WOODLANDS FAMILY MEDICAL CENTRE,-1.321204,54.561215
200.64,ASKAM SURGERY,-3.210918,54.183705
2368.73,FERRYHILL AND CHILTON MEDICAL PRACTICE,-1.556828,54.689838
1044.5200000000002,COLLIERY COURT MEDICAL GROUP,-1.460703,54.949762
767.2300000000001,GRANGE PARK SURGERY,-1.7481080000000002,53.912695
1612.7299999999998,THE COUNTY PRACTICE,-1.069884,52.70073000000001
2693.5899999999992,BEECHFIELD MEDICAL CENTRE,-0.145012,52.787253
861.4899999999999,GRIMETHORPE SURGERY,-1.378978,53.573614
710.66,THE OAKWOOD SURGERY,-1.073937,53.506609
957.83,PAPWORTH SURGERY,-0.11749200000000001,52.252071
1477.9499999999996,ORCHARD SURGERY,0.944176,52.678309
1257.08,DR JK MARSDEN'S PRACTICE,-0.436528,51.894968
1183.92,MALTINGS SURGERY,-0.337918,51.751851
506.84,HANWELL HEALTH CENTRE (NAISH),-0.334375,51.510263
1017.96,WHITLEY HOUSE SURGERY,0.455723,51.726539
1627.2600000000007,WEST ROAD SURGERY,0.70187,51.544989
369.2900000000001,JOYDENS WOOD MEDICAL CENTRE,0.166397,51.42449
2627.559999999999,TRAFALGAR MEDICAL GROUP PRACTICE,-1.092485,50.785331
1067.1699999999996,EASTFIELD HOUSE SURGERY,-1.323251,51.395555
1187.2800000000004,RECTORY MEADOW SURGERY,-0.6175,51.669079
1402.1799999999996,TUDOR LODGE SURGERY,-2.975378,51.332396
859.82,PRAZE-AN-BEEBLE SURGERY,-5.309264,50.173753
1518.2999999999995,CAMBRIAN MEDICAL PRACTICE,-3.047774,52.86281
610.24,PENN SURGERY,-2.145001,52.568567
1135.9399999999996,FIRDALE MEDICAL CENTRE,-2.537387,53.253804
1138.94,HALL GREEN SURGERY,-2.741349,53.540745
290.95,SARAF MEDICAL PRACTICE,-2.076954,53.561455
197.7,LATIMER HEALTH CENTRE,-0.049503,51.54659
509.39,DELL MEDICAL CENTRE,0.328114,51.480258
550.8800000000001,KIRKSTALL LANE MEDICAL CENTRE,-1.587333,53.816942
729.89,WHITCHURCH SURGERY,-1.340372,51.230256
474.61000000000007,DR NEWMAN,-1.975441,50.719722
0.1,GATDOC OOH,-1.580781,54.93938000000001
443.09,THE TRINITY MEDICAL CENTRE,0.085815,51.478803
3.22,CARE UK OOH,1.210633,52.034014
0.55,IC24 LTD (HWLH OOH),0.891514,51.129106
3.8,BURNLEY LOCALITY NMPS,-2.238948,53.791326
699.02,KIRKBY COMMUNITY PRIMARY CARE CENTRE (3),-1.248741,53.10176
992.5400000000002,BERKLEY PRACTICE,-2.024533,52.58916
1297.72,BELLE VALE HEALTH CENTRE,-2.859752,53.392035
833.6200000000001,ELIZABETH STREET SURGERY,-3.043658,53.820839
1123.5199999999998,RAMSBOTTOM MEDICAL PRACTICE,-2.319287,53.64878
