total_cost,name,longitude,latitude
1522.88,COLVILLE HEALTH CENTRE,-0.206231,51.515837
3674.35,RICHMOND MEDICAL GROUP,-0.267239,51.465848
1086.22,ARCHWAY MEDICAL CENTRE,-0.126124,51.562541
1370.17,ATHENA MEDICAL CENTRE,-0.053257,51.554943
2676.04,LAKE ROAD PRACTICE,-1.078356,50.804825
2472.5,ROUNDWELL MEDICAL CENTRE,1.203795,52.648844
3.21,EAST BIRMINGHAM LCN FLEX PILOT,-1.817518,52.478024
4964.03,ST.JAMES SURGERY,1.147433,51.787326
1247.87,THE MAYFLOWER MEDICAL PRACTICE,-1.01945,53.431872
1100.26,HYLTON MEDICAL GROUP,-1.414195,54.908604
3239.67,EDENFIELD ROAD SURGERY,-2.188671,53.622297
393.84,THE EXMOOR SURGERY,-0.217218,51.522362
3625.76,CLEVEDON MEDICAL CENTRE,-2.84572,51.437228
868.56,ST ALBANS SURGERY,0.133341,51.537112
228.01,NDUC NORTH TYNESIDE OOH,-1.58819,55.01932
836.19,COLLINGWOOD FAMILY PRACTICE,-1.903405,52.55667
33.6,PETERSFIELD GP EXTENDED ACCESS HUB,-0.942399,51.003885
1642.36,POPLAR HOUSE SURGERY,-3.03076,53.754721
2236.98,MARTON MEDICAL PRACTICE,-3.034524,53.812843
2764.09,OAKRIDGE PARK MEDICAL CENTRE,-0.777853,52.068655
657.21,THE TUDOR HOUSE MEDICAL CENTRE,-0.266689,51.564495
1917.83,GRANGE STREET SURGERY,-0.335878,51.757298
2181.56,THE PARK SURGERY,1.729276,52.606218
2456.25,BIDDULPH VALLEY SURGERY,-2.178498,53.116111
1659.37,THE BALAJI SURGERY  THE SPARKBROOK CHC,-1.871333,52.462659
845.07,HARLEY GROVE MEDICAL CTR.,-0.027752,51.527964
1149.97,STREATFIELD HEALTH CENTRE,-0.30812,51.593812
1550.69,THE LIMES SURGERY MEDICAL CENTRE,-2.114052,52.456884
797.5,STAVERTON SURGERY,-0.22584,51.544182
1575.67,SPRINGWELL MEDICAL GROUP,-1.422181,54.890239
1523.73,DR WS RIDDELL'S PRACTICE,-1.223723,53.260141
275.56,SMS COMMUNITY DERMATOLOGY CLINIC,-1.398499,50.913503
2039.67,VIOLET LANE MEDICAL PRACTICE,-0.107972,51.360366
3835.9,PARKSIDE GROUP PRACTICE,-0.098549,51.350645
4355.34,BEDFORD HILL FAMILY PRACTICE,-0.149067,51.44085
1706.05,KINGS MEDICAL CENTRE,-1.216402,54.571717
3161.03,SILVERDALE PRACTICE,-0.121708,50.952843
2546.56,PENNY'S HILL PRACTICE,-1.894499,50.801788
1511.45,APPLEBY SURGERY,-1.456596,55.011193
8.73,COMMUNITY TEAM BODMIN,-4.72264,50.472848
1841.81,ASHWELL MEDICAL CENTRE,-1.778612,53.803786
1597.32,BARTON SURGERY,-4.088247,50.359085
1178.48,WEST MERTON ACCESS HUB,-0.210281,51.409967
1700.17,AVON VALLEY PRACTICE,-1.812104,51.294105
4188.48,THE ARMADA FAMILY PRACTICE,-2.571861,51.413438
1444.51,WOODVIEW MEDICAL CENTRE,-0.841889,52.268682
2451.45,PRINCES GARDENS SURGERY,-0.766458,51.250407
10.48,COMMUNITY NURSING,-2.372621,51.358169
3323.66,WELLFIELD HEALTH CENTRE,-2.147479,53.606581
1267.28,BRAITHWAITE RD SURGERY,-2.574985,53.477412
1738.35,SEDLESCOMBE & WESTFIELD SURGERIES,0.534725,50.934129
1460.06,PDS MEDICAL OOH,-3.023363,53.797158
1667.37,RIVERSIDE SURGERY,0.180773,51.479567
2668.91,RIDGEWAY VIEW FAMILY PRACTICE,-1.791571,51.524175
4664.44,SCHOPWICK SURGERY,-0.299293,51.645362
51.66,URGENT CARE CENTRE HRCH,-0.324434,51.473648
370.08,WORTHING MIAMI GP ACCESS HUB,-0.390026,50.823979
1361.59,THE WOOTTONS SURGERY,0.437136,52.790343
1093.03,THE WILLOWS MEDICAL PRACTICE,-2.309137,53.485461
1233.6,STRATFORD VILLAGE SURGERY,0.006461,51.542096
1179.75,MIRFIELD SURGERY,-1.776956,52.469072
2988.37,COMMONWEALTH HEALTH CENTRE,0.36308,51.463166
1414.44,HENDON WAY SURGERY,-0.241873,51.579182
2410.2,JUBILEE HEALTHCARE,-1.518884,52.403423
16.93,HAYWOOD HOSPITAL INPATIENT,-2.191413,53.056944
2830.9,THE ELMS MEDICAL CENTRE,0.557729,51.4201
7.58,SUFFOLK FOOT SURGERY CENTRE,1.196861,52.052722
781.49,WIGMORE MEDICAL CENTRE,0.588765,51.352272
2480.21,VICTORIA ROAD SURGERY,1.716498,52.471024
2279.79,INTEGRATED CARE 24 LTD (CWSX OOH),0.891514,51.129106
1066.51,CHURCH HILL SURGERY,1.229008,52.428527
2401.25,E HARLING & KENNINGHALL MEDICAL PRACTICE,0.932279,52.43909
2864.89,WATLING MEDICAL CENTRE,-0.262021,51.603291
27.41,SUSSEX BEACON,-0.112934,50.838597
848.87,OXFORD ROAD MEDICAL PRACTICE,-1.603365,54.699579
176.9,DR SURYANI,-2.070174,52.552984
6773.01,CARN TO COAST HEALTH CENTRES,-5.268154,50.226222
2323.36,OLD HARLOW HEALTH CENTRE,0.134039,51.784038
16.36,LYMPHOEDEMA SERVICE FOR SANDWELL CCG,-1.953778,52.398207
4498.63,NORTHAM SURGERY,-4.215465,51.038082
1020.96,KIRKDALE MEDICAL CENTRE,-2.973842,53.433523
4041.78,WEAVERS MEDICAL,-0.733538,52.401531
1881.7,LITTLEWICK MEDICAL CENTRE,-1.304838,52.966452
2798.43,ST JAMES' MEDICAL CENTRE,-2.289474,53.708959
1941.05,REVEL SURGERY,-1.361421,52.41228
478.02,RUDGWICK MEDICAL CENTRE,-0.450643,51.090073
1692.48,COACHMANS MEDICAL PRACTICE,-0.203875,51.096335
3456.78,BISHOPS CLOSE MEDICAL PRACTICE,-1.599142,54.699817
2033.55,DR YADAVA N PRACTICE,0.334586,51.476703
2043.09,LONG CLAWSON MEDICAL PRACTICE,-0.923909,52.839215
2790.49,ABBEY MEDICAL PRACTICE,-1.951015,52.091043
58.45,COMMUNITY DERMATOLOGY SERVICE,-2.033839,52.472088
1533.35,REDBURN PARK MEDICAL CENTRE,-1.474775,55.00092
774.11,THE DENSHAM SURGERY,-1.318986,54.561625
1043.47,ROSERTON STREET SURGERY,-0.010049,51.498482
2645.46,DR FIRTH AND PARTNERS,-0.608263,51.713308
45.88,ENFIELD COMMUNITY SERVICES,-0.084383,51.662127
4315.77,QUEENSWAY  MEDICAL CENTRE,0.714012,51.541786
2.94,GLOUCESTERSHIRE CARE SERVICES NHS TRUST,-2.176389,51.847073
1293.91,BRUCE GROVE PRIMARY HEALTH CARE CTR,-0.070141,51.592004
5232.06,KEATS GROVE SURGERY,-2.099546,52.614561
919.33,CRICK MEDICAL PRACTICE,-1.135861,52.343212
451.32,SILTON SURGERY,-2.315694,51.074742
1368.18,FISHERGATE HILL SURGERY,-2.714363,53.754455
704.15,WWL NURSES,-2.629091,53.55774
1966.02,APPLETREE MEDICAL PRACTICE,-1.486919,52.985104
3529.64,SOUTH LEWISHAM GROUP PRACTICE,-0.013043,51.430269
421.57,NAYAR JK,-0.368366,53.768793
334.51,SPEKE HC - DR SINGH & DR BICHA,-2.838793,53.340911
2.78,WALDRON - HURLEY UNREGISTERED PRACT WIC,-0.031433,51.476334
303.23,BRADFORD STUDENT HEALTH SERVICE,-1.768359,53.785323
6711.35,STANMORE MEDICAL GROUP,-0.204612,51.913274
504.25,HARTLAND SURGERY,-4.482549,50.992721
1272,KIRPAL MEDICAL PRACTICE,-1.934945,52.503094
1594.44,RICHMOND GP ALLIANCE,-0.313083,51.415592
3334.6,FARNHAM DENE MEDICAL PRACTICE,-0.777405,51.200549
10.5,PARK HEALTH CENTRE,-1.454225,53.377769
847.16,THE ADDERLANE SURGERY,-1.845745,54.962605
1663.98,DR BAKER & PARTNERS,0.548167,51.570733
1464.1,THE PANTON PRACTICE,-1.862595,50.72093
3098.02,CLEVELEYS GROUP PRACTICE,-3.042545,53.875111
492.16,BRAMLEY AVENUE SURGERY,-0.141707,51.323235
968.26,THE WEARDALE PRACTICE,-2.002656,54.746005
1018.8,LEA ROAD MEDICAL PRACTICE,-2.140864,52.575971
679.58,THE ROBINS SURGERY  HAROLD HILL HEALTH C,0.224895,51.606266
1223.47,THE CEDAR PRACTICE,-0.093757,51.568531
279.69,BOLEYN ROAD PRACTICE,0.031124,51.538882
4841.35,DMC ST MARYS ISLAND SURGERY,0.538105,51.406776
4749.66,TAMAR VALLEY HEALTH,-4.320073,50.503476
1141.5,THE ROEHAMPTON SURGERY,-0.242431,51.451154
2009.12,ROYAL CRESCENT,-2.078966,51.900098
1251.08,CHURCHWOOD MEDICAL PRACTICE,0.539934,50.878228
956.69,AKSYR MEDICAL PRACTICE,-0.263604,51.542472
2818.2,NEWNHAM WALK SURGERY,0.110503,52.199281
1793.54,MARKET SURGERY,1.253177,52.791348
2628.2,THE MEDICAL CENTRE BUNTINGFORD,-0.02183,51.949019
3027.73,PARK LANE SURGERY,-0.021245,51.746514
459.17,COVENT GARDEN MEDICAL CENTRE,-0.123689,51.515564
17.39,NEAS NORTH TYNESIDE CCG,-1.712365,54.969713
308.64,WINDSOR MEDICAL CENTRE,-1.622157,53.693875
1512.71,THE VILLAGE MEDICAL CENTRE,-0.647436,51.51295
1488.93,WHITBURN SURGERY,-1.364667,54.952795
4233,ABBEY SURGERY,-4.150401,50.546904
2925.62,URGENT CARE CENTRE (NELFT),0.002638,51.578831
3051.37,HAMPSTEAD GROUP PRACTICE,-0.163076,51.553171
110.6,CITY REACH HEALTH SERVICES,1.288137,52.633042
5645.29,EAST LANCS MEDICAL SERVICE OOH,-2.442698,53.747769
1743.65,NEW FOREST MEDICAL GROUP,-1.576665,50.81471
1053.01,DISTINGTON SURGERY,-3.541351,54.595305
3520.2,ROSEDALE SURGERY,1.705996,52.457187
618.07,DRS RAJCHOLAN & GEORGE,-2.057836,52.613672
722.42,GREEN LANE  GOODMAYES MEDICAL PRACTICE,0.113559,51.563316
2505.21,NORTHBROOK HEALTH CENTRE,-1.821273,52.419657
2347.16,GORTON MEDICAL CENTRE,-2.171985,53.463168
1166.7,YEADING MEDICAL CENTRE,-0.397019,51.533634
1066.13,BEESTON VILLAGE SURGERY,-1.569152,53.772415
362.23,MATLOCK ROAD SURGERY,-0.157915,50.843638
1562.66,CBS OOH,-1.233579,53.134573
1515.98,WATERFRONT AND SOLENT SURGERY,-1.403379,50.870013
528.84,GARSTON FAMILY HEALTH CENTRE,-2.89683,53.353909
1979.6,NORTHERN MOOR MEDICAL PRACTICE,-2.285109,53.408049
2006,EMERSONS GREEN MEDICAL CENTRE,-2.477023,51.492762
3532.68,THE GREEN HOUSE SURGERY,-1.068807,54.599299
1195.48,BATTERSEA RISE GROUP PRACTICE,-0.163474,51.460833
63.68,RESPIRATORY CLINIC,-2.095555,52.599722
3907.73,DRAYTON MEDICAL PRACTICE,1.226086,52.679249
587.81,HAVERFIELD SURGERY,-0.449803,51.711933
2153.43,GLOUCESTER HEALTH ACCESS CENTRE,-2.239997,51.862659
691,WOKING COMMUNITY HOSPITAL WIC,-0.556304,51.315132
49.65,NL EXTENDED ACCESS,-0.647232,53.568261
2932.46,ST STEPHENS GATE MEDICAL PARTNERSHIP,1.286835,52.623967
4694.89,MARKET CROSS SURGERY,0.510146,52.343506
3980.32,STOCKPORT MEDICAL GROUP,-2.177788,53.402873
1561.19,EMPINGHAM MEDICAL CENTRE,-0.593784,52.667718
904.98,FOSSE MEDICAL CENTRE (GK SHARMA),-1.152153,52.636707
1596.94,FARROW MEDICAL CENTRE,-1.74312,53.802511
4387.35,THE HAYMARKET HEALTH CTR,-2.211781,53.060343
300.71,CHARLOTTE STREET SURGERY,-2.424635,53.592518
1.05,BROMLEY HEALTHCARE-CROYDON DIABETES,-0.064573,51.342409
1617.64,SHERBOURNE MEDICAL CENTRE,-1.532618,52.29289
4902.3,CHURCH LANGLEY MEDICAL PRACTICE,0.132734,51.767477
758.85,ELGIN CLINIC,-0.198468,51.524818
3914.82,COWES MEDICAL CENTRE,-1.302115,50.75145
1775.22,THE BRIDGE GROUP PRACTICE,-0.375759,53.787555
11348.07,DUDLEY URGENT CARE CENTRE OOH,-2.118518,52.502944
3482.78,PADDOCK AND LONGWOOD FAMILY PRACTICE,-1.80546,53.642119
2804.22,DYKES HALL MEDICAL CENTRE,-1.506024,53.40514
870.06,ALBION STREET SURGERY,-0.133965,50.827627
693.97,RIPON OOH,-1.527195,54.135436
1473.74,WIVENHOE SURGERY,0.961234,51.856059
1554.98,BRIGSTOCK & SOUTH NORWOOD PARTNERSHIP,-0.109304,51.395046
408.6,BROOKFIELD PARK SURGERY,-0.142656,51.563724
2195.43,ALBION PLACE MEDICAL PRACTICE,0.529542,51.274206
1101.41,BROADMEAD MEDICAL CENTRE,-2.58948,51.457392
436.05,PGPA IMPROVED ACCESS CENTRAL,-1.892899,53.721064
1000.84,DR SJC CLAY'S PRACTICE,-1.216618,52.72642
1511.75,WEOBLEY & STAUNTON ON WYE SURGERIES,-2.87187,52.159258
1254.13,THORNTON & VALLEY PARK SURGERY,-0.120709,51.388871
2499.58,LITTLE LONDON SURGERY,-1.979284,52.574984
1112.36,MULBERRY HOUSE SURGERY,-1.402391,50.931652
2672.39,BEDLINGTONSHIRE MED.GROUP,-1.598682,55.1322
2180.59,MILLVIEW SURGERY,-1.203958,53.144123
289.12,NDUC GP OUT OF HOURS SERVICE (OOH),-1.372186,54.879952
728.93,COURT THORN SURGERY,-2.826247,54.801828
4808.65,COASTAL VILLAGES PRACTICE,1.685649,52.674686
638.14,CROSTON MEDICAL CENTRE,-2.773743,53.666146
1375.04,PARK VIEW SURGERY,-0.435833,53.72979
6.88,MARTIN HOUSE HOSPICE,-1.344259,53.900051
16.71,COMMUNITY INTERMEDIATE CARE SERVICE,-2.455551,53.733223
4553.41,CORNERWAYS MEDICAL CENTRE,-2.85592,53.422901
1269.87,BRENTFIELD MEDICAL CENTRE,-0.260251,51.550588
1012.17,SUCCESS CENTRE - MOREDON,-1.807069,51.582197
1755.58,ASHFIELD HOUSE (ANNESLEY),-1.256047,53.07651
978.42,EASTHAMPSTEAD SURGERY,-0.753965,51.405543
221.5,ACTON TOWN MEDICAL CENTRE,-0.28217,51.50246
5082.59,ST MARY'S SURGERY,0.258109,52.398364
1351.88,SOUTHVIEW MEDICAL PRACTICE,-0.559823,51.313647
1006.43,SMA MEDICAL PRACTICE,-0.008594,51.571154
3480.81,HUMBERSTONE MEDICAL CENTRE (IP JONES),-1.089641,52.645126
24.87,COMMUNITY ENT SERVICE,-2.262369,53.406329
1180.41,CHACEWATER HEALTH CENTRE,-5.155777,50.25596
2395.13,DR MAASSARANI & PARTNERS,-2.88656,53.495201
1009.09,UPMINSTER BRIDGE SURGERY,0.235279,51.558957
424.73,DR DEVARAJA VC PRACTICE,0.44359,51.520015
2403.02,HENFIELD MEDICAL CENTRE,-0.275597,50.936107
2603.25,CHEDDAR MEDICAL CENTRE,-2.775544,51.274669
3160.62,BEACONSFIELD MEDICAL PRACTICE,-0.148293,50.838378
915.51,QUEENS ROAD MEDICAL CENTRE,-0.02047,51.579799
56.73,RDASH FT COMMUNITY NURSING,-1.146558,53.497488
8.99,HP NMP'S NW CCG,-1.143101,53.130244
2465.91,STENNACK SURGERY,-5.484395,50.210854
845.27,ROCHESTER ROAD SURGERY,0.390394,51.435136
712.75,MINSTER MEDICAL CENTRE,0.793061,51.415409
2350.79,BROOKLANDS HEALTH CENTRE,-0.675657,52.044408
423.19,WIDDRINGTON SURGERY,-1.62051,55.240248
1103.02,HARBURY SURGERY,-1.458027,52.236759
1219.64,THE ALLENDALE ROAD SURGERY,-0.319827,51.551186
658.37,BEGG PRACTICE,-0.179391,51.459968
1639.77,PARKGATE SURGERY,-2.882743,53.564772
2131.85,FRIMLEY PRIMARY CARE OOH,-0.742029,51.319666
5.93,WHITTINGTON HEALTH (HARINGEY),-0.139066,51.566482
1598.44,LEIGH NHS WIC,-2.511455,53.503236
1036.44,ALL SAINTS SURGERY,-1.644121,52.794285
1561.84,KNOCKIN MEDICAL CENTRE,-2.993042,52.79343
1611.13,LIME GROVE MEDICAL CENTRE,-1.55303,53.139004
1369.01,DEVONSHIRE GREEN MEDICAL CENTRE,-1.477593,53.379509
2825.46,3/LOWER BROUGHTON MEDICAL PRACTICE,-2.258808,53.49359
1271.05,DR NAVIN KUMAR,0.70187,51.544989
1642.35,THE MEADOWS SURGERY,-0.53774,52.399512
252.52,MAYFAIR MEDICAL CENTRE,-0.150172,51.513536
2191.46,ST LEONARDS PRACTICE,-3.522731,50.723743
1611.78,HELSBY STREET MED/CTR,-2.576324,53.39498
3685.73,BISHOPGATE MEDICAL CENTRE,-1.676211,54.659158
4802.94,WOKINGHAM MEDICAL CENTRE,-0.831068,51.411661
2515.99,HOLYCROFT SURGERY,-1.914477,53.863828
772.17,HOLBORN MEDICAL CENTRE,-0.118539,51.522233
402.89,ALVERTHORPE,-1.518486,53.685476
1373.71,ROMAN ROAD HEALTH CENTRE,-2.472202,53.728431
2059.58,IVRY STREET MEDICAL PRACTICE,1.148624,52.064021
1441.01,ASHLEY CENTRE SURGERY,-0.270061,51.33244
1300.27,DOCTORS' SURGERY,-2.187672,53.55683
1837.29,DUNCHURCH SURGERY,-1.290193,52.337874
158.45,ACE LTD OOH,0.296471,51.626042
97.1,THE GREENHOUSE WALK-IN,-0.055343,51.538827
3085.23,HANDFORTH HEALTH CENTRE,-2.214647,53.347874
1832.53,ENDERBY MEDICAL CENTRE,-1.211488,52.587061
26.16,LYMPHOEDEMA SERVICE FOR SOLIHULL CCG,-1.953778,52.398207
104.78,ABBEY MEDICAL CENTRE,-0.982406,51.453949
379.46,HOSPITAL AT HOME,-0.831575,51.410524
3167.57,THE GRANGE MEDICAL CENTRE,-1.458215,52.526837
2876.17,BIRCHWOOD MEDICAL PRACTICE,-0.605376,53.215749
2107.82,THE GABLES MEDICAL GROUP,-1.564429,55.140811
1714.63,THE HAMILTON PRACTICE,0.114548,51.757005
4073.84,GRAYSHOTT SURGERY,-0.745626,51.110093
1956.4,LITTLEBOROUGH GROUP PRACTICE,-2.103349,53.642995
2154.57,BROWNLOW HEALTH  @ PRINCES PARK,-2.95165,53.391535
127.93,PATHFINDER GP,-2.512253,53.504428
3.97,ASHLEY INTERMEDIATE CARE CTR,-2.044846,51.883772
3202.79,CENTRAL UXBRIDGE SURGERY,-0.475739,51.546229
161.96,DERMATOLOGY DEPARTMENT CANNOCK,-2.095555,52.599722
9.34,MEDICUS HEALTH PARTNERS-GREEN STREET,-0.044502,51.657069
2721.32,PENKRIDGE MEDICAL PRACTICE,-2.118352,52.725728
5048.1,BECCLES MEDICAL CENTRE,1.562886,52.453288
648.02,ST JAMES MEDICAL PRACTICE2,-2.097323,52.514234
1061.57,GLADSTONE ROAD SURGERY,-0.608263,51.713308
2379.47,KEYWORTH MEDICAL PRACTICE,-1.093411,52.871477
1180.94,KEELE PRACTICE,-2.273581,53.003262
3754.87,BRIDGNORTH MEDICAL PRACTICE,-2.422947,52.537874
1762.77,BENHILL & BELMONT PRACTICE,-0.19029,51.366603
156.37,CANNOCK MINOR INJURIES UNIT,-2.030614,52.693241
52.04,DERMATOLOGY HEALTH SERVICE AT WOLVES,-2.59517,53.394149
1441.95,GP SERVICES - GP HUBS,-0.175734,51.240416
1832.38,DATCHET HEALTH CENTRE,-0.576314,51.482057
525.68,ROOD END MEDICAL PRACTICE,-1.999691,52.494094
3439.35,NEMS OOH,-1.146156,52.947802
6066.54,BUCKS UTC & OOH,-0.771127,51.633345
1226.64,TUDOR HOUSE MEDICAL PRACTICE,-1.149856,52.990599
21.24,ENT SPINKS LANE,0.632055,51.796089
3128.01,THE ROBERT DARBISHIRE PRACTICE,-2.226177,53.454626
3369.29,WENTWORTH MEDICAL PRACTICE.,-0.187898,51.607748
1028.93,DOWNSFIELD MEDICAL CENTRE,-1.77969,52.466938
3303.58,MARYPORT HEALTH SERVICES,-3.494531,54.706432
1250.68,HOPWOOD HOUSE MEDICAL PRACTICE,-2.095467,53.542109
1968.26,LANE ENDS SURGERY,-2.727014,53.770173
1478.23,TEMPLE FORTUNE MEDICAL GROUP,-0.197845,51.581101
15.32,AQP ANTICOAG WARREN FARM HEALTH CENTRE,-1.877898,52.542092
976.76,LYDDEN SURGERY,1.23991,51.163193
428.52,DMC CHADWICK ROAD,-0.074257,51.467864
2475.97,MILLSTREAM MEDICAL CENTRE,-1.797547,51.071683
3205.53,HELSBY HEALTH CENTRE,-2.770522,53.270467
506.22,DR AP KUMAR,-0.05904,53.573513
1220.93,COMMONFIELD RD SURGERY,-3.086369,53.370187
354.95,STATION SURGERY,-2.690615,53.698033
2437.51,APPLETON VILLAGE SURGERY,-2.729552,53.371391
1566.65,CALOW AND BRIMINGTON PRACTICE,-1.396121,53.257848
2325.93,FIRTH PARK SURGERY,-1.445847,53.417523
1151.28,BOTOLPH BRIDGE COMMUNITY HEALTH CENTRE,-0.261557,52.562595
1137.24,SPRINGFIELD MEDICAL PRACT,-1.859629,52.444953
992.41,ROCK COURT SURGERY,-2.916187,53.411597
1441.49,BRIGHTON STATION HEALTH CENTRE,-0.141323,50.827937
2002.06,VILLAGE SURGERY,-0.350376,51.023691
1170.3,STUBLEY MEDICAL CENTRE,-1.488541,53.304986
1337.45,NEWTON HEATH MEDICAL CENTRE,-2.181199,53.500995
1321.98,NORTHWAY MEDICAL CENTRE,-2.130997,52.548105
788.56,DR ST GEORGES MIU/OOH,-1.532085,53.747855
1322.57,SHREEJI MEDICAL CENTRE,-0.606689,51.518363
289.26,KIYANI MEDICAL PRACTICE,0.0021,51.555415
2618.98,TONBRIDGE MEDICAL GROUP,0.275507,51.185826
931.31,DERBYSHIRE ROAD SOUTH SURGERY,-2.310144,53.416957
3953.46,RITCHIE STREET GROUP PRACTICE,-0.107858,51.53474
977.67,CENTRAL SURGERY - SOUTHCHURCH BLVD,0.739537,51.54219
2966.26,FOREST MEDICAL,-1.205754,53.14969
599.67,CATHERINE HOUSE SURGERY,-3.683479,50.429832
3064.09,EAST LEAKE MEDICAL GROUP,-1.177129,52.83403
3470.91,PENDLE VIEW MEDICAL CTRE,-2.232263,53.826018
587.32,GREYSTONES MEDICAL CENTRE,-1.510002,53.363853
4307.28,KING EDWARD ROAD SURGERY,-0.866422,52.242766
428.96,BOUNDARY COURT SURGERY,-0.059836,51.623784
792.16,THANET INTEGRATED ACUTE RESPONSE,1.387926,51.377178
354.16,BLAYDON GP LED PRACTICE,-1.696266,54.958098
134.65,CCS-CONTRACEPTION & SEXUAL HLTH SERVICE,0.15083,52.197136
975.16,SHEERNESS HEALTH CENTRE,0.766639,51.436119
3124.36,ALCONBURY SURGERY,-0.256797,52.371699
2785.96,ORCHARD SURGERY MELBOURN,0.020092,52.080651
3260.39,NUNWELL SURGERY,-2.507177,52.187931
702.35,SOMERSET FHP O,-0.369034,51.523141
4423.01,DR L FREEMAN & PARTNERS,-1.449442,53.752493
2670.83,THE BASSINGHAM SURGERY,-0.636987,53.126641
3209.23,LONGLEVENS SURGERY,-2.212032,51.875911
2824.81,NANTWICH HEALTH CENTRE,-2.518506,53.068155
1044.02,ESTOVER SURGERY,-4.0952,50.411271
2411.37,SUNNY MEED SURGERY,-0.551243,51.315439
4.91,PCH WARD,-2.077775,52.114052
2.78,NORTH COTSWOLDS LOCALITY N. PRESCRIBER,-2.176389,51.847073
58.44,THOMAS LINACRE SPECIALIST,-2.629091,53.55774
1866.14,SEA MILLS SURGERY,-2.649928,51.484587
957.63,THE SYMONDS GREEN HEALTH CENTRE,-0.22159,51.91302
1923.61,RIDGE GREEN MEDICAL PRACTICE,-1.836242,51.567683
13.6,PLANE WARD,0.12393,51.704295
1193.12,BALMORAL GARDENS,0.547786,51.385637
4.3,COMMUNITY ENT SERVICE,-0.258726,52.574107
35.69,SWYPFT NMP BBDU,-1.454617,53.546954
3302.18,STONYHILL MEDICAL PRACTICE,-3.047383,53.781401
3133.21,FURLONG MEDICAL CENTRE,-2.208139,53.063325
459.16,THE SURGERY (BARRETTS GROVE),-0.078285,51.5522
744.18,STILLINGTON SURGERY,-1.108927,54.103615
2653.25,BARNARD CASTLE SURGERY,-1.916153,54.545708
1568.91,CROSSROADS MEDICAL PRACTICE,-0.587134,53.183432
655.67,PRINCES MEDICAL CENTRE,-0.359925,53.753343
3127.51,TWYFORD SURGERY,-0.862762,51.481804
529.89,PML NEIGHBOURHOOD HUB (BANBURY),-1.349027,52.057771
366.41,HIGHTOWN VILLAGE SURGERY,-3.058369,53.530081
4444.67,BURNLEY GROUP PRACTICE,-2.238948,53.791326
3716.9,BARBOURNE HEALTH CENTRE,-2.224952,52.208752
725.08,GRANTHAM OOH,-0.640714,52.921087
416.36,NHS SOUTH CHESHIRE CCG NMP'S,-2.45397,53.098813
2322.12,SUDBURY & ALPERTON MEDICAL CENTRE,-0.298046,51.536916
4.54,ST JOHN'S HOSPICE,-2.803011,54.067023
811.3,THORNS ROAD SURGERY,-2.109345,52.472042
933.3,ALDERSBROOK MEDICAL CENTRE,0.038356,51.560671
674.5,QUARRY BANK MEDICAL CENTRE,-2.102402,52.471845
25.98,NORTHUMBERLAND COMMUNITY SERVICE,-1.508192,55.020469
636.33,OLD SCHOOL SURGERY,0.535827,51.09887
487.25,GROBY SURGERY,-1.225017,52.661865
1575.81,HIGH STREET MEDICAL CENTRE,-2.282777,51.747097
1399.75,MEVAGISSEY SURGERY,-4.788601,50.270644
5843.89,BRISDOC HEALTHCARE SERVICES OOH,-2.596274,51.428746
993.43,REGENCY SURGERY,-0.136165,50.82196
951.83,THE SLIEVE SURGERY,-1.927168,52.520008
2421.7,KING'S MEDICAL PRACTICE,-1.419613,53.700643
5720.18,EASTWOOD PRIMARY CARE CENTRE,-1.307753,53.016064
2691.57,TODMORDEN GROUP PRACTICE,-2.092159,53.713651
6.96,IMPERIAL COMMUNITY DERMATOLOGY SERVICE,-0.08431,51.500087
1524.21,THE ALMONDBURY SURGERY,-1.751311,53.631868
918.12,ST CHARLES UCC CENTRE WIC,-0.217218,51.522362
2088.14,MARPLE BRIDGE SURGERY,-2.053323,53.400594
8.34,INDEPENDENT HEALTH GROUP,-2.414415,51.312224
4846.82,STRAND MEDICAL GROUP,-0.41094,50.818463
2693.34,THORNTON MEDICAL CENTRE,-1.576209,53.791908
1801.59,CHEVELEY PARK MEDICAL CTR,-1.525818,54.7856
1672.98,THE RED PRACTICE WALTON,-0.406024,51.380924
1546.03,HIGH STREET SURGERY,-0.037483,51.708474
579.53,THE INGHAM SURGERY,-0.57717,53.336945
470.44,SADDLERS HEALTH CENTRE,-1.979464,52.587684
30.61,CHILDREN AND FAMILIES DIVISION,-1.892891,52.445923
147.16,NSC BOSWORTH HUB,-1.753633,52.480569
3300.83,THE GLEN MEDICAL GROUP,-1.52187,54.97385
1591.02,HILLINGDON HEALTH CENTRE,-0.448053,51.551621
2967.48,BROCKWORTH SURGERY,-2.156696,51.844575
49.7,WATERLOOVILLE GP EXTENDED ACCESS HUB,-1.033601,50.891899
2499.69,DMC SHEPPEY-W.I. CLINIC,0.793061,51.415409
993.34,GRANGE ROAD MEDICAL PRACTICE,-1.763413,54.972384
4335.26,WESTERHOPE MEDICAL GROUP,-1.686811,54.997777
148.02,MODALITY AWC EXTENDED ACCESS,-1.889371,53.858954
1093.71,BROUGHTON HOUSE SURGERY,-1.636312,53.713801
2201.94,WESTCROFT HEALTH CENTRE,-0.795699,52.006367
4126.07,THE WALL HOUSE SURGERY,-0.208192,51.241304
2642.27,THE DUNSTAN PARTNERSHIP,-2.384279,53.582354
2312.19,ODIHAM HEALTH CENTRE,-0.94103,51.254544
3776.02,SHAKESPEARE WIC,-1.525196,53.802098
25.78,EPSOM DAY SURGERY UNIT,-0.255324,51.334461
1275.18,CENTRAL CLINIC,-2.075775,52.507977
1328.54,ROYAL ARSENAL MEDICAL CENTRE,0.073476,51.493492
3348.55,HEACHAM GROUP PRACTICE,0.491184,52.90988
1640.75,OLD ROAD WEST SURGERY,0.367195,51.433655
3897.44,LONG CATLIS ROAD SURGERY,0.595579,51.348325
3207.09,THE GRANGE MEDICAL CENTRE,-1.354248,53.611836
1577.8,CHASE CROSS MEDICAL CENTRE,0.164796,51.600118
14035.54,PRIORY MEDICAL GROUP,-1.129435,53.949388
26.6,LIVINGCARE HEALTH SERVICES ENT,-1.427194,53.79855
12.94,DODDINGTON LUCS,0.058102,52.497587
2602.71,BEECHWOOD SURGERY,0.292731,51.608567
3254.87,ST GEORGE'S MEDICAL CENTRE,-2.189031,53.509666
1737.09,YORK ROAD SURGERY,-1.348576,53.435091
4303.6,SOUTH GRANGE MEDICAL GROUP PRACTICE,-1.166506,54.569955
886.92,ASHCROFT SURGERY,-0.71666,51.898041
5144.52,WESTBOURNE MEDICAL CENTRE,-1.90343,50.723515
1667.36,EAST BARNET HEALTH CENTRE,-0.166424,51.646339
3171.23,LITCHDON MEDICAL CENTRE,-4.041711,51.069586
229.64,OPEN DOOR,-0.068703,53.572249
6085.24,SALFORD PRIMARY CARE TOGETHER,-2.423902,53.529872
1168.53,GROVE HILL MEDICAL CENTRE,-0.457357,51.772315
419.78,HOUNSLOW FAMILY PRACTICE,-0.366799,51.471773
312.68,HILLTOP MEDICAL PRACTICE,-0.263604,51.542472
2511.04,FRIARY HOUSE SURGERY,-4.128292,50.37266
2765.16,MYTHE MEDICAL PRACTICE,-2.153433,51.99229
4718.48,WILLIAM BROWN CENTRE,-1.33142,54.757994
1773.92,UNIVERSITY HEALTH SERVICE HEALTH CENTRE,-1.482709,53.380323
2065.87,HT PRACTICE,-2.110496,53.478305
1407.3,BARNT GREEN SURGERY,-1.991028,52.35999
1363.81,NEASDEN MEDICAL CENTRE,-0.247382,51.559667
1751.23,LANGLEY MEDICAL PRACTICE,-0.299929,51.390825
2290.38,BILLINGSHURST SURGERY,-0.445798,51.024981
1748.92,DROYLSDEN RD FAMILY PRACTICE,-2.175662,53.499916
4396.68,GADE SURGERY,-0.481406,51.636736
655.33,FERRY ROAD HEALTH CENTRE,0.728076,50.951404
1630.41,SPRING HOUSE SURGERY,-2.463553,53.588374
3101.08,WELL CLOSE MEDICAL GROUP,-2.006127,55.772458
774.28,PROSPECT SURGERY,-1.235397,54.575047
5.82,BEECHCARE & PGU,0.25484,51.420223
14.11,ST HELENS OUT OF HOSPITAL SERVICE,-2.723398,53.418906
1403.92,THE TOLLERFORD PRACTICE,-2.571586,50.778924
1661.21,DENMARK ROAD MEDICAL CENTRE,-1.876102,50.747031
1953.4,WEST GREEN ROAD SURGERY,-0.092209,51.58587
3217.35,SPINNEY BROOK MEDICAL CENTRE,-0.614041,52.32438
1559.3,EVERSLEY MEDICAL CENTRE,-0.111913,51.388514
1946.01,LANGSTONE WAY SURGERY,-0.210815,51.606981
3758.86,BEECH HILL MEDICAL PRACTICE,-2.644352,53.555654
3166.07,BELLEVUE MEDICAL CENTRE,-1.900852,52.465393
821.86,ILKESTON HEALTH CENTRE,-1.308041,52.968251
375.76,ALEXANDRA MEDICAL CENTRE,-2.063026,52.454036
2387.68,THE ARNEWOOD PRACTICE MILTON MEDICAL CEN,-1.657992,50.756444
1280.84,KENNETH MACRAE MED CENTRE,-2.786435,53.49903
1098.7,STANLEY CORNER MEDICAL CENTRE,-0.296619,51.544251
1302.7,SOUTH NORWOOD HILL MEDICAL CENTRE,-0.080772,51.403169
1404.57,GREENWICH PENINSULA,0.012038,51.493258
219.73,DCHS DERBY CITY,-1.441882,53.221288
5711.37,FROME MEDICAL CENTRE,-2.311568,51.237318
2219.47,ROYAL MANOR HEALTH CARE,-2.437275,50.544008
4.33,RTPCT DERMATOLOGY GPWSI,-0.242504,51.473609
324.2,THE SKIN CLINIC,-2.74562,52.713895
1.47,BNSSG COMMUNITY PAEDIATRICIANS,-2.499941,51.462591
2843.43,EXCEL PRIMARY CARE,-2.758901,53.538343
4354.14,BARTON SURGERY,-3.473818,50.579848
2515.11,BAMPTON SURGERY,-1.55034,51.729032
37.45,RAMSAY HEALTHCARE SPRINGFIELD HOSPITAL,0.484598,51.753372
538.8,HASTINGS AND ROTHER OOH,0.891514,51.129106
422.46,SCOTT PARK SURGERY,0.669733,51.571078
123.65,LOCAL PRIMARY CARE EAST/WEST SPOKE,-2.486748,53.750552
2570.13,WITTON MEDICAL CENTRE,-2.507553,53.740232
1478.77,THE PRACTICE ALBERT ROAD,0.053108,51.501557
3819.35,CORNERSTONE PRACTICE,0.091322,52.548858
1855.8,KINGSTON PRIMARY CARE EXTENDED SERVICE,-0.304894,51.414188
1236.76,THE CHURCH VIEW PRACTICE,0.609995,51.363412
2208.71,HAYDOCK MEDICAL CENTRE,-2.656554,53.468334
1785.33,BRACKNELL URGENT CARE CENTRE WIC,-0.735982,51.413263
38.16,COMMUNITY MATRONS,-2.095555,52.599722
2672.73,THE OAKS MEDICAL CENTRE,-1.895827,52.552454
4369.56,EAST NORWICH MEDICAL PARTNERSHIP,1.337135,52.637255
8626.31,TOWER FAMILY HEALTHCARE,-2.341432,53.614725
1654.56,THE MILLER PRACTICE,-0.092165,51.551419
17.55,DMC NORTH KENT DERMATOLOGY - DGS,0.343258,51.435153
1928.92,DRUID GROUP,-1.942009,52.486277
2469.08,FRONT STREET SURGERY,-1.126923,53.954403
162.08,FULHAM CROSS MEDICAL CENTRE,-0.214067,51.482774
21.14,GREAT HARWOOD SURGERY,-2.414211,53.768459
4206.13,CASTLECROFT MEDICAL PRACTICE,-2.189808,52.57877
1408.71,BRIERCLIFFE SURGERY,-2.212859,53.810388
3787.98,THATCHAM HEALTH CENTRE,-1.262387,51.404018
1404.31,WATLINGTON MEDICAL CENTRE,0.391163,52.666799
2030.21,THE ROSEBERRY PRACTICE,-1.292215,54.611726
1437.3,ASPULL SURGERY,-2.586036,53.569599
2066.93,GRESLEYDALE HEALTHCARE CENTRE,-1.576841,52.760758
1802.28,WINCOBANK MEDICAL CENTRE,-1.416316,53.419405
914.59,THE WRAGBY SURGERY,-0.301337,53.287948
1513.6,ROYAL DOCKS MEDICAL PRACTICE,0.062932,51.50946
401.06,ALVELEY MEDICAL PRACTICE,-2.353309,52.454738
69.57,ST WERBURGH'S MEDICAL PRACTICE HOMELESS,-2.890684,53.194463
4061.06,LISTER MEDICAL CENTRE,0.090365,51.754515
2989.17,STURRY SURGERY,1.130308,51.304473
4346.66,PUTNOE MEDICAL CENTRE PARTNERSHIP,-0.438308,52.147939
1476.75,BURVILL HOUSE SURGERY,-0.22721,51.761302
1869.49,PRIORS FIELD SURGERY,0.124169,52.388951
2630.61,AXMINSTER MEDICAL PRACTICE,-2.999226,50.780899
5.24,WILL ADAMS NHS TREATMENT CENTRE,0.576568,51.380889
3023.92,CENTRAL PARK MEDICAL CENTRE,-3.045864,53.415672
417.56,MALTHOUSE MEADOWS SURGERY,-2.568038,50.668698
1466,THE SPRINGFIELD SURGERY (BINGLEY),-1.827829,53.846937
1148.47,HOOK SURGERY,-0.312059,51.359148
82.31,NT&H COMM RESP N,-1.227837,54.702398
3412.03,BHARANI MEDICAL CENTRE,-0.647828,51.520652
1445.77,DR LONGFIELD AND PARTNERS,-0.759425,52.997585
1164.79,IC24-CANTERBURY CCG-OOH,0.891514,51.129106
3567.65,SANDY LANE SURGERY,-2.694715,53.689488
1059.97,HATTON MEDICAL PRACTICE,-0.433285,51.457879
945.94,BECKETT HOUSE PRACTICE,-0.123521,51.469491
414.09,HINDON SURGERY,-2.130793,51.095814
2317.95,THE RANGE MEDICAL CENTRE,-2.257066,53.452309
1.94,MENTAL HEALTH AND WELLBEING SERVICES,-2.739882,52.745851
56.8,COMMUNITY ENT,0.303361,51.290055
867.88,MARSHALLS ROAD SURGERY,-0.539225,52.344743
1077.23,ARDINGLY COURT SURGERY,-0.132888,50.82118
3888.7,HUNTINGDON ROAD SURGERY,0.11009,52.214035
4.87,ENT GPWSI CUMBERLAND CENTRE,-4.167875,50.369991
2671.65,WICKHAM MARKET MEDICAL CENTRE,1.363674,52.151842
926.38,STRETTON MEDICAL CENTRE,-2.577017,53.339489
1184.09,DR U AKBAR,-1.777945,53.803569
3396.18,WIGTON GROUP MEDICAL PRACTICE,-3.159002,54.820303
75.14,SEXUAL HEALTH WIRRAL,-3.026531,53.380029
28.47,EXTENDED ACCESS PCD LAKESIDE PRACTICE,-1.148909,53.615496
172.25,YARDLEY MEDICAL CENTRE,-1.828397,52.463189
2303.28,PENN MANOR MEDICAL PRACTICE,-2.14981,52.559823
301.43,THE PRACTICE COLLEGE ROAD,-0.539824,51.322572
3912.28,MERIDIAN SURGERY,-0.000811,50.796102
2284.38,HOMESTEAD,-1.518747,53.68227
373.16,ALLENBY CLINIC,-0.376261,51.531514
7617.56,BSW IUC OOH,-2.122946,51.473348
3857.49,WELLINGTON MEDICAL PRACTICE,-2.514204,52.699878
350.68,NARBOROUGH ROAD SURGERY,-1.153521,52.624383
1031.01,LAMBGATES HEALTH CENTRE,-1.970153,53.463477
710.28,CSS DERMATOLOGY SERVICE,-0.00105,51.620089
5853.75,THE DEEPINGS PRACTICE,-0.316194,52.683726
2299.3,MIDWAY SURGERY,-0.355421,51.733852
779.55,SOOD (THE GREEN & FIR ROAD),-0.340635,51.443826
803.25,THE LINDLEY VILLAGE SURG.,-1.82571,53.661331
955.77,HIGH OAK SURGERY,-2.13113,52.500707
572.48,WESTWOOD PRIMARY CARE CENTRE,-1.110806,53.296468
35.78,NHS FYLDE & WYRE CCG,-2.881037,53.789498
976.69,POTTERIES MEDICAL CENTRE,-2.136838,53.020074
1051.52,THE OLD COLE HOUSE PRACTICE,-1.475043,52.477262
2993.65,SOUTHWAY SURGERY,-4.133237,50.427678
2802.22,GUARDIAN STREET MED/CTR,-2.606297,53.391901
1076.32,BRANDON STREET SURGERY,-1.122261,52.648042
203.72,M & A LTC PALLIATIVE CARE NURSE,-1.238124,52.98146
3293.84,HIGH PASTURES SURGERY,-2.946534,53.519395
2630.27,PLANE TREES GROUP PRACTICE,-1.894437,53.730448
1204.82,MICKLEOVER SURGERY,-1.53732,52.907481
2935.92,CROCUS MEDICAL PRACTICE,0.238729,52.025067
1372.81,ASH SURGERY,1.27891,51.279887
49.77,RAMSAY HEALTHCARE - NORTH DOWNS HOSPITAL,-0.079153,51.273556
471.51,DELTA HEALTHCARE,-0.292835,53.764281
1773.09,SWANWOOD PARTNERSHIP,0.519034,51.613356
2361.51,BROOK GREEN MEDICAL CENTRE,-0.220945,51.495163
3052.86,WHADDON MEDICAL CENTRE,-0.766276,52.000308
434.96,KINGS HEALTH & LINGS BROOK PRACTICE,-0.922279,52.256829
1550.52,THE NEW BREWERY LANE SURG,-1.636835,53.67243
823.11,GROVE SURGERY,-0.01097,51.579197
1843.77,CRESSEX HEALTH CENTRE,-0.778801,51.617114
608.35,DR SATHANANDANS PRACTICE,0.650261,51.555142
408.83,THE PRACTICE SURGERIES LTD,-0.099109,51.370492
4174.09,ST JOHNS MEDICAL CENTRE,-2.352158,53.38672
486.3,NORTH SATELLITE UNIT,-1.487911,53.42172
4233.3,UNDERCLIFFE SURGERY,-1.67818,53.707224
1094.08,WHITBY GROUP PRACTICE SURGERY   (BLACK),-2.910629,53.26751
536.77,ST LUKE'S SURGERY,-0.0358,50.8023
1139.29,DR ARORA RK,-1.997982,52.516003
2806.47,ODDFELLOWS HALL & ST CLEMENTS,0.327906,51.480703
2778.62,SPINNEY SURGERY,-0.077762,52.33533
103.69,ACUTE GP REFERRAL SERVICE,-4.113684,50.41672
2394.16,WARWICK ROAD SURGERY,-2.928541,54.893858
1656.47,THE PETWORTH SURGERY,-0.607135,50.983365
1919.45,SLEIGHTS AND SANDSEND MEDICAL PRACTICE,-0.659645,54.452005
1605.23,WIDE WAY MEDICAL CENTRE,-0.134454,51.401824
78.52,ARUN MIAMI GP ACCESS HUB,-0.531673,50.808759
2994.59,RIVER LODGE SURGERY,0.018818,50.874836
5090.84,CLOVER GROUP PRACTICE,-1.40885,53.384843
1583.56,WOODBANK SURGERY,-2.308802,53.60507
4256.38,CRUDDAS PARK SURGERY,-1.630965,54.968173
1359.26,OAKHILL MEDICAL PRACTICE,-1.458311,53.305662
2959.05,PARK PRACTICE,0.277898,50.794441
3355.92,HAZELDENE HOUSE SURGERY,-2.004496,52.800688
1535.82,DR. MASTERTON'S SURGERY,-0.130137,51.430487
2436.29,KINGS NORTON SURGERY,-1.930753,52.404588
1151.71,NASEBY MEDICAL CENTRE,-1.844953,52.489175
106.83,WEST LANCS HEART FAILURE SERVICE,-2.840112,53.602357
2029.2,YEADING COURT SURGERY,-0.40009,51.528299
1355.57,PRIME PRACTICE PARTNERSHIP,0.152111,51.535187
11.71,ADULT COMMUNITY NURSING,-0.086794,51.503466
927.4,HEADSTONE ROAD SURGERY,-0.340912,51.583768
1151.76,OAKLANDS SURGERY,-2.617414,50.954243
328.99,BELSIZE PRIORY MEDICAL PRACTICE (GROUP),-0.188014,51.539773
356.23,DR SKS SWEDAN,0.024864,51.550554
35.16,MEDWAY PRACTICES ALLIANCE (MPA),0.546037,51.326929
4157.32,CASTLE HEALTHCARE PRACTICE,-1.144908,52.930476
679.44,MONTPELIER SURGERY,-0.149079,50.827148
1302.63,SOUTH SEFTON GP EXTRA SERVICE,-3.002733,53.472727
79.32,THE TOWN SURGERY,-0.378104,51.512512
1101.21,EVERGREEN OAK SURGERY,-1.958467,50.723629
3956.31,DR JK MARSDEN'S PRACTICE,-0.436528,51.894968
1760.29,CEDAR BROOK PRACTICE,-0.414132,51.534092
20.07,MAIDSTONE CENTRAL CLUSTER,0.277462,51.194717
1440.2,SOLWAY HEALTH SERVICES,-3.551342,54.642687
4057.14,ALMA MEDICAL CENTRE,-1.317648,54.56949
2093.57,COLLINGHAM CHURCH VIEW SURGERY,-1.408994,53.908099
687.31,INTRAHEALTH PLATT BRIDGE,-2.595925,53.522279
2518.72,MERCHISTON SURGERY,-1.749007,51.587527
552.65,THE BROOK SURGERY,-1.871333,52.462659
1142.09,THE YELLOW PRACTICE,-0.406024,51.380924
1174.82,BROKEN CROSS SURGERY,-2.12262,53.257964
4362.78,WARLEY MEDICAL CENTRE,-2.006757,52.468122
2240.18,ROTH. NHS FT COMM. SERV,-1.358666,53.434741
449.65,GOVIND HEALTH CENTRE,-1.532784,52.400277
841.86,WILLIAM HARVEY SURGERY,0.597963,51.593347
928.43,TRI-LINKS MEDICAL PRACTICE,-1.664038,52.634849
140.27,OLDHAM 7 DAY ACCESS HUB3 OOH,-2.156747,53.509855
328.8,THE SURGERY FODEN STREET,-2.188242,52.997045
652.57,MAYTREES MEDICAL PRACTICE,-2.563371,51.470243
1032.67,APPLEBY MEDICAL PRACTICE,-2.492993,54.578082
2897.64,CENTRAL GATESHEAD MEDICAL GROUP,-1.604307,54.956479
1761.02,TORRIDON ROAD MEDICAL PRACTICE,-0.002112,51.44011
644.15,THE WHITE HOUSE SURGERY,0.088164,51.534004
1179.96,BIRCHES HEAD MEDICAL CTR.,-2.154096,53.035667
9009.32,HAXBY GROUP PRACTICE,-1.081866,54.019329
112.1,NEWCASTLE DIABETES CENTRE,-1.644546,54.976238
808.47,VALE DRIVE MEDICAL PRACTICE,-0.194727,51.648828
1998.73,THE ERIC MOORE PARTNERSHIP,-2.59716,53.393404
616.46,DR DP SHAH'S PRACTICE,0.160037,51.545122
2298.74,PRESCOTT SURGERY,-2.852689,52.784345
1932.03,DR AHMAD & PTNRS,-2.595925,53.522279
1202.66,HORNE STREET SURGERY,-1.871717,53.725678
2.02,COMMUNITY COPD SERVICES,-1.508005,52.413401
3528.21,CHISLEHURST MEDICAL PRACTICE,0.066938,51.419678
2485.96,THE REDWELL MEDICAL CENTRE,-0.701555,52.314792
1.72,ST JOHNS HOSPICE,-1.149142,53.500048
2888.54,THE ALDERGATE MED.PRACT.,-1.695644,52.639079
6565.04,POCKLINGTON GROUP PRACTICE,-0.781336,53.924503
3032.7,LOCKFIELD SURGERY,-2.057135,52.585445
368.07,DR SOOD'S PRACTICE,-0.382386,51.483967
6088.61,MOUNT FARM SURGERY,0.742641,52.245214
4805.87,VALENTINE HEALTH PARTNERSHIP,0.061519,51.49221
1325.71,DR AHMED & PARTNERS,-1.782551,53.655615
1700.46,NORTH CHELMSFORD NHS HCC,0.510815,51.750584
2075.66,THE OAKWOOD SURGERY,-1.073937,53.506609
2712.6,CENTRE PRACTICE,-1.17634,50.853776
1411.8,MORETON HEALTH CLINIC,-3.112556,53.400453
2821.31,JUBILEE STREET PRACTICE,-0.050552,51.513595
1245.23,HIGH STREET MEDICAL CENTRE,-2.595495,53.47988
685.68,DERWENT MEDICAL CENTRE,-1.480751,52.929325
5040.98,BARDOC GP OOH,-2.427769,53.590447
2225,SHEEPCOT MEDICAL CENTRE,-0.412898,51.695192
1892.95,DEER PARK FAMILY MEDICAL PRACTICE,-1.230829,52.949242
2681.7,THE MEDICAL CENTRE  DRIFFIELD,-0.439676,54.006257
691.59,THE NEW SURGERY,-0.235578,51.506058
889.5,LAMBETH WALK GROUP PRACTICE,-0.112591,51.495609
680.49,LEANDER ROAD SURGERY,-0.117457,51.399457
2009.71,CHELSFIELD SURGERY,0.104017,51.355726
2229.71,CANFORD HEATH GROUP PRACT,-1.964765,50.741327
4021.25,YAXLEY GROUP PRACTICE,-0.251101,52.516866
1489.37,BOLTON MEDICAL CENTRE,-2.431399,53.56543
2429.26,CORNWALL 111 OOH,-5.097984,50.265937
2021.75,TEMPLE HOUSE PRACTICE,-2.498229,51.409833
845.68,THE CRANE,0.535827,51.09887
4.33,EAST HULL FAMILY PRACTICE,-0.268619,53.77908
2962.34,MANOR HOUSE LANE SURGERY,-1.802707,52.461306
1641.6,BRIDGE STREET SURGERY,-0.495121,53.551684
466.15,MELROSE SURGERY,-1.287301,54.609397
1001.58,MEDICAL CENTRE CAMELFORD (DR GARROD),-4.676789,50.624027
2019.57,MACKLIN STREET SURGERY,-1.481767,52.92115
3169.43,POLDEN MEDICAL PRACTICE,-2.87579,51.150216
320.32,RUNCORN GP EXTRA,-2.727045,53.331865
1090.01,LIMES MEDICAL CENTRE,-1.387885,53.098493
3644.43,WASHWOOD HEATH URGENT CARE CENTRE,-1.849921,52.487617
2881.58,ABBEY MEADS MEDICAL PRACT,-1.792794,51.597826
4557.64,CHEVIOT ROAD SURGERY,-1.455974,50.921365
38.97,COMMUNITY DERMATOLOGY SERVICE,-1.508005,52.413401
51.34,CRISIS RESPONSE TEAM,-2.186902,53.52264
2826.07,ST NEOTS SURGERY,-4.160899,50.387979
401.79,NEWARK ACUTE HOME VISITING SERVICE,-1.238124,52.98146
446.43,SHEERWATER HEALTH CENTRE,-0.530722,51.334156
3153.18,LIQUORPOND SURGERY,-0.025925,52.9735
1514.86,FORDINGTON SURGERY,-2.42746,50.713004
3547.97,SHAFTESBURY MEDICAL CTR.,-1.497858,53.800234
7.9,HB CLINIC,-1.161857,52.675604
1424.5,BURNSIDE SURGERY,-2.424635,53.592518
1261.4,HIGHGROVE SURGERY,0.098727,51.538564
70.52,MINOR INJURIES UNIT,-3.045864,53.415672
1912.8,MEDICENTRE,-2.643055,53.494018
1349.36,MARKET OVERTON & SOMERBY SURGERIES,-0.684769,52.739345
1654.61,RICHMOND MEDICAL CENTRE,-2.384874,53.752328
1098.95,TWIN OAKS MEDICAL CENTRE,-1.737739,50.781308
2082.63,STONELEIGH SURGERY,-2.770704,54.227277
2014.61,WESTMINSTER MEDICAL CENTRE,-2.97836,53.44083
1522.35,DESFORD MEDICAL CENTRE,-1.296116,52.627473
2736.55,WILMSLOW HEALTH CENTRE,-2.237324,53.322922
2162.81,MANOR FARM MEDICAL CENTRE,0.690513,52.648544
3896.03,RAVENSWOOD MEDICAL PRACTICE,1.199377,52.030367
1283.21,CHESSINGTON PARK SURGERY,-0.312059,51.359148
2203.83,ASHTON  LEIGH & WIGAN OOH,-2.614585,53.534922
992.25,DR SINHA & PARTNERS,0.100204,53.030138
1297.94,ROSEWORTH SURGERY,-1.61867,55.001366
1611.57,THORPE HESLEY SURGERY,-1.432602,53.458647
699.95,BANK HOUSE SURGERY,0.069949,51.359218
2244.47,STATION ROAD SURGERY,0.102029,51.431445
3567.43,ADDISON HOUSE - HAQUE PRACTICE,0.088979,51.770891
677.02,CALDBECK SURGERY,-3.050622,54.749864
1.47,NON MEDICAL PRESCRIBERS,-0.801989,51.797983
1698.39,AWBURN HOUSE MEDICAL PRACTICE,-2.011,53.458105
1072.8,IC24-ASHFORD CCG-OOH,0.891514,51.129106
1262.91,DR COLLINS AND CARRAGHER,-0.311771,52.006602
3403.09,MOUNT CHAMBERS MEDICAL PRACTICE,0.552722,51.879812
1088.25,HOWELL SURGERY,0.398895,51.150874
2169.79,SOUTHAMPTON PRIMARY CARE HUBS,-1.317099,50.913217
1283.68,EDGWARE WIC,-0.271242,51.606493
2689.02,THE MUSWELL HILL PRACTICE,-0.141215,51.59225
2815.29,THE BARKANTINE PRACTICE,-0.025725,51.500806
1463.66,ABBEY ROAD SURGERY,-3.224778,54.109942
1186.23,MANOR PRIMARY CARE,-2.764643,53.549695
206.29,7 DAY ACCESS MIDDLETON HC,-2.172588,53.54895
2256,CONSTABLE COUNTRY RURAL MEDICAL PRACTICE,1.026191,51.977179
1736.46,BEECH HOUSE MEDICAL PRACT,-2.118146,53.379406
4171.8,COQUET MEDICAL GROUP,-1.580504,55.332599
2767.66,WARLINGHAM GREEN MED PRAC,-0.057218,51.312278
2261.43,THE MANOR HOUSE SURGERY,-1.159231,54.557403
2022.3,THE SURGERY - 48 MULGRAVE ROAD,-0.196293,51.358332
29.59,DERMATOLOGY SERVICE,-2.635267,53.445979
439.15,WEST TOWN SURGERY,-0.443862,53.685751
857.41,HOLLINGTON SURGERY,0.872487,51.151423
1116.73,WAKE GREEN SURGERY,-1.883357,52.446103
328.07,CROYDON SOUTH & CENTRAL EXTENDED ACCESS,-0.114466,51.34074
425.06,MEDICAL CENTRE CAMELFORD (DR NASH),-4.676789,50.624027
1590.73,FALLODON WAY MEDICAL CENTRE,-2.609541,51.483068
2549.19,HIGHCROFT SURGERY,-1.12882,53.00411
1225.17,RIVERSIDE FAMILY PRACTICE,-2.238948,53.791326
1058.08,DALTON SURGERY,-1.751038,53.644598
1322.51,HOUNSLOW MEDICAL CENTRE,-0.37684,51.469395
3198.52,THE CEDARS SURGERY,0.173742,51.395873
503.62,KINCORA DOCTORS SURGERY,-0.412216,51.511666
2465.66,LARKSFIELD SURGERY MEDICAL PARTNERSHIP,-0.235113,52.017132
1534.12,SPRING TERRACE HEALTH CENTRE,-1.450673,55.010941
829.81,MIAMI CLINIC - ST LAWRENCE SURGERY,-0.390026,50.823979
1646.27,NORTHGATE VILLAGE SURGERY,-2.892972,53.195093
1788.62,CROSLAND MOOR SURGERY,-1.809637,53.63841
2815.4,HARCOURT MEDICAL CENTRE,-1.800762,51.067489
7152.92,PEMBROKE MEDICAL GROUP,-3.560246,50.445527
471.88,HORNDON-ON-THE-HILL SURGERY,0.405746,51.523749
1350.88,AELFGAR SURGERY,-1.937701,52.763581
3031.72,ORCHARD MEDICAL CENTRE,-2.510659,51.462087
3575.12,WEST END SURGERY,-1.327291,50.928501
704.33,LAKESIDE,-2.203683,52.595468
943.45,CHURCH END MEDICAL CENTRE,-0.253241,51.54757
1448.19,WILLIAM FISHER MED.CTR.,0.826913,51.662819
1483.74,GREAT BRIDGE P/SHIP FOR HEALTH,-2.032577,52.528908
106.85,TORBAY NMP SPECIALIST,-3.552785,50.48778
2314.89,THE REYNARD SURGERY,0.484029,52.302685
11.23,MYDDLETON ROAD SURGERY,-0.115662,51.606554
46.08,RAM PATEL (DERMATOLOGY),-1.03822,52.946139
3397.81,ENDERLEY ROAD MEDICAL CENTRE,-0.340469,51.601872
4231.34,THE GRANGE GROUP PRACTICE,-1.781351,53.662292
1887.95,ELIZABETH AVENUE GROUP PRACTICE,-0.091905,51.539023
566.24,ECCLES GATEWAY MEDICAL CENTRE,-2.339314,53.48253
64.06,NORTHVILLE FAMILY PRACTICE,-2.570103,51.50079
1881.42,HALESOWEN MEDICAL PRACTICE,-2.059137,52.444056
1473.3,HIGHERLAND SURGERY,-2.232632,53.009021
4417.91,FAILSWORTH GROUP PRACTICE,-2.156747,53.509855
1692.78,FELDON LANE PRACTICE,-2.028271,52.467325
538.42,DRS CHALMERS & MEIER,-0.066189,53.557292
2021.18,PRICES MILL SURGERY,-2.224938,51.693801
5028.28,PELC REDBRIDGE OOH,0.066648,51.55684
558.87,SAXENA L,-2.668958,53.521291
601.3,CRADLEY SURGERY,-2.402119,52.118284
3674.4,LORDSWOOD HOUSE GROUP MEDICAL PRACTICE,-1.961221,52.459054
42.43,EAST CLUSTER IAGPS,-1.82052,50.747482
3913.22,STOCKTON HEATH MED.CENTRE,-2.582161,53.37195
1725.09,CENTRAL SURGERY,-2.74261,53.456686
2232.65,CROSBY HOUSE SURGERY,-0.599437,51.517962
203.15,GLOUCESTER ROAD SURGERY,-0.183052,51.647272
2679.61,THREE VILLAGES MEDICAL PRACTICE,-2.146398,52.465406
253.17,MEDICUS HEALTH PARTNERS-MOORFIELD ROAD,-0.047082,51.660296
975.37,SWANSWELL MEDICAL CENTRE,-1.816529,52.432515
1375.51,TOOTING SOUTH MEDICAL CENTRE,-0.161461,51.421738
2276.77,STAPENHILL MEDICAL CENTRE,-1.624908,52.785524
2654.59,DENMEAD HEALTH CENTRE,-1.067347,50.904386
1100.33,SOUTH PARK MEDICAL PRACTICE,0.189702,51.270005
4609.8,AW SURGERIES,-2.122432,52.482313
853.92,WAYSIDE MEDICAL PRACTICE,-0.165912,51.173238
860.03,SOUTH HORNCHURCH WALK IN CENTRE,0.192085,51.533441
2437.69,COTSWOLD MEDICAL PRACTICE,-1.75678,51.886317
2673.16,MOUNT PLEASANT MED CENTRE,-1.637294,53.707036
699,THE LORDSHIP LANE SURGERY,-0.073221,51.448369
2964.03,NEASHAM ROAD SURGERY,-1.542648,54.517256
1725.35,SWINESHEAD SURGERY,-0.158921,52.940616
2692.8,KING GEORGE SURGERY,-0.206096,51.907416
2099.98,MAWBEY GROUP PRACTICE,-0.125232,51.479283
1121.35,THE KAKOTY PRACTICE,-1.473444,53.5464
5003.55,NEW SOUTHGATE SURGERY,-1.50415,53.692762
895.95,HALDON HOUSE SURGERY,-3.416301,50.619764
1575.84,MARKFIELD MEDICAL CENTRE,-1.272985,52.685255
2798.87,THE ROCKWELL AND WROSE PRACTICE,-1.744408,53.822997
662.44,ASHLEY SURGERY,-2.355514,52.925782
95.32,ROSSLYN HILL SURGERY,-0.170852,51.554201
354.56,CHILDS (THAMESIDE),-0.326599,51.427449
2960.17,THE GROUP PRACTICE ALFRED SQUIRE ROAD,-2.080754,52.599417
1747.33,DR M ASLAM'S PRACTICE,0.510532,51.57811
30.34,GAINSEA,-0.780581,53.411776
146.91,ACE,0.921589,51.923793
1419.79,NORTHLANDS WOOD SURGERY,-0.081209,50.996531
2165.92,BROOK HOUSE SURGERY,-1.445882,50.921794
4268.86,WEST ROAD SURGERY,0.70187,51.544989
8542.38,WHITSTABLE MEDICAL PRACTICE,1.012662,51.340885
1763.6,EARLS BARTON MEDICAL CENTRE,-0.758162,52.264648
521.52,GREAT HOLLANDS PRACTICE,-0.770726,51.398661
2942.57,VEOR SURGERY,-5.299615,50.209958
880.51,HEATHWAY MEDICAL CENTRE,0.152111,51.535187
541.2,BIRTLE VIEW MEDICAL PRACTICE,-2.2277,53.595186
11.66,COMMUNITY DERMATOLOGY CLINIC,0.01625,51.510991
1453.83,RIVER PLACE HEALTH CENTRE,-0.09656,51.540513
1891.61,MILLBROOK SURGERY  CASTLE CARY,-2.51716,51.087618
2593.35,BLACKETTS MEDICAL PRACTICE,-1.559007,54.527221
323.57,AL-SHIFA MEDICAL CENTRE,-2.229695,53.433705
1603.52,SUN LANE,1.087469,51.071536
103.41,TORBAY AND SOUTHERN DHCT,-3.552785,50.48778
1867.33,KINGSWOOD SURGERY,-1.517051,53.991495
2310.17,CROFT MEDICAL CENTRE,-1.727743,52.477876
1525.79,KNIGHTWICK SURGERY,-2.394831,52.200399
2041.81,ST ANDREWS MEDICAL PRACTICE.,-0.17238,51.630138
1661.26,CHAPEL ROW SURGERY,-1.17086,51.425877
2552.06,BELMONT & SHERBURN MEDICAL GROUP,-1.52816,54.786148
2189.62,UEA MEDICAL CENTRE,1.241391,52.622369
1861.51,STAUNTON GROUP PRACTICE,-0.112926,51.599388
954.13,MODALITY DARLASTON PRACTICE,-2.036323,52.56617
233.24,GPSI DERMATOLOGY SERVICE BUCKDEN HUNTS,-0.254174,52.291764
2030.27,BROCKHURST MEDICAL CENTRE,-1.15337,50.808243
1006.43,HADEN VALE SURGERY,-2.073333,52.466347
1867.95,KESTON MEDICAL PRACTICE,-0.114466,51.34074
2088.39,HEATHCOTE MEDICAL CENTRE,-0.228084,51.294799
3569.65,THE AVENUE MEDICAL CENTRE,-2.211676,53.533178
1494.26,DR CURRAN & PARTNERS,-0.136034,51.465148
50.55,NCH&C COMMUNITY NURSES (WEST),0.410147,52.749129
1916.98,HAPPY HOUSE SURGERY,-1.422785,54.885012
5177.72,PRIORY FIELDS SURGERY,-0.179856,52.332272
1248.72,SOUTHEND MEDICAL CENTRE,0.708516,51.540069
162.2,EVMC DERMATOLOGY CLINIC,1.012662,51.340885
3755.6,BLACKWATER MEDICAL CENTRE,0.68095,51.728379
19.03,WHITTINGTON HEALTH (ISLINGTON),-0.139066,51.566482
76.79,HOMERTON NMP'S,-0.046099,51.550634
2160.35,HARROGATE OOH,-1.517573,53.993807
3895.1,TUDOR MEDICAL CENTRE,-2.136002,52.594673
2417.29,MARTONSIDE MEDICAL CENTRE,-1.220329,54.553175
1026.28,THE MOORINGS MEDICAL PRACTICE,-0.095892,51.322229
2657.54,BRADSHAW MEDICAL CENTRE,-2.688594,53.537889
4789.87,COLLEGE SURGERY PARTNERSHIP,-3.392716,50.864169
3289.66,ELMS MEDICAL PRACTICE,-0.352007,51.818895
4888.14,THE RED HOUSE GROUP,-0.317147,51.68273
2444.07,MILL BANK,-2.118627,52.80489
1458.76,ST JOHNS MEDICAL CENTRE,-0.0222,51.467393
680.4,THE CIVIC MEDICAL CENTRE,-0.337497,51.587155
927.76,ISLIP MANOR MEDICAL CENTRE,-0.372994,51.547315
3673.96,LOVEMEAD GROUP PRACTICE,-2.202601,51.31857
3892.62,CROUCH OAK FAMILY PRACTICE,-0.490757,51.371507
2136.74,NORTH THORESBY SURGERY,-0.056751,53.46502
2065.43,KINGSFIELD MEDICAL CENTRE,-1.89301,52.427278
1412.05,PARLIAMENT HILL SURGERY,-0.145468,51.555169
2338.46,PARKFIELD MEDICAL CENTRE,-0.179588,51.695129
754.61,THE PINE MEDICAL CENTRE,-0.416838,51.527591
1603.94,BURDWOOD SURGERY,-1.244202,51.396133
325.65,MEDIC HOUSE,0.362131,51.462932
1700.05,BELMONT MEDICAL CENTRE,-2.739476,52.041288
990.53,ARDEN MEDICAL CENTRE,-1.744762,52.379799
4115.85,CASTLE PARTNERSHIP,1.298303,52.633973
3.2,GP - HAYWOOD HOSPITAL OOH,-2.191413,53.056944
4.91,COMMUNITY COPD CLINIC,-1.435213,53.333016
543.42,NEW ROAD MEDICAL CENTRE,-1.939238,52.648704
53.54,SUSSEX DOWN AND WEALD SPECIAL SCHEME,0.294614,50.773566
5748.66,SANDY LANE SURGERY,-1.937103,52.75674
1010.2,CHOLMLEY GARDENS SURGERY,-0.195423,51.552261
64.59,LOUGH OOH,-0.008582,53.37101
749.45,MITCHLEY AVENUE SURGERY,-0.092485,51.32998
673.09,GATEACRE MEDICAL CENTRE,-2.85753,53.385435
4187.28,BEACON HEALTH GROUP-DANBURY MEDICAL CTR,0.587566,51.716669
2394.97,THE SUMMERHILL SURGERY,-2.171615,52.496514
550.69,SCHOOL LANE PMS PRACTICE,0.749246,52.412444
1226.19,BELLINGHAM GREEN SURGERY,-0.02426,51.430378
2538.52,BOUNDARY HOUSE MEDICAL CENTRE,-2.288936,53.415635
1542.13,HILL LANE SURGERY,-1.41571,50.915802
828.19,AVENUE MEDICAL PRACTICE,-1.603419,54.988036
2068.01,SPRING HALL GROUP PRACTICE,-1.892899,53.721064
848.23,KINGSHOLM SURGERY,-2.239023,51.868028
3098.53,SILVERDALE MEDICAL CENTRE,-2.267264,53.015627
2848.48,ARLINGTON ROAD SURGERY,0.277559,50.768189
3008.5,THE SHREWSBURY CENTRE,0.043312,51.540929
3164.66,LEEN VIEW SURGERY,-1.196589,52.998051
3788.73,HEATHERVIEW MEDICAL CTR.,-1.913033,50.739773
66.62,GP EXTENDED ACCESS - HARROGATE,-1.529793,53.996354
694.46,CONNAUGHT SQUARE PRACTICE,-0.164264,51.513974
879.37,ABERCROMBY FAMILY PRACTICE,-2.961744,53.399032
2772.62,BRIDGE HOUSE MEDICAL CENTRE,-1.709788,52.190536
4.07,AQP ANTICOAG RIDGACRE MEDICAL CENTRE,-1.99011,52.460912
2.78,AQP ANTICOAG SOUTH DOC DOVECOTE SURGERY,-1.994863,52.464059
1970.65,CAVERSHAM GROUP PRACTICE,-0.138116,51.550467
2386.53,COUNTESTHORPE HEALTH CENTRE,-1.136767,52.554536
214.82,THE GOLBORNE MEDICAL CENTRE,-0.206303,51.524023
250.17,BLESSING MEDICAL CENTRE,-0.205742,51.533041
2210.32,CHARNOCK HEALTH PRIMARY CARE CENTRE,-1.420724,53.342996
1503.38,PARKFIELDS SURGERY,-1.432388,52.898298
10.54,THE HEATON MEDICAL PRACTICE,-1.808133,53.81642
631.77,CHAPELTOWN FAMILY SURGERY,-1.526199,53.811432
156.89,DR VASANTH,-2.500811,53.527489
406.17,DR GI JONES' PRACTICE,-1.471058,53.166526
1366.32,RIVERBANK MEDICAL SERVICES,-1.152629,53.207243
520.72,HARDEN HEALTH CENTRE,-1.985958,52.608552
1487.06,HARSTON SURGERY,0.073806,52.138364
1122.72,HOYLAND HOUSE,-2.194177,51.790995
866.36,HATCH END MEDICAL CENTRE,-0.377077,51.606242
2164.15,WIBSEY & QUEENSBURY MED P,-1.779715,53.767225
531.15,DERMATOLOGY CLINIC,-1.899142,52.505172
2541.09,JORVIK GILLYGATE PRACTICE,-1.077772,53.959168
1042.64,VALLEY ROAD SURGERY,-0.119424,51.428616
1931.93,CHATSWORTH ROAD MEDICAL CENTRE,-1.467337,53.231374
2490.34,PRESTON GROVE MEDICAL CENTRE  YEOVIL,-2.644279,50.94185
3566.7,NORTH CLACTON MEDICAL PRACTICE,1.162631,51.818131
3253.84,FINCHAMPSTEAD PRACTICE,-0.858066,51.375104
2668.4,SHERBURN GROUP PRACTICE,-1.253519,53.798594
1489.04,BOURN SURGERY,-0.063404,52.193155
1479.06,DR BHATE SURGERY,-1.37324,54.905516
3017.51,OSMASTON SURGERY,-1.467954,52.911084
4040.89,BISHOPS WALTHAM SURGERY,-1.212149,50.95528
1841.98,BROOK SQUARE SURGERY,-0.409328,54.281789
543.71,DCHS BEDS WITH CARE,-1.441882,53.221288
580.44,BORSTAL VILLAGE SURGERY,0.482446,51.372102
976.98,BROOK MEDICAL CENTRE,-0.803796,52.255823
539.69,THE MARSHSIDE SURGERY,-2.963125,53.671433
521.04,CITY OF COVENTRY HEALTH CENTRE,-1.508005,52.413401
467.56,ULLAH M,-2.595925,53.522279
1117.06,ST.MARY'S MEDICAL CENTRE,0.497526,51.397836
637.59,WALSALL WOOD HEALTH CENTRE,-1.927755,52.629621
2196.51,MADELEY PRACTICE,-2.345126,52.999856
8.06,THE SHELDON PRACTICE,-0.215603,51.555924
1485.71,SHADBOLT PARK HOUSE SURG,-0.252507,51.376451
3452.4,HILDENBOROUGH MEDICAL GROUP,0.243873,51.215118
72.83,THE MATTHEWMAN PRACTICE,-0.149281,51.545823
578.78,CHURCH LANE - KHAN,-1.793962,52.487056
2267.34,DEVON SQUARE SURGERY,-3.60508,50.529985
1398.31,UPWELL STREET SURGERY,-1.434724,53.406424
4257.8,EAST LINDSEY MEDICAL GROUP,0.002264,53.362241
1368.71,MATTISHALL SURGERY,1.034195,52.658795
3.14,ROTHERHAM HOSPICE,-1.340784,53.424046
7611.32,ASHFORD MEDICAL PARTNERSHIP,0.898839,51.136741
3856.36,LOW MOOR SURGERY,-1.769897,53.75385
1675.33,ST ELIZABETH'S MEDICAL CENTRE (JA WOOD),-1.061189,52.648257
3338.47,PENNINE DRIVE PRACTICE,-0.208882,51.568477
1912.79,THE CEDARS SURGERY,-0.72004,51.52561
3404.72,LONGTON HEALTH CENTRE,-2.780194,53.727756
1213.58,OWLTHORPE MEDICAL CENTRE,-1.375862,53.33869
1899.29,ST ANDREWS HEALTH CENTRE,-0.014302,51.523949
2248.28,WONERSH SURGERY,-0.545609,51.197393
107.6,RAINBOW HEALTH CENTRE,-0.109304,51.395046
158.49,WEST CAMHS - KIRKSTALL,-1.599694,53.817164
2483.96,HOLLIES MEDICAL CENTRE,-1.494834,53.363179
75.79,COMMUNITY HEALTH NEWHAM,-0.072273,51.516339
2631.76,GALLERIES MEDICAL PRACTICE,-1.531242,54.898814
875.32,SUFFOLK GP FEDERATION OOH,1.164244,52.044508
1224.13,GLEN ROAD MEDICAL CENTRE,0.03253,51.522221
1247.07,THE WOLDS VIEW PRIMARY CARE CENTRE,-0.215754,54.086552
6.1,CPFT SPECIALIST SERVICE HUNTS,-0.207095,52.336893
2048.51,COMMUNITY HEALTH CENTRE (ZS OSAMA),-1.113421,52.632387
87.23,DERMATOLOGY GPSWI,-0.340999,51.425838
2984.05,CHURCHILL MEDICAL CENTRE,-0.018466,51.618226
117.04,THE PINN UNREGISTERED WIC,-0.382232,51.595076
2024.78,NAVENBY CLIFF VILLAGES SURGERY,-0.526297,53.103518
2169.93,PRINCE OF WALES GROUP SURGERY,-0.147117,51.546913
1058.86,WEST POINT MEDICAL CENTRE,-2.197586,53.445978
2410.41,DURNFORD MEDICAL CENTRE,-2.197033,53.554038
1845.61,TRINITY MEDICAL CENTRE,-0.158437,51.437554
55.99,HOMELESS AND VIOLENT PATIENT SERVICE,-2.238316,51.866796
1794.26,THE DICCONSON GROUP PRACTICE,-2.644891,53.549467
5898.62,TALBOT MEDICAL CENTRE,-1.908934,50.748888
70.4,CAMDEN HEALTH IMPROVEMENT PRACTICE,-0.138243,51.528275
2158.02,WHITLEY ROAD MEDICAL CENTRE,-2.2227,53.49493
474.31,LONG EATON ON DAY SERVICE,-1.272531,52.901553
2320.18,AVISFORD MEDICAL GROUP,-0.61388,50.822687
9.5,COMMUNITY TEAM ST AUSTELL,-4.772363,50.327877
2306.81,ASHVILLE MEDICAL CENTRE PMS PRACTICE,-1.4569,53.543072
136.89,CARRFIELD MEDICAL CENTRE,-1.465061,53.358636
1040.53,WALNUT TREE PRACTICE,-2.357425,51.68003
3719.95,URGENT CARE CENTRE NORTHWICK PARK HOSP,-0.322037,51.575407
398.58,SIBFORD SURGERY,-1.479244,52.037614
1803.73,THE GAINSBOROUGH PRACTICE,-0.73138,51.426252
4630.04,PORTISHEAD MEDICAL GROUP,-2.767318,51.482805
3265.39,HONOR OAK GROUP PRACTICE,-0.041114,51.458097
939.34,FEATHERSTONE,-2.089566,52.645773
2943.37,STUBBINGTON MEDICAL PRACTICE,-1.215422,50.825008
2641.61,GP CARE WAKEFIELD OOH,-1.494838,53.679942
3192.71,FISHER MEDICAL CENTRE,-2.021408,53.96167
2479.05,HORNDEAN SURGERY,-0.991298,50.914995
1283.8,MARKET STREET MEDICAL PRACTICE,-2.145635,53.478959
6548.75,LIBRARY HOUSE SURGERY,-2.633893,53.650664
2115.39,GOSSOPS GREEN MEDICAL CTR,-0.21648,51.107248
1269.68,STROUD PRACTICE,-2.024533,52.58916
2963.3,CASTLEFIELDS HEALTH CENTRE,-2.691794,53.338807
2566.86,BLACK COUNTRY FAMILY PRACTICE,-2.071182,52.528846
1551.79,MARK STREET SURGERY,-2.144639,53.62423
1028.73,LAUNCESTON CLOSE SURGERY,-2.542488,53.183101
2794.98,CARITAS GENERAL PRACTICE PARTNERSHIP,-2.134599,53.395928
3.04,COMPTON PALLIATIVE CARE TEAM,-2.172068,52.585801
1030,COLNE ROAD SURGERY,-2.236848,53.801226
1271.51,CASTLE GARDENS SURGERY,-4.140046,50.951639
1975.97,WATERSIDE MEDICAL CENTRE,-1.529997,52.283202
5201.84,THREE CHEQUERS MEDICAL PRACTICE,-1.794625,51.071924
2052.12,GANTS HILL MEDICAL CENTRE,0.064452,51.577157
1250.99,SOUTH WIGHT MEDICAL PRACTICE,-1.287022,50.587616
1693.33,HOPWOOD MEDICAL CENTRE,-2.212052,53.587143
413.48,THORNTREE SURGERY,-1.18346,54.565208
4198.15,AIR BALLOON SURGERY,-2.531438,51.459
1184.42,MINET GREEN HEALTH PRACTICE,-0.105204,51.475715
4185.75,KINGSNORTH MEDICAL PRACTICE,0.859919,51.1207
1431.49,27 BEAUMONT STREET,-1.26216,51.755081
3303.97,LANE END MEDICAL GROUP,-0.274866,51.615287
3395.2,LAUREL HOUSE SURGERY,-1.692825,52.636563
2230.11,RADFORD MEDICAL PRACTICE (KAUR),-1.167635,52.956339
2133.66,MCKENZIE GROUP PRACTICE,-1.239266,54.660465
2394.86,BLUE DYKES SURGERY,-1.414353,53.167483
6550.77,ASPEN MEDICAL PRACTICE,-2.225797,51.865969
1438.02,REDFERN HEALTH CENTRE,-3.769118,50.238912
44.97,HAVERING CCG,0.179796,51.579247
5373.62,BEACHES MEDICAL CENTRE,1.727734,52.577124
1882.37,WOOTTON VALE HEALTHY LIVING CENTRE,-0.527951,52.093688
760.33,HILLSIDE HOUSE SURGERY,-2.842807,53.419526
2823.9,CHURCHFIELDS MEDICAL PRACTICE,-1.180398,52.978865
1188.38,ST LAWRENCE ROAD SURGERY,-1.387829,53.180152
1311.91,MILL ROAD SURGERY,0.150585,52.197163
2933.06,POTTERELLS MEDICAL CENTRE,-0.208602,51.726922
935.91,NEWCASTLE GP IN A&E SERVICE,-1.618869,54.98022
817.14,CAMDEN EXTENDED ACCESS SERVICE,-0.130607,51.529916
1661,HORTON PARK MEDICAL PRACTICE,-1.772791,53.785161
7079.58,ST AUSTELL HEALTH GROUP,-4.760416,50.344296
3916.11,WHITBY GROUP PRACTICE,-0.62317,54.485919
127.29,FELTON SURGERY,-1.7113,55.298652
1106.44,SWARLAND AVENUE SURGERY,-1.578629,55.006365
1566.63,CLAY LANE MEDICAL PRACTICE,-1.482836,52.412774
157.7,MARILLAC HOSPITAL,0.307264,51.621757
3772.02,WHICKHAM COTTAGE MEDICAL CENTRE,-1.677226,54.94538
3884.04,POVEREST MEDICAL CENTRE,0.101265,51.39001
1190.33,INGLETON AVENUE SURGERY,0.104087,51.454007
674.43,STUART CRESCENT HEALTH CENTRE,-0.110172,51.600434
984.75,WAYFIELD ROAD SURGERY,0.530781,51.359826
943.1,MATCHING GREEN SURGERY,0.481244,51.582852
337.75,ZAIN MEDICAL CENTRE,-0.271242,51.606493
1811.36,MITCHELDEAN SURGERY,-2.488369,51.865935
1080.64,WATERS EDGE MEDICAL CENTRE,-2.443972,53.192336
749.23,BROWNLOW AT MARYBONE,-2.987806,53.411269
811.2,NORTH LEVERTON SURGERY,-0.822245,53.332038
2380.9,WELTON FAMILY HEALTH CENTRE,-0.484843,53.306584
1971.77,ORRELL PARK MEDICAL CENTRE,-2.962942,53.462025
55.94,ST ELIZABETHS CENTRE,0.089303,51.830298
1626.28,TINKERS LANE SURGERY,-1.900604,51.543578
549.91,FAMILY DOCTORS,-1.440964,53.798248
1395.21,BRACONDALE MEDICAL CENTRE,-2.147089,53.393998
1696.38,DENTON PARK MEDICAL GROUP,-1.698725,54.993108
2363.07,BURTON CROFT SURGERY,-1.57692,53.820807
305.13,NORHEADS LANE SURGERY,0.026739,51.314542
2734.78,THE SPINNEY MEDICAL CTR.,-2.757627,53.442443
1.05,T&G EXTENSIVIST SERVICE,-2.089243,53.488929
1867.65,HUNGERFORD MEDICAL CENTRE,-2.427003,53.09787
2544.14,CHURCH STREET PRACTICE,-0.459783,51.37345
1905.23,OMBERSLEY MEDICAL CENTRE,-2.229023,52.276554
1758.75,MONKFIELD MEDICAL PRACTICE,-0.065978,52.218778
709.5,IMEARY STREET PRACTICE,-1.424863,54.98753
1829.24,THE OLD SCHOOL MEDICAL PRACTICE,-1.142404,53.916163
2740.93,SALTERS MEDICAL PRACTICE,-2.153493,52.266877
1522.7,NEWBURN SURGERY,-1.743614,54.985644
508.08,WARLEY ROAD SURGERY,-1.993726,52.490193
519,ROSEHEATH SURGERY,-2.82558,53.359024
279.11,THE SURGERY (BROOKE ROAD),-0.070755,51.560052
2131.81,BLAKEWATER HEALTH CENTRE,-2.473916,53.76497
2100.88,ST.PAUL'S WAY MEDICAL CTR,-0.024483,51.517862
923.97,GREAT BARFORD SURGERY,-0.351406,52.156171
1598.26,ST.AGNES SURGERY,-5.202589,50.310768
3011.63,THE WHITFIELD PRACTICE,-1.526509,53.779894
1096.37,ST MELOR HOUSE SURGERY,-1.777291,51.171219
1885.31,MEDLOCK VALE MEDICAL PRACTICE,-2.142502,53.479062
1587.64,BEDMINSTER FAMILY PRACTICE,-2.594216,51.444159
511.31,ABBEYSLADE PMS (DR CHAND),0.107443,51.487796
6448.28,BOROUGHBURY MEDICAL CENTRE,-0.245486,52.577858
1085.93,THE NAYAR PRACTICE,-1.193379,53.480824
1148.27,QUAYSIDE MEDICAL PRACTICE,-2.156747,53.509855
6.68,BARTON MOSS SECURE CHILDREN'S HOME,-2.39687,53.468834
4208.04,FARNHAM ROAD PRACTICE,-0.617796,51.530427
2701.62,THE ELMS MEDICAL CENTRE,-2.892972,53.195093
31.79,DERMATOLOGY CLINIC CECS,0.54113,51.879585
5464.05,WELLWAY MEDICAL GROUP,-1.689718,55.169477
584.27,WESTBURY MEDICAL CENTRE,-2.955353,52.67874
1753.44,ARTHUR MEDICAL CENTRE,-1.422636,53.001503
2167.59,IRIDIUM MEDICAL PRACTICE  RICHMOND PCC,-1.817518,52.478024
759.44,SPRING GROVE MEDICAL PRACTICE,-0.345443,51.474432
224.64,HILL TOP PRACTICE,-2.011775,52.537791
1623.28,THE BLITHEHALE MED.CTR.,-0.065196,51.523775
1931.6,THE KIRTON LINDSEY AND SCOTTER SURGERY,-0.594073,53.474089
1703.03,UNITY HEALTH,-1.029922,53.950316
4079.22,WALLACE HOUSE,-0.081701,51.796317
573.41,MONMOUTH SURGERY,-2.367579,51.383191
2051.5,WHITTINGTON MOOR SURGERY,-1.431065,53.260996
1283.34,ARUNDEL SURGERY,-0.567268,50.852881
357.41,CLAPHAM JUNCTION MEDICAL PRACTICE,-0.173908,51.465969
2737.38,FOWNHOPE MEDICAL CENTRE,-2.594618,52.007664
223.3,DR JEHANGIR (SH),-2.21885,53.838042
2827.13,RIVERBANK MEDICAL CENTRE,-0.735087,50.993474
1214.49,ST HILARY GROUP PRACTICE,-3.06136,53.422188
1893.54,WYCHALL LANE SURGERY,-1.935566,52.409967
443.7,ROWLANDS ROAD SURGERY,-1.806157,52.463271
4671.58,DOWNING STREET GROUP PRACTICE,-0.798901,51.212905
2327.6,THE SALTSCAR SURGERY,-1.073638,54.616282
1164.4,CEDAR MEDICAL PRACTICE,-0.655287,53.570914
3856.97,PULBOROUGH MEDICAL GROUP,-0.509104,50.961138
22.76,FAIRHAVENS HOSPICE,0.67746,51.538273
1272.76,MARKET QUARTER MEDICAL PRACTICE,-1.252936,52.377534
1524.3,WHITCHURCH SURGERY,-1.340372,51.230256
638.31,PIKE MEDICAL PRACTICE,-2.045643,53.517861
30.66,WYRE FOREST COMMUNITY NURSES,-2.244954,52.387785
949.58,FALMOUTH ROAD GROUP PRACTICE,-0.093122,51.496427
1607.62,LOCKSTOWN PRACTICE,-2.057135,52.585445
628.94,SIMMONDLEY MEDICAL PRACTICE,-1.969041,53.43954
4927.91,THE PEARTREE PRACTICE,-1.339341,50.900324
253.17,DR SP TALPAHEWA,-0.260303,51.616115
5659.5,TROWBRIDGE HEALTH CENTRE,-2.206779,51.325271
2048.51,THE WHITELEY SURGERY,-1.266072,50.88262
3240.69,CUMBERLAND HOUSE SURGERY,-2.12262,53.257964
1241.23,SONNING COMMON HEALTH CTR,-0.982114,51.515603
303.82,7 DAY GP SERVICE,-3.011356,53.629265
1518.09,GARSWOOD SURGERY,-2.681273,53.496386
835.17,DR N SADDIQ'S PRACTICE,-1.605537,53.744776
41.18,MINOR INJURIES UNIT,-0.152663,52.802684
1453.68,CLOVER HEALTH CENTRE,0.068593,51.490359
1730.56,DEMONTFORT MEDICAL CENTRE,-1.938869,52.09226
1223.7,CASSIO SURGERY,-0.401058,51.656689
80.25,DERMATOLOGY GPSI DEVONPORT HC,-4.167875,50.369991
1589.67,LATCHFORD MEDICAL CENTRE,-2.561658,53.381001
70.57,WEALD CLUSTER,0.277462,51.194717
2.78,HOSPITAL AT HOME,-2.897884,53.2088
2811.14,LONGROVE SURGERY,-0.204664,51.654244
188.12,SOUTH COTSWOLD LOCALITY NURSE PRESCRIBER,-2.176389,51.847073
1231.49,STONEBRIDGE SURGERY,-2.608242,53.827609
2077.75,PROSPECT SURGERY,-1.583343,53.681523
2112.21,FORDINGBRIDGE SURGERY,-1.793531,50.928159
965.38,DR MAHMOOD & PARTNERS,-1.661589,53.677829
3807.83,THE PENDLE MEDICAL PARTNERSHIP,-2.144307,53.915882
2016.48,THE PHOENIX PRACTICE,-0.223569,51.587311
3058.25,OAKESWELL HEALTH CENTRE,-2.013776,52.5542
1597.91,CHARLTON HOUSE MEDICAL CENTRE,-0.069309,51.595299
1548.46,SUTTON VALENCE GROUP PRACTICE,0.59403,51.211195
1717.66,KINGSWOOD SURGERY,-1.754341,51.556256
1109.28,CARNON DOWNS SURGERY,-5.091905,50.22345
681.35,LONGVIEW MEDICAL CENTRE,-2.825032,53.415399
2027.24,LAVANT ROAD SURGERY,-0.781051,50.853385
3200.59,TANFIELD VIEW MEDICAL GROUP,-1.701373,54.869939
140.91,SWADLINCOTE EXTENDED ACCESS,-1.559331,52.774889
2408.84,BRIDGE LANE GROUP PRACTICE,-0.167394,51.474142
1061.07,WINTON HEALTH CENTRE,-1.876372,50.739605
2454.77,BHF LUNDWOOD SURGERY,-1.438538,53.557711
3150.04,PHOENIX WALK IN CENTRE,-2.095555,52.599722
1333.13,IC24 LTD (HORSHAM & MID SUSSEX OOH),0.891514,51.129106
1772.2,PADGATE MEDICAL CENTRE,-2.556188,53.406509
410.87,THE BEDFORD PARK SURGERY,-0.262302,51.49598
284.31,GARRETTS GREEN LANE SURGERY,-1.788691,52.468447
588.69,PARK HOUSE MEDICAL CENTRE,-0.20665,51.53452
1730.54,SUTHERLAND LODGE SURGERY,0.482571,51.725662
6186.1,EASTGATE MEDICAL GROUP  HORNSEA,-0.16825,53.915277
2068.89,WESTBOURNE MEDICAL GROUP,-1.495464,54.866868
964.08,THE HOLLIES FAMILY SURGERY,-3.061442,53.55525
4262.69,MIRIAM PRIMARY CARE GROUP,-3.04649,53.398246
959.93,HUNTLEY MOUNT MEDICAL CENTRE,-2.27859,53.600201
1425.34,THE ORCHARD PRACTICE,-0.303542,51.369116
2186.92,LAKENHAM SURGERY,1.296577,52.6183
47.1,B'WATER CH CN WARRINGTON,-2.628343,53.415482
146.94,SPECIALIST SERVICES,-1.441882,53.221288
1095.67,THE ACORN & GAUMONT HOUSE SURGERY,-0.06645,51.474157
7136.69,THE ADAM PRACTICE,-2.07822,50.757881
2157.9,NEWTOWN MEDICAL PRACTICE,-2.669697,53.538479
1916.65,MATHER AVENUE SURGERY,-2.892382,53.365377
68.11,WESTCOTES GP SURGERY (TWO),-1.15115,52.628609
531.21,W HANTS SW COMM DERM SERVICE,-2.455551,53.733223
1477.27,MARSH MEDICAL PRACTICE,0.143689,53.445069
971.45,PALMERSTON ROAD SURGERY,0.044819,51.626871
6945.46,BIRTLEY MEDICAL GROUP,-1.576441,54.891881
2252.29,TOWNHILL MEDICAL PRACTICE,-0.102825,51.290561
2481.28,DORRIDGE SURGERY,-1.752074,52.372757
2286.97,THE CORINTHIAN SURGERY,-2.0815,51.906706
3327.58,BROMLEY GP ALLIANCE,-0.033209,51.405232
1574.13,RYE MEDICAL CENTRE,0.730363,50.961944
3065.95,OAKLANDS HEALTH CENTRE,-1.784282,53.577106
3654.59,HIGH STREET SURGERY,1.756043,52.482123
1072.03,FAIRMORE MEDICAL PRACTICE,-2.280663,53.70081
906.41,DR VICTORIA MUIR'S PRACTICE,-0.151358,51.490651
5412.58,LINDEN AVENUE MEDICAL CENTRE,-0.716133,52.397046
1330.09,ALPHA MEDICAL PRACTICE,-1.856091,52.490749
242.01,NORTH TYNESIDE COMMUNITY SERVICE,-1.508192,55.020469
174.62,CONSULTANT DERMATOLOGIST(SUNDERLAND),-1.447219,54.926589
2517.1,THE STREET LANE PRACTICE,-1.513393,53.843234
2194.48,VINE HOUSE HEALTH CENTRE,-0.41878,51.70477
36.78,TONBRIDGE CLUSTER,0.277462,51.194717
3025.31,NEWBURY GREEN MEDICAL PRACTICE,-2.26047,53.506995
3696.08,TAUNTON ROAD MEDICAL CENTRE,-3.001634,51.124679
2619.75,CHARNWOOD MEDICAL GROUP,-1.22117,52.774303
4575.14,DONNINGTON MEDICAL PRACTICE,-2.437109,52.715179
53.7,WEST KENT GROUP,1.118942,51.075872
3109.82,MANOR DRIVE MEDICAL CENTRE,-0.248366,51.380785
519.45,DR NASAH & PARTNERS,0.505558,51.567734
773.71,LINKS MEDICAL PRACTICE,-2.079024,52.487973
1814.26,PARK MEDICAL PRACTICE,-2.327843,53.401899
560.74,OLD TRAFFORD MEDICAL PRACTICE,-2.275745,53.458074
210.8,CATERHAM DENE RAC,-0.085202,51.283627
1380.01,HAVEN HEALTH,1.327039,51.96536
4194.23,CASTLE MEDICAL GROUP PRACTICE,-0.415501,51.875588
3140.67,SACRISTON MEDICAL CENTRE,-1.628413,54.819683
1838.24,SOUTHAM SURGERY,-1.385752,52.251212
1.47,ADDICTIONS SERVICE,-1.607294,54.973724
1846.46,NORVIC FAMILY PRACTICE,-1.960133,52.489728
2.78,CMHT EAST,-0.066189,53.557292
2652.47,WINTERTON MEDICAL PRACTICE,-0.606876,53.652511
2211.43,STONEHAM LANE SURGERY,-1.378468,50.939305
1746.7,LILFORD PARK SURGERY,-2.511455,53.503236
5853.01,LINTONVILLE MEDICAL GROUP,-1.570274,55.183776
662.89,BLUEBELL SURGERY,0.921899,51.916473
1886.19,MANOR HOUSE SURGERY,-0.161227,51.916084
562.78,WEST KENT DERMATOLOGY,-0.364575,50.819326
1663.49,NEW ISLINGTON MEDICAL CENTRE,-2.219472,53.4829
1625.78,SEFTON PARK MEDICAL CENTRE,-2.934843,53.393088
1150.17,LATHOM ROAD MEDICAL CENTRE,0.052675,51.538066
3123.66,THE CAXTON SURGERY,-3.051276,52.861431
291.19,TOTTENHAM HALE MEDICAL PRACTICE,-0.058714,51.589477
2537.59,SALTERS MEADOW HEALTH CTR,-1.933023,52.68216
929.26,SURREY LODGE PRACTICE,-2.218728,53.458264
561.46,PLEASLEY SURGERY,-1.250873,53.175809
4184.6,LYTHAM ROAD SURGERY,-2.710575,53.77784
890.7,MILLENNIUM FAMILY PRACTICE,-1.603663,54.962972
67.62,THE RIVERS HOSPITAL,0.130457,51.807096
2423.63,PURTON SURGERY,-1.878078,51.585483
2.78,VIRGIN CARE (REDCAR & CLEVELAND),-1.071064,54.617107
1431.7,BARRINGTON MEDICAL CENTRE,-2.352158,53.38672
367.25,HEDNESFORD MEDICAL PRACTICE,-2.000697,52.71233
4267,WALDERSLADE SURGERY,-1.43772,53.499821
1387.25,ABRIDGE SURGERY,0.12458,51.653631
80.85,GRANTHAM EXTENDED ACCESS K2,-0.639825,52.910073
1460.31,ARTHINGTON MEDICAL CENTRE,-1.532912,53.77216
3385.29,SHIFNAL & PRIORSLEE MEDICAL PRACTICE,-2.376009,52.667675
2944.59,ASHWORTH STREET SURGERY,-2.165652,53.619565
8.43,MFT ADULT COMMUNITY SERVICES,-2.188524,53.446352
2737.75,THE LIGHTHOUSE GROUP PRACTICE,-1.080505,50.796551
5716.89,TESTVALE SURGERY,-1.489898,50.919405
1467.52,THE DOVE VALLEY PMS PRACTICE,-1.46034,53.529021
3464.77,PRIMARY CARE SEVEN DAY SERVICE,-0.059836,51.623784
3741.27,MILL ROAD SURGERY,0.896057,51.912436
1605.85,TONG MEDICAL PRACTICE,-1.716795,53.77049
2089.04,GODIVA GROUP PRACTICE,-1.482836,52.412774
2294.66,KINGSBRIDGE MEDICAL CENTRE,-2.226198,52.9927
50.79,THE ROYAL MEWS SURGERY,-0.145223,51.498764
55.73,ASHFORD HUB,-0.472813,51.444022
1540.1,DR VARDHAN'S SURGERY,-2.447913,53.500769
1577.47,WELLS PARK PRACTICE,-0.063327,51.430508
1038.38,THE DOC'S SURGERY,-2.238064,53.476932
2975.62,HADLEIGH BOXFORD GROUP PRACTICE,0.953136,52.043021
3604.93,EAST NORFOLK MEDICAL PRACTICE,1.725527,52.619127
47.41,SCARBOROUGH EXTENDED ACCESS HUB,-0.416116,54.282229
495.46,HANCOCKS ME,-0.412964,53.782123
3059.36,THE MILTON SURGERY,-2.949198,51.352664
1090.92,BAKERSFIELD MEDICAL CENTRE,-1.104957,52.960219
1128.85,RAINFORD HEALTH CENTRE,-2.781746,53.500694
1717.59,MARCHAM RD FAMILY HEALTH CENTRE,-1.302953,51.66958
2215.15,THE LAURELS SURGERY,0.544165,51.758518
3879.98,THE CAMBRIDGE PRACTICE,-0.76565,51.254364
1126.17,ROCKLEIGH COURT SURGERY,0.326872,51.63026
1242.16,IFIELD MEDICAL PRACTICE,-0.211874,51.121108
2921.48,ST.STEPHENS HEALTH CENTRE,-0.031163,51.532455
994.17,PARK ROAD MEDICAL CENTRE,-0.150952,51.363489
803.28,MANCHESTER MEDICAL,-2.23745,53.45875
2524.53,POUND HILL MEDICAL GROUP,-0.156409,51.118813
1611.32,SANDY LANE SURGERY,-1.182896,53.147091
2481.9,LANGWORTHY MEDICAL PRACTICE,-2.294771,53.489371
2078.75,THE GOODINGE GROUP PRACTICE,-0.125442,51.54825
1299.75,NEMS CBS MID NOTTS OOH,-1.233579,53.134573
3005.73,ROLLE MEDICAL PARTNERSHIP,-3.401499,50.621139
1008.78,RILLWOOD MEDICAL CENTRE,-0.835728,52.263295
688.05,THE MANSELL ROAD PRACTICE,-0.358969,51.525654
2.18,CONTINENCE PRESCRIPTION SERVICE,-1.162019,52.97426
2834.76,FORESTSIDE MEDICAL PRACTICE,-1.416173,50.851823
769.48,TRINITY SURGERY,-1.650877,52.617569
3088.71,NORTHWOOD MEDICAL CENTRE,-1.932971,52.415485
1331.73,AUGHTON SURGERY,-2.902089,53.543684
794.91,CHATHAM STREET SURGERY,-0.981895,51.455924
538.87,SLAIDBURN HEALTH CENTRE,-2.444001,53.967313
1615.08,PETERLEE PRIMARY CARE SERVICES,-1.335627,54.758287
4918.42,FEARNHEAD CROSS MED.CTR.,-2.559106,53.411071
663.66,GREENFIELD MEDICAL CENTRE,-1.855764,52.491684
612.94,THE PROJECT SURGERY,0.020636,51.532273
670.81,THE VALE SURGERY,-0.251817,51.506454
18.24,TOTTON HEALTH CENTRE,-1.488789,50.92065
4499.96,HAVELOCK GRANGE PRACTICE,-1.214164,54.682342
375.86,LOCAL PRIMARY CARE NORTH LOCALITY SPOKE,-2.467263,53.758668
634.65,ST. LUKE'S SURGERY,-1.167635,52.956339
1294.65,CRICH MEDICAL PRACTICE,-1.482573,53.084327
3533.84,CHURCH STREET PRACTICE,-2.153433,51.99229
1630.47,GUTTERIDGE MEDICAL CENTRE,-2.691248,53.769881
3434.13,KIRKHAM HEALTH CENTRE,-2.878541,53.781939
81.02,EXTENDED ACCESS PCD CONISBROUGH GROUP,-1.237653,53.482282
879.17,DR N NAGPAL'S PRACTICE,-2.467033,53.746299
4689.57,AINTREE PARK GROUP PRACTICE,-2.967297,53.462799
3166.89,THE RYAN MEDICAL CENTRE,-2.663635,53.730399
853.78,CAREPOINT PRACTICE,-0.411552,51.604465
2597.24,FLANSHAM PARK HEALTH CENTRE,-0.629205,50.794855
185.64,MOHANTY PRACTICE,-2.130534,53.53731
1428.7,CHORLEYWOOD HEALTH CENTRE,-0.520415,51.654714
5109.66,THE SWAN PRACTICE,-0.985664,52.001593
2143.94,KENSINGTON ROAD SURGERY,-1.532401,52.40257
1285.27,TONGE FOLD HEALTH CENTRE,-2.405772,53.579119
3042.71,GUISELEY AND YEADON MEDICAL PRACTICE,-1.684131,53.865295
348.18,HAROLD STREET MEDICAL CENTRE,-1.492871,53.393121
3526.24,SHERWOOD MEDICAL PARTNERSHIP,-1.137878,53.157488
89.49,NORTH COTSWOLDS IMPROVED ACCESS,-2.239997,51.862659
4401.61,CASTLE PRACTICE,-1.617531,51.256028
2162.58,CARDEN SURGERY,-0.126631,50.862197
317.49,LANCELOT MEDICAL CENTRE,-0.299498,51.552907
3446.5,ELLERGREEN MEDICAL CENTRE,-2.919309,53.445416
770.96,COMMUNITY DERMATOLOGY SERVICE NHS H&R,0.475497,50.850706
827.59,KIDDROW MEDICAL PRACTICE,-2.288626,53.795175
2282.7,THE VINE MEDICAL CENTRE,0.514909,51.270888
3093.03,THE SYMONS MEDICAL CENTRE,-0.73892,51.522782
4751.93,HARESFIELD HOUSE SURGERY,-2.202996,52.194829
2632.12,CENTRAL SURGERY,0.147747,51.812546
1322.26,QUEENHILL MEDICAL PRACTICE,-0.066791,51.34499
2413.36,GATEACRE BROW SURGERY,-2.8632,53.383291
2297.92,RED HOUSE SURGERY,0.129161,52.214906
1.05,COMMUNITY DIABETES SERVICE,-2.842807,53.419526
944.79,RUSH HILL SURGERY,-2.393951,51.365379
1089.95,OUT OF HOURS CENTRE,-1.842798,54.869081
1463.07,DR S PHILLIPS AND DR M PATEL PRACTICE,-0.027903,51.569142
3121.65,ST GEORGES MEDICAL CENTRE,0.762412,51.436183
1091.31,THE CHESSER SURGERY,-0.177303,51.374927
867.89,ASHURST PRIMARY CARE,-2.772723,53.563208
1015.06,TOWN HALL SURGERY,-2.092973,53.478374
1394.57,WHITE CLIFFS MEDICAL CENTRE,1.301586,51.12422
195.4,PARTNERSHIP SOUTH,-2.109085,52.810605
1201.47,ST ANDREWS EXTENDED ACCESS HUB,-0.013843,51.523897
1265.48,NORTH BEVERLEY MEDICAL CENTRE,-0.439008,53.857996
2450.67,KILLICK STREET HEALTH CENTRE,-0.119068,51.534237
1416.58,THE LILYVILLE SURGERY,-0.199155,51.47377
960.64,BURNBRAE MEDICAL PRACTICE,-0.303885,53.760383
3629.69,TOPSHAM SURGERY,-3.462097,50.683825
567.29,FITZMAURICE (KEW),-0.283117,51.475875
1015.1,ST PETER'S SURGERY,1.41893,51.362936
2180.24,THE COURTYARD SURGERY,-0.328342,51.065411
303.24,BROOMFIELD DOCTOR IN ED,0.465993,51.774654
2062.56,SHIFA SURGERY,-2.475999,53.757295
748.56,SHIPDHAM SURGERY,0.894462,52.628852
1218.95,OLD PARSONAGE SURGERY,0.460418,51.112785
1138.5,POPLAR PRIMARY CARE CENTRE,-1.890326,52.43631
900.69,SPITAL SURGERY,-3.003678,53.340977
1351.85,GRAVESEND MEDICAL CENTRE,0.369986,51.443932
208.27,THE KILLINGHOLME SURGERY,-0.260335,53.629908
1647.24,THEATRE ROYAL SURGERY,0.942383,52.683767
526.64,SOMERS TOWN MEDICAL CENTRE,-0.130607,51.529916
2219.15,THE SANDRINGHAM PRACTICE,-1.098266,53.533949
1261.92,BRANSTON & HEIGHINGTON FAMILY PRACTICE,-0.467988,53.195831
1582.28,THE BORCHARDT MEDICAL CENTRE,-2.237795,53.434307
460.78,THE VILLAGE MEDICAL CTRE,-2.871986,53.374777
469.18,DR GT HENDOW'S PRACTICE,-0.32136,53.787408
223.74,WEST BROM P'SHIPS FOR HEALTH,-2.000605,52.517891
2452.82,ANGEL LANE SURGERY,0.362574,51.871967
3293.84,BUNGAY MEDICAL CENTRE,1.442974,52.44971
2750.69,NOTTINGHAM NHS URGENT CARE CENTRE,-1.139043,52.950139
446.29,ST MARY'S SURGERY,-2.000799,52.613174
503.8,BROOM ROAD MEDICAL PRACTICE,-0.030275,51.369778
589.68,ARDEN HEALTHCARE CENTRE,-1.508005,52.413401
1667.15,KIRKBY COMMUNITY PRIMARY CARE CENTRE (3),-1.248741,53.10176
736.27,VICTORIA MEDICAL CENTRE,-1.52187,54.97385
1797.6,THE RIGG-MILNER MEDICAL CENTRE,0.415644,51.48007
1561.84,SHROPSHIRE WALK IN HEALTH CENTRE,-2.738044,52.707892
762.52,KIRKGATE SURGERY,-1.667625,53.732234
1991.43,FRIERN BARNET MEDICAL CENTRE,-0.155988,51.613267
1559.66,HOLLAND PARK SURGERY,-0.194435,51.501412
1732.34,WOODVILLE SURGERY,-1.536503,52.770685
3160.51,ELMHAM SURGERY,0.943019,52.752311
2838.41,CROWN SURGERY,-2.253515,52.859415
696.39,REGENT STREET SURGERY,-2.283616,51.744168
1495.31,JUBILEE HEALTH CENTRE,-2.01963,52.551655
4121.78,GTD HEALTHCARE PRESTON OOH,-2.706842,53.791521
2298.56,DALTON SURGERY,-3.179816,54.155917
537.39,MAIDSTONE RD CHATHAM SURGERY,0.516708,51.361226
1828.03,SKEGBY FAMILY MEDICAL CENTRE,-1.273344,53.142337
23.84,HARROW HEALTH CIC - HAEMORRHOIDS SERVICE,-0.383747,51.594674
1550.39,THE WRITTLE SURGERY,0.426548,51.73248
4894.38,PARKBURY HOUSE SURGERY,-0.334063,51.756766
1045.27,BUCKFASTLEIGH MEDICAL CENTRE,-3.781989,50.480934
1606.16,CITY HEALTH PRACTICE LTD,-0.306816,53.756542
845.73,VALLEY VIEW SURGERY,-1.731903,53.806791
975.56,DR PCL KNIGHT,0.010023,51.541412
749.19,HORNSPIT MEDICAL CENTRE,-2.915341,53.436681
1817.85,ARRAN MEDICAL CENTRE,-1.748679,52.503867
2478.36,THE MAPLES MEDICAL CENTRE,-2.286712,53.384846
1235.6,MILTON SURGERY,0.162445,52.241924
3781.72,DR G LEES & PARTNERS,-1.593212,53.796407
4165.82,THE SHRUBBERY SURGERY,0.351088,51.433242
517.31,SHIP STREET SURGERY,-0.141753,50.821384
709.62,NORTON CANES SURGERY,-1.970246,52.673977
1387.83,ST. LAURENCE'S MEDICAL CENTRE,-2.882285,53.475161
2021.57,THE BRIMINGTON SURGERY,-1.395708,53.257173
52.23,WHITBY MINOR INJURIES UNIT,-0.615671,54.48445
2802.92,MAYLANDS HEALTHCARE,0.190596,51.552912
2042.82,YORKLEIGH SURGERY(CT),-2.0847,51.900132
85.22,B&H EXTENDED HOURS SERVICE,-0.148293,50.838378
2246.85,LANTERN HEALTH-CARPENTERS PRACTICE,-0.003474,51.537165
296.1,WALTHAM ROAD MEDICAL CENTRE,0.584106,51.373869
2806.24,BURY OOH,-2.288591,53.59553
403.43,PARROCK STREET SURGERY,0.371171,51.441238
450.26,NEVILLE ROAD SURGERY,-0.443036,51.906419
92.96,CWP (WEST) PHYSICAL HEALTH,-2.897884,53.2088
41.86,WEST KENT HEALTH FEDERATION,0.277462,51.194717
669.88,CATER STREET SURGERY,-0.490495,52.119586
2581.81,WELLING MEDICAL PRACTICE,0.107972,51.460844
18,GP SERVICE ACCIDENT AND EMERGENCY,1.71798,52.561672
810.32,HILL BARTON SURGERY,-3.481689,50.723363
524.43,STACKYARD AND WOOLSTHORPE SURGERY,-0.7611,52.852515
3824.14,HEALDS ROAD SURGERY,-1.651637,53.700113
682.41,BRADFORD MOOR PRACTICE,-1.721849,53.797834
3520.84,DR SPENCER & PARTNERS,-0.677325,52.359891
1161.72,SMALLFIELD SURGERY,-0.118564,51.171722
2224.35,CHURCH STREET PRACTICE,-1.425847,51.598763
1188.99,HUMBER ROAD SURGERY,0.48396,51.747558
161.96,PAT HMR COMMUNITY SERVICE,-2.229502,53.517882
1855.81,BALSALL COMMON & MERIDEN GROUP PRACTICE,-1.643862,52.394956
1036.73,NORTH EAST ESSEX DIABETES SERVICE,0.921899,51.916473
1.47,PALLIATIVE CARE,-2.974618,53.633552
5310.62,CHELMER MEDICAL PARTNERSHIP,0.459513,51.749313
63.79,NHS EASTERN CHESHIRE CCG NMP'S,-2.12262,53.257964
2938.06,URGENT CARE CENTRE DARLINGTON OOH,-1.563733,54.530374
760.81,DR RC RAUTRAY'S PRACTICE,-2.475521,53.752542
3325.02,CLARENDON LODGE MEDICAL CENTRE,-1.531715,52.294043
1560.5,ORCHARD 2000 GROUP,-0.370022,53.786372
179.33,WESTCLIFFE HEALTH INNOVATIONS ENT,-1.712131,53.823092
2785.17,GOSPORT MEDICAL CENTRE,-1.147265,50.79354
297.77,LANGTHORNE SHARMA FAMILY PRACTICE,0.0021,51.555415
1583.95,FARMHOUSE SURGERY,-1.7595,50.736437
150.3,UHSM COMMUNITY SERVICES,-2.25528,53.390625
242.09,AR-RAZI MEDICAL CENTRE,-1.101204,52.623926
1920.55,TAMWORTH HOUSE MEDICAL CENTRE.,-0.146254,51.40122
4.02,VIRGIN CARE (NORTH LINCS),-0.6524,53.592365
1514.55,MANSFIELD MEDICAL CENTRE,-1.484577,52.405976
164.43,YATE MINOR INJURIES UNIT (MIU),-2.41621,51.540461
1505.97,BELMONT MEDICAL CENTRE,-0.385203,51.500848
1894.84,FAIRHILL MEDICAL PRACTICE,-0.282871,51.417069
250.01,SHROPSHIRE COMMUNITY HEALTH NHS TRUST,-2.789366,52.705844
904.49,HENLEY GREEN MEDICAL CENTRE,-1.454284,52.428369
630.66,ADDINGTON MEDICAL PRACTICE,-0.018557,51.344382
3660.69,EDEN PARK SURGERY,-0.041426,51.399335
2944.64,CASTLE PLACE PRACTICE,-3.492865,50.908884
190.48,NORTH NORFOLK HUB 2 (BIRCHWOOD),1.38334,52.820065
1934.02,CROOKES PRACTICE,-1.502259,53.38366
4823.44,THE SIMPSON CENTRE,-0.651318,51.610791
858.31,UPTON LANE MEDICAL CENTRE,0.026394,51.5431
3860.66,MAYWOOD HEALTH CARE CENTRE,-0.693582,50.786664
1353.49,ASKERN MEDICAL PRACTICE,-1.148909,53.615496
2906.4,CAPTAIN FRENCH SURGERY,-2.748562,54.323429
108.14,THREE VALLEY HEALTHCARE,-1.91892,53.32331
607.65,THE NEW SURGERY,-0.660492,51.794471
4228.88,DENTON TURRET MEDICAL CENTRE,-1.686387,54.983928
1469.22,THE EUXTON MEDICAL CENTRE,-2.676836,53.669016
1318.65,FALMOUTH HEALTH CENTRE,-5.08602,50.156398
5983.59,MILLGATE HEALTHCARE PARTNERSHIP,-2.118464,53.455602
7.77,NEW HAYESBANK EYE CLINIC,0.882257,51.165906
88.35,LUTHER STREET MEDICAL PRACTICE,-1.258255,51.747356
1084.19,SOUTHFIELD WAY SURGERY,-2.018733,52.658391
3386.08,NEW COURT SURGERY,-2.30878,52.113538
2156.75,WINDRUSH SURGERY,-1.343294,52.058899
1351.7,DR GC CHAJED'S PRACTICE,0.465396,51.564483
4098.76,STAR SCHEME EXTENDED,-1.068807,54.599299
1344.67,NORTH SHOEBURY SURGERY,0.784481,51.542211
2272.47,SPRINGS HEALTH CENTRE,-1.265531,53.27774
258.73,VERITAS HEALTH CENTRE,-1.481026,53.354257
2176.28,HEATH LANE MEDICAL CENTRE,-2.86384,53.188961
1681.94,CAMPINGLAND SURGERY,0.690978,52.645997
2463,PARK VIEW SURGERY,-2.77111,54.227652
332.2,AYLESTONE HEALTH CENTRE,-1.152678,52.605677
265.63,LCHS NMP,-0.52415,53.226467
997.74,CHOICE PLUS,-2.0815,51.906706
560.7,CHARMOUTH MEDICAL PRACTICE,-2.903858,50.738665
1257.06,THE CRESCENT MEDICAL CTR.,-0.876393,52.250449
89.77,DERMATOLOGY SERVICES E&N,-0.222882,51.827958
319.21,NORTON CANES HEALTH CENTRE,-1.970246,52.673977
1505.47,VILLAGE SURGERY,-1.896468,50.741178
1692.11,UNIVERSITY HEALTH CENTRE,-0.548748,53.229537
60.21,ISLINGTON PCCS,-0.091116,51.527895
2266.88,GORDON HOUSE SURGERY,-0.31522,51.509944
1990.81,FULLWELL CROSS MED. CTR.,0.083782,51.594621
1901.15,VISTA ROAD SURGERY,-2.645459,53.457808
1630.86,SANDS END HEALTH CLINIC,-0.191391,51.473128
564.7,WELLINGTON HEALTH CENTRE,-0.171284,51.532275
3262,BALL TREE SURGERY,-0.338832,50.831767
3770.42,KINGFISHER FAMILY PRACTICE,-0.950634,53.325451
1577.75,ABBEY ROAD SURGERY,-0.030102,51.684417
3564.9,LONDON LANE CLINIC,0.008653,51.415223
4979.8,IVY COURT SURGERY,0.690221,51.068039
885.92,THE SURGERY,-2.605295,53.024859
635.61,DR SHARMA & PARTNERS,0.447593,51.588181
1494.77,THE OAKS MEDICAL CENTRE,-1.215186,52.928031
4104.33,THE PARK MEDICAL PRACTICE,-2.739045,53.77018
519.92,WARRIOR SQUARE SURGERY,0.716503,51.539534
3647.8,CHOBHAM & WEST END MEDICAL PRACTICE,-0.602516,51.34981
10.83,HP NMP'S N & S CCG,-1.143101,53.130244
1439.65,NENE VALLEY SURGERY,-0.537451,52.399796
580.84,AILSWORTH MEDICAL CENTRE,-0.352472,52.577435
3980.48,BLOOMFIELD MEDICAL CENTRE,-3.043644,53.804417
1332.69,KINGS ROAD MEDICAL CENTRE,-0.184768,51.480355
6905.77,SEVERN VALLEY MEDICAL PRACTICE,-2.235045,52.190415
3099.81,HOCKLEY FARM MED PRACT (A NANA),-1.183899,52.630898
252.37,EAST ENFIELD PRACTICE,-0.046596,51.649065
999.04,THE AZAD PRACTICE,0.044868,51.531234
1531.36,MELBOURNE PARK MEDICAL CENTRE,-1.192728,52.975767
2808.88,THORPEWOOD MEDICAL GROUP,1.341071,52.641956
1444.46,ST.HELENS MEDICAL CENTRE,-1.109209,50.698751
468,EDEN SURGERY,-1.30159,52.962668
459.3,THE HOXTON SURGERY,-0.086829,51.533527
9.02,HALTON PRIMARY CARE DERMATOLOGY SERVICE,-2.727045,53.331865
1.47,S. LEEDS CAMHS - PARKSIDE,-1.547737,53.771599
612.62,DR MARKS PRACTICE,0.192379,51.572553
603.51,BRENTFORD FAMILY PRACTICE,-0.310054,51.48676
1871.15,MANOR AND PARK GROUP PRACTICE,-1.42716,53.373705
1664.86,BIRD-IN-EYE SURGERY,0.105639,50.96595
1066.73,LONGFIELD MEDICAL PRACTICE,-2.28357,53.533828
720.85,THE HALING PARK PARTNERSHIP,-0.098109,51.357113
60.94,SOUTH CHESHIRE & VALE ROYAL PCAH,-2.531272,53.1909
468.37,DR RB KUMAR PRACTICE,0.800566,51.327757
2638.72,HANDSWORTH MEDICAL PRACTICE,-1.383405,53.371708
1884.27,MOSBOROUGH HEALTH CENTRE,-1.364873,53.325238
1256.57,CRABBS CROSS SURGERY,-1.943704,52.281407
59.98,GP LED DERMATOLOGY SERVICE,-0.299929,51.390825
4579.17,I HEART BARNSLEY,-1.506899,53.547954
12579.32,MIDLANDS MEDICAL PARTNERSHIP,-1.81313,52.519802
1556.68,THE HEALTH CARE SURGERY,-1.487911,53.42172
39.74,VIRGIN CARE (MIDDLESBROUGH),-1.235298,54.577005
757.72,HYTHE MEDICAL CENTRE SURGERY,-0.526274,51.429608
341.24,THE LEIGH SURGERY,0.656153,51.555504
2633.51,WILLOW BANK SURGERY,-2.102853,52.97847
1769.16,PARK MEDICAL CENTRE,-2.873099,53.202665
275.64,COMMUNITY SERVICES NURSE PRESCRIBERS,-0.487256,51.892609
2172.74,THE NEW CONINGSBY SURGERY,-0.173849,53.105092
1100.16,THE STATHAM GROVE SURGERY,-0.08946,51.557463
2861.38,CROWN HOUSE SURGERY,-0.950634,53.325451
693.25,BARN SURGERY,-0.447347,50.813953
378.11,PRIMARY CARE MANCHESTER LIMITED,-2.214292,53.489633
577.51,CRICKLADE SURGERY,-1.85646,51.640614
617.32,WOODGATE VALLEY HEALTH CENTRE,-1.991423,52.442663
1191.46,CROSS ROAD SURGERY,-2.464849,50.602187
1547.01,ST PETER'S MED CENTRE (MANSINGH & MEHRA),-1.119092,52.631036
21.62,HMR CCG HART,-2.152215,53.620446
702.2,JRB HEALTHCARE BEECHDALE SURGERY,-1.198142,52.961504
2.78,BARNET RECOVERY CENTRE EDGWARE WDP,-0.271242,51.606493
2916.59,CHEETHAM HILL PRIMARY CARE CENTRE,-2.23526,53.501162
570.73,CROSSWAYS PRACTICE,-3.023992,53.484655
1043.43,HOUNSFIELD SURGERY,-0.811033,53.183702
2093.56,HADDENHAM MEDICAL CENTRE,-0.921732,51.777822
3522.22,LISTER HOUSE SURGERY,-0.227126,51.764574
3454.63,NETTLEHAM MEDICAL PRACTICE,-0.476253,53.262865
49.18,NORTH DEVON TRUST NMPS,-3.413654,50.729414
617.27,CUMBERLAND MEDICAL CENTRE,0.026047,51.519716
5667.46,THE RIDINGS MEDICAL GROUP,-0.622066,53.765218
3176.67,STANMORE HOUSE SURGERY,-2.231468,52.391138
446.49,DR BK JAISWAL'S PRACTICE,0.125595,51.538934
3370.02,THE OVER-WYRE MED.CTR.,-2.976492,53.928203
5249.19,DOCTOR LANE HEALTH CENTRE,-1.696722,53.675715
4421.12,NEWPORT PAGNELL MED.CTR.,-0.725298,52.086465
4633.59,TRAFALGAR MEDICAL GROUP PRACTICE,-1.092485,50.785331
3266.22,LONDON ROAD SURGERY,0.519034,51.613356
2746.81,LEEDS CITY MEDICAL PRACTICE,-1.555879,53.778323
2309.32,NORTHGATE SURGERY,-1.866567,52.899272
2604.49,AMWELL SURGERY,-0.013312,51.759904
2508.48,THE VILLAGE PRACTICE,-3.014553,53.876825
980.91,240 WEXHAM ROAD,-0.57838,51.516902
581.08,THE JUBILEE PRACTICE,-1.003945,53.013557
2028.67,LONG LANE,-2.925005,53.456024
3133.57,GREYSTOKE SURGERY,-1.683424,55.171694
1477.52,KINGSTON HEALTH CENTRE,-0.304894,51.414188
2102.84,NORTH TRAFFORD GROUP PRACTICE,-2.299481,53.453882
483.75,SMS MEDICAL PRACTICE,-0.306785,51.549713
3726.7,STRATTON MEDICAL CENTRE,-4.516205,50.830225
2494.78,PARK FARM MEDICAL CENTRE,-1.495809,52.94407
2844.57,42 KINGSWAY,-3.020167,53.481011
4882.46,HELSTON MEDICAL CENTRE,-5.270081,50.099592
616.66,BURSLEDON SURGERY,-1.317111,50.890052
797.97,WYRESDALE ROAD SURGERY,-2.452196,53.581577
18.22,PRIMARY CARE DVT SERVICE,-2.473916,53.76497
1462.96,THE MEDICAL CENTRE,-0.476068,51.50442
3575.45,THE GLENFIELD SURGERY,-1.196305,52.655381
3645.51,TRENTSIDE MEDICAL GROUP,-1.074629,52.964659
3818.57,THE NEW FOLLY SURGERY,0.384799,51.669624
109.97,WHITBY GP OOH,-1.112167,53.976819
3634,SWANSCOMBE HEALTH CENTRE,0.28731,51.424657
641.56,UPPER HALLIFORD MEDICAL CENTRE,-0.43115,51.411378
2399.62,NESTON MEDICAL CENTRE,-3.064349,53.291818
680.25,DROYLSDEN MEDICAL PRACTICE,-2.145664,53.487166
2010.87,CEDARS MEDICAL GROUP,-1.740442,54.90557
597.63,DR VM PATEL,0.228776,51.561113
1798.25,UNITY SURGERY,-1.103411,52.980422
3004.96,FOREST PRACTICE,0.075235,51.654789
2486.31,HOLTS HEALTH CENTRE,-2.406966,51.931555
37.71,NMP SOUTHERN HEALTH (WEST HANTS),-1.530052,50.9313
923.78,GUN LANE MEDICAL CENTRE,0.493189,51.397398
6152.12,URGENT CARE CENTRE (ERITH),0.166643,51.477113
464.58,WESTFIELD MEDICAL CENTRE,-1.531703,53.817673
282.05,GOLDINGTON ROAD SURGERY,-0.456174,52.140172
239.44,PRESTON MEDICAL CENTRE,-0.292579,51.564335
1519.87,WOODHALL SPA NEW SURGERY,-0.207041,53.153263
3533.39,THE NEW SURGERY,1.181851,51.089152
879.77,GLENDALE MEDICAL CENTRE,-0.434503,51.490429
5260.66,FRIARSGATE PRACTICE,-1.336797,51.074249
1016.7,EHS DERMATOLOGY SERVICE,0.01426,50.873305
1152.09,VESTA ROAD SURGERY,-0.040618,51.468737
1670.79,GRAVEL HILL SURGERY,-2.185723,52.534052
2395.22,SHROPDOC OUT OF HOURS,-2.732712,52.740396
1405.15,LEACROFT MEDICAL PRACTICE,-0.196029,51.126566
3318.3,PEEL HALL MEDICAL CENTRE,-2.265017,53.379925
4598.83,TILEHURST VILLAGE SURGERY,-1.042269,51.461233
2116.5,BUDSHEAD MEDICAL PRACTICE,-4.150289,50.417443
483.42,SOUTH SAXON HOUSE SURGERY,0.526723,50.868702
594.03,ELTHAM PALACE PMS,0.053714,51.449946
2733.68,RIVERPORT MEDICAL PRACTICE,-0.075654,52.343316
1806.28,DR KK CHAN & PARTNERS,-2.489022,53.524185
1061.19,ROTTON PARK MEDICAL CENTRE,-1.947079,52.482162
4245.59,AYLMER LODGE COOKLEY PARTNERSHIP,-2.261095,52.38419
2127.4,FRAMLINGHAM SURGERY,1.334192,52.227216
528.59,LANCASTER GATE MEDICAL CENTRE,-0.183362,51.511753
480.27,PENNINE SURGERY,-2.103349,53.642995
36.56,WOODROYD MEDICAL PRACTICE,-1.753878,53.775183
2606.89,MARLBOROUGH SURGERY,-1.33549,54.835804
1899.72,DR INGRAM & PTRS,-1.526892,54.136451
1671.09,MOULTON MEDICAL CENTRE,-0.062945,52.79766
116.77,COMMUNITY NURSING (H&R),-1.438367,54.350666
971.03,RAJ MEDICAL CENTRE,-0.113968,53.550655
1631.04,LINDEN ROAD SURGERY,-0.479248,52.14361
3404.95,DAWLEY MEDICAL PRACTICE,-2.466781,52.664322
7923.56,CHCP - URGENT CARE OOH,-0.373324,53.729806
2054.39,ST SAVIOURS SURGERY,-2.308488,52.130324
507.77,IC24 LTD (CRAWLEY OOH),0.891514,51.129106
976.98,THE GLEBE FAMILY PRACTICE,0.544473,51.383164
884.12,WESTFIELD SURGERY,-2.458993,51.284957
2240.75,HILLSIDE PRACTICE,-0.981124,54.56313
2195.65,EAST PARK MEDICAL CENTRE,-1.514944,53.793168
3569.87,READING WALK-IN HTH CTR OOH,-0.975896,51.454809
740.62,OAK GLEN SURGERY,-1.816352,53.854799
1794.96,HUC WEST ESSEX OOH,-0.191727,51.782567
2381.59,ROSEGARTH SURGERY,-1.871551,53.714895
1098.36,THE HOLLIES SURGERY,0.374326,52.603925
4455.89,ONGAR HEALTH CENTRE,0.246278,51.716938
2243.33,SUMMERTOWN HEALTH CENTRE,-1.26328,51.774383
658.81,STANHOPE PARADE HEALTH CENTRE,-1.431179,54.984988
2759.06,BURLEIGH MEDICAL CENTRE,-1.477568,53.549879
3587.53,THE BOULEVARD MEDICAL PRACTICE,-1.86759,53.716715
220.05,BROADHURST ST MED PRACT (KS MORJARIA),-1.118671,52.653472
415.96,THE ACTON HEALTH CENTRE,-0.270199,51.506214
4492.68,SEVERN FIELDS MEDICAL PRACTICE,-2.721619,52.728047
446.21,KUDRA (WOODLAWN),-0.366673,51.444444
1060.29,GRAINGER & SCOTSWOOD MEDICAL PRACTICES,-1.640452,54.969316
259.9,GEORGE ELIOT MEDICAL CENTRE,-1.506534,52.419528
5,ST WILFRID'S HOSPICE,0.2767,50.794019
1033.61,ANFIELD GROUP PRACTICE,-2.945317,53.429436
1868.22,COLLIERY COURT MEDICAL GROUP,-1.460703,54.949762
514.05,GREENBANK DRIVE SURGERY,-2.930424,53.38977
28.25,GREENGATE MINOR SURGERY,0.027661,51.52521
2513.97,NEWTONS PRACTICE,-0.103899,51.000679
1249.35,I J HEALTHCARE,-1.531354,54.88104
889.85,SCOTS GAP MEDICAL GROUP,-1.940563,55.172746
5.56,EPCS WOMENS HEALTH - WESTBOURNE GREEN,-1.77624,53.807296
27.73,GPSI DERMATOLOGY SERV EATON SOCON HUNTS,-0.286916,52.222579
3521.66,MORETON CROSS GROUP PRACTICE,-3.111975,53.403551
1726.65,SHERINGHAM MEDICAL PRACTICE,1.214777,52.939688
1628.64,GRANVILLE MEDICAL CENTRE,0.07096,51.563158
3367.01,JAMES WIGG PRACTICE,-0.139955,51.546404
4.8,ST GEMMA'S HOSPICE,-1.534179,53.84231
1226.8,THE WELLSPRING SURGERY,-1.136804,52.962324
24182.2,OCTAGON MEDICAL PRACTICE,-0.103578,52.622001
1718.37,LITTLEBURY MEDICAL CENTRE,0.01909,52.801863
1711.53,GROVE VILLAGE MEDICAL CENTRE,-0.43095,51.449161
619.44,COMMUNITY DERMATOLOGY SERVICE,-1.421662,53.698109
643.02,BRIGHTON STATION WALK-IN,-0.141323,50.827937
4793.89,COWPLAIN FAMILY PRACTICE,-1.017682,50.894248
2891.08,THE JUNCTION HC - UNREGISTERED PATIENTS,-0.170756,51.465228
2450.76,BOSWORTH MEDICAL CENTRE,-1.753633,52.480569
2473.25,THE HERON PRACTICE,-0.093757,51.568531
1934.64,WESTWAY MEDICAL CENTRE,-2.943932,53.515597
588.21,AL-WAQAS MEDICAL CENTRE,-1.108413,52.62906
2838.93,UPWELL HEALTH CENTRE,0.224238,52.59997
1394.47,RAMSEY HEALTH CENTRE,-0.108107,52.448482
4980.13,FAIRBROOK MEDICAL CENTRE,-0.272179,51.659777
624.52,PARTNERSHIP PRIMARY CARE CENTRE,-0.120993,51.554717
2049.27,PWE HEALTHCARE PENDLE,-2.21885,53.838042
2214.26,HIGHGREEN PRACTICE (KHAN),-1.171945,52.964495
1056.37,GREEN PRACTICE,-0.371755,51.468263
1063.13,AVHAC REGISTERED PATIENTS,-2.366921,53.759584
1.64,CUMBRIA MEDICAL SERVICES LTD,-3.372396,54.656271
701.09,EAST END MEDICAL CENTRE,0.025228,51.537311
3.04,BOLTON OOH,-2.424635,53.592518
232.98,PRINGLE STREET SURGERY,-2.467594,53.742039
2580.08,THE LANGTON MEDICAL GROUP,-1.837644,52.696405
489.9,URGENT CARE CENTRE BISHOP AUCKLAND,-1.678547,54.655848
1140.34,SOUTHGLADE MEDICAL PRACTICE,-1.17363,52.99873
96.18,PURFLEET HUB,0.235437,51.489743
158.48,EXTENDED ACCESS PCD SAME DAY HC,-1.124432,53.522173
3439.67,GEORGE CLARE SURGERY,0.051852,52.457422
3124.1,ROWDEN SURGERY,-2.125101,51.453853
4272.88,THE LIGHTHOUSE MEDICAL PRACTICE,0.281363,50.765632
2969.47,STOKESLEY SURGERY,-1.194366,54.470898
123.61,DIABETES,-2.095555,52.599722
2.78,SHERWOOD LOCALITY EXTENDED ACCESS,-1.119194,53.100674
861.9,BALLIOL ROAD SURGERY,-1.471449,52.415924
105.08,DERMATOLOGY GPSI (SUTTON),-0.183642,51.380313
1619.77,HORSMAN'S PLACE SURGERY,0.214952,51.442468
3162.53,THE VILLAGE SURGERIES GROUP,-2.771265,53.124246
8.46,COMMUNITY MEDICAL TEAM - EAST ELMBRIDGE,-0.357957,51.397382
584.5,MERTON CCG SLDUC OOH,-0.283378,51.412517
2659.97,THAXTED SURGERY,0.343457,51.95519
7627.97,EAST BERKS PRIMARY CARE OOH(WAM),-0.763252,51.415712
1548.35,SANDMERE PRACTICE,-0.127558,51.462594
31.19,LOCALA BRADFORD SEXUAL HEALTH SERVICE,-1.751023,53.793485
1961.91,THE GABLES MEDICENTRE,-1.508288,52.440912
3076.29,THE CASTLE MEDICAL GROUP,-2.3932,53.873954
1302.6,THE RIVERSIDE HEALTH CTR,1.060732,51.945725
1043.99,RYALLS PARK MEDICAL CENTRE  YEOVIL,-2.640872,50.951832
1004.42,LIMBRICK WOOD SURGERY,-1.578558,52.406833
743.84,DARLASTON HEALTH CENTRE-KHAN,-2.036323,52.56617
916.79,WOLSTON SURGERY,-1.392727,52.376806
1587.85,JAUNTY SPRINGS HEALTH CENTRE,-1.417896,53.347684
1863.69,THE PRACTICE HEART OF HOUNSLOW,-0.371755,51.468263
1226.5,NETHERTON HEALTH CENTRE,-2.079024,52.487973
2854.06,FOREST HOUSE SURGERY,-1.287289,52.766681
63.85,LOCALA KIRKLEES SEXUAL HEALTH SERVICE,-1.634884,53.689744
3194.77,NEWBOLD SURGERY,-1.450706,53.256108
1388.76,LONGSHORE SURGERIES,1.717841,52.420772
1245.7,BARBARA CASTLE HEALTH CENTRE,0.073795,51.748894
254.5,AT HOME SERVICE,-0.10603,51.438104
2162.17,THORNBURY HEALTH CENTRE - BURNEY,-2.517723,51.612861
4967.4,CHARTER MEDICAL CENTRE,-0.156741,50.831254
7586.97,VINE MEDICAL GROUP,-1.035063,50.878251
1920.22,PRIORY ROAD MEDICAL CENTRE,-1.747812,51.552763
492.69,DR JO ARAYOMI'S PRACTICE,0.505558,51.567734
5101.78,GRAFTON MEDICAL PARTNERS,-0.171386,51.424951
825.22,LABURNUM SURGERY,-1.56822,55.182043
7.14,CORNWALL IMPROVED ACCESS SCHEME,-5.097984,50.265937
3273.49,GLENROYD MEDICAL CENTRE,-3.033503,53.849555
1.3,TEENAGE DROP-IN CENTRE,-1.299644,50.914256
3354.27,WATERLOO HOUSE SURGERY,-3.268021,54.20894
924.27,ELM LANE SURGERY,-1.460525,53.421626
48.12,DERMATOLOGY SERVICE,-1.597685,54.851721
1101.62,LISSON GROVE HEALTH CENTRE,-0.169323,51.524736
1438.47,HAMMERSMITH & FULHAM CENTRES FOR HEALTH,-0.234721,51.51742
2362.37,MANOR SURGERY,-1.215037,51.761474
823.93,COCKHEDGE MEDICAL CENTRE,-2.589833,53.390932
1.47,SMITHDOWN CHILDRENS NHS WALK IN CENTRE,-2.934843,53.393088
2121.61,SEASIDE MEDICAL CENTRE,0.294614,50.773566
2498.37,GLEADLESS MEDICAL CENTRE,-1.451325,53.356551
742.79,BROOKSIDE SURGERY,-1.399088,52.35048
1882.59,LUNESDALE SURGERY,-2.602213,54.200573
617.85,HAZELDENE MEDICAL CENTRE,-0.275394,51.547592
2.49,GREENWICH COMMUNITY HEALTH SERVICES,0.174741,51.434795
1821.86,GUDGEHEATH LANE SURGERY,-1.205575,50.859752
1879.85,ST GEORGE'S MEDICAL CENTRE PMS PRACTICE,-1.482825,53.57906
4281.02,PARK SURGERY,-0.327381,51.064354
2062.8,LILLIPUT SURGERY,-1.954229,50.711523
777.46,PEDMORE MEDICAL PRACTICE,-2.118211,52.457029
1086.51,DISHLEY GRANGE MEDICAL PRACTICE,-1.240459,52.779192
248.86,ST. KATHERINE'S DOCK PRACTICE,-0.068285,51.506983
5113.25,CHAPELTHORPE,-1.507287,53.644526
5654.96,BADGER GROUP OOH,-1.877826,52.477589
892.03,RAYMOND ROAD SURGERY,-1.419748,50.91941
3.57,JULIAN HOUSE HEALTHCARE SERVICE,-2.356708,51.378725
707.96,2/IRLAM MEDICAL PRACTICE,-2.432258,53.437925
4769.85,BEDWORTH HEALTH CENTRE,-1.472657,52.478626
3717.34,LIGHTWATER SURGERY,-0.664016,51.351903
647.23,SUNRISE MEDICAL CENTRE,-0.382255,51.51087
1821.19,NEWPORT SURGERY,0.208995,51.982816
2653.36,THE GLEBE PRACTICE,-0.670912,53.270911
1199.77,BRICKFIELDS SURGERY,0.605168,51.653143
2.08,WARRINGTON COMMUNITY RESPIRATORY SERVICE,-2.610717,53.393973
2310.95,LANGPORT SURGERY,-2.827561,51.037993
2.46,COMMUNITY ENT SERVICE,-1.310932,53.52812
596.61,BARNSLEY ROAD SURGERY,-1.45693,53.425089
1090.44,LISTER HOUSE SURGERY,-0.4515,51.89192
67.13,SUNDERLAND COMMUNITY PAEDIATRICS TEAM,-1.410327,54.902214
3620.33,GRAHAM ROAD SURGERY,-2.97439,51.34467
1120.77,HILL TOP SURGERY,-2.100756,53.52011
1378.93,GRANGEWOOD SURGERY,-1.498711,54.866414
1606.66,STABLE FOLD SURGERY,-2.52343,53.552405
1120.54,CITY ROAD MEDICAL CENTRE,-0.091116,51.527895
2747.13,CONISTON MEDICAL PRACTICE,-2.584043,51.538567
2602.94,PARKFIELD MED CTR,-3.00005,53.363076
1929.76,GRANGE ROAD SURGERY,-2.61945,51.413052
4358.06,THE HAWTHORNS SURGERY,-1.825965,52.538746
877.79,DR RAHIL'S SURGERY,-2.693285,53.464803
1404.99,CASTLEFIELDS,-2.129518,52.801013
1599.7,SHEET STREET SURGERY,-0.605507,51.479648
1126.94,GLOUCESTER HOUSE MEDICAL CENTRE,-2.352599,53.447337
12770.58,HEREFORD MEDICAL GROUP,-2.720274,52.058534
3746.13,CLAYPATH & UNIVERSITY MEDICAL GROUP,-1.56716,54.7787
1540.91,HEATH HAYES HEALTH CENTRE,-1.988284,52.69062
384.23,SHAKESPEARE HEALTH CENTRE,-0.437018,51.498422
8.66,DMC - COMMUNITY DERMATOLOGY WOODLANDS,0.128281,52.195288
2606.89,OXFORD STREET SURGERY,-3.550576,54.64373
661.5,HOLMLANDS MED CTR,-3.060475,53.37273
4088.66,LONGFIELD MEDICAL CENTRE,0.678834,51.729336
762.27,NORTON CANES PRACTICE,-1.970246,52.673977
2911.46,THE ENDEAVOUR PRACTICE,-1.235397,54.575047
2491.97,COWGILL SURGERY,-1.814543,53.781952
997.87,DR MB GHAFOOR & PARTNERS,-2.154239,53.611617
1801.56,BLYTH ROAD MEDICAL CENTRE,-1.20365,53.422231
265.74,KADIM PRIMECARE MEDICAL CENTRE,0.330602,51.479903
1048.92,THE MOUNTFIELD SURGERY,-0.19422,51.595001
2787.06,WOOLTON HOUSE MEDICAL CTR,-2.867143,53.375388
1518.33,THE CENTRAL SURGERY,-1.082204,52.598976
1216.63,ELLIS PRACTICE,-0.276552,51.563894
4625.75,PRIORY MEDICAL GROUP,-1.450123,55.010031
899.37,THE CHESTNUTS & HALLGATE SURGERY,-0.403621,53.778985
1282.29,RUSSELL STREET SURGERY,-0.982888,51.452326
680.63,RUGBY ROAD SURGERY,-1.419352,52.476714
1472.41,TADCASTER MEDICAL CENTRE,-1.25824,53.885494
2838.27,CLARENDON MEDICAL PRACTICE,-2.284742,53.488361
5167.72,WARDERS MEDICAL CENTRE,0.279212,51.19741
1323.7,RIVERSIDE PARTNERSHIP,-0.893061,51.043814
242.74,PLUMBRIDGE MEDICAL CENTRE,-0.013986,51.473207
1281.99,BERINSFIELD HEALTH CENTRE,-1.176774,51.663989
1844.32,ELLIOTT HALL MEDICAL CTR.,-0.362526,51.608476
1059.77,ROYTON MEDICAL CENTRE,-2.12386,53.565731
3318.1,LUDLOW - PORTCULLIS,-2.715958,52.368905
164.4,ESTUARY MEDICAL PRACTICE,-3.183089,53.373492
802.66,COLNEY HATCH LANE SURGERY,-0.147555,51.600731
2248.37,NORWOOD SURGERY,-2.97819,53.650008
442.49,BINBROOK SURGERY,-0.178896,53.42766
3649.28,CHEADLE MEDICAL PRACTICE,-2.213539,53.393745
3031.86,CUMBERLAND HOUSE SURGERY,-2.990437,53.638743
1359.62,WOLSELEY MEDICAL CENTRE,-0.355069,53.746195
1839.78,THE ARGYLE SURGERY,-0.322592,51.520337
3852.26,PROSPECT MEDICAL CENTRE,-1.646189,54.974185
2408.6,THORNDIKE SURGERY,0.502879,51.380805
2076.81,MOORE STREET MEDICAL CENTRE,-3.002523,53.458715
1239.25,CHURCH WALK SURGERY,-0.39973,53.13783
907.27,DR GUPTA,0.164714,51.582916
2268.4,HUCKNALL ROAD MEDICAL CENTRE,-1.168398,52.990092
1785.6,HARTSHILL MEDICAL CENTRE,-2.210624,53.009925
1522.92,THE CROFT MEDICAL CENTRE,-1.068661,52.5939
5.03,COMM GYNAECOLOGY CLINIC2,-0.302218,51.724886
2125.8,YELVERTON SURGERY,-4.082824,50.491344
111.27,PC EXT ACCESS CHILTERN VALE HEALTH,-0.525854,51.884638
1704.79,THE BILLESDON SURGERY,-0.93947,52.618174
1675,BATTERSEA FIELDS PRACTICE,-0.154867,51.473666
670.75,STIRLING MEDICAL CENTRE (MATHEWS),-0.05904,53.573513
1429.46,TODDINGTON MEDICAL CENTRE,-0.530482,51.945856
660.85,PARSONS GREEN WIC,-0.199155,51.47377
2031.53,THE GREENS HEALTH CENTRE,-2.099175,52.529005
1877.81,HOPE HOUSE SURGERY,-2.447646,51.291794
2.93,SOLENT WEST NMPS,-1.446031,50.92524
1953.65,THE SURGERY,-1.367146,52.726986
2061.78,ABBEY MEDICAL CENTRE,-0.185132,51.537921
2324.71,WINSCOMBE SURGERY,-2.830537,51.315196
3625.61,LANGLEY HEALTH CENTRE,-0.541284,51.495313
6263.85,CROWN HEIGHTS MEDICAL CENTRE,-1.086312,51.267188
1895.65,MERTON LODGE SURGERY,0.173148,53.259654
2402.91,THE WATERLOO PRACTICE,-1.737438,53.645186
1622.55,MARTLESHAM SURGERY,1.272068,52.061314
1443.77,WARWICK GATES FAM.HTH.CTR,-1.53869,52.268666
1860.7,MIDDLEWAY SURGERY,-4.713217,50.356439
1155.98,SWINGBRIDGE SURGERY,-0.662707,52.901355
5805.95,NEWGATE MEDICAL GROUP,-1.123405,53.301065
2037.42,NORTHFIELD SURGERY,-0.966348,53.613648
1.05,COMMUNITY TEAM SOUTH KERRIER,-5.264928,50.091946
1603.85,HEALD GREEN HEALTH CENTRE 1,-2.229276,53.369878
950.4,HOWARD STREET MEDICAL PRACTICE,-1.94969,53.445062
558.37,QUINCY RISE SURGERY,-2.129544,52.467436
2156.12,ALVASTON MEDICAL CENTRE,-1.429622,52.893808
1.94,LEEDS COMMUNITY CARDIAC SERVICE,-1.526199,53.811432
1500.68,GILLMOSS MEDICAL CENTRE,-2.897849,53.459458
1945.84,ST EDWARDS MEDICAL CENTRE,0.181741,51.580341
2759.98,PRACTICE TWO,-0.201064,54.084715
2651.18,3/SPRINGFIELD HOUSE MEDICAL PRACTICE,-2.362019,53.480252
1173.29,MILLBANK MEDICAL CENTRE,-0.130231,51.49403
2643.01,PARKLANDS MEDICAL PRACTICE,-1.781051,53.761106
206.85,GRANGE MEDICARE - NEW CROSS SURGERY,-1.485011,53.747069
3594.52,WELLINGTON ROAD SURGERY,-2.3789,52.764241
1704.43,PARK LANE SURGERY,-2.12262,53.257964
1501.95,THE LENNARD SURGERY,-2.613084,51.425915
635.9,DR SEABROOK,-2.632499,53.55143
915.31,MILDMAY MEDICAL PRACTICE,-0.085731,51.552474
2990.11,STILLMOOR HOUSE MEDICAL PRACTICE,-4.720038,50.471929
1942.88,ALLERTON MEDICAL CENTRE,-1.533879,53.826921
180.01,CLIFFORD HOUSE MEDICAL CENTRE,-0.406678,51.447323
432.34,FOUNTAINS MEDICAL PRACTICE,-2.892972,53.195093
5433.51,ORCHARD CROFT,-1.54984,53.660001
1294.44,CROWN STREET SURGERY,-0.2738,51.507391
3188.6,ST HELENS ROTA OOH,-2.750335,53.45324
2765.69,COLNE VALLEY GROUP PRACTICE,-1.928213,53.602096
2442.03,SOUTH PARK SURGERY,-2.12262,53.257964
555.88,BERE REGIS SURGERY,-2.219824,50.752538
421.38,SHIRLAND ROAD MEDICAL CENTRE,-0.203904,51.5292
1308.48,THE ISLAND SURGERY,0.591014,51.520226
1005.67,FAMILY PRACTICE,-2.216357,53.554714
9.5,SOUTH WORCESTERSHIRE COUNTYWIDE NURSES,-2.213008,52.19506
2645.01,CHURCHILL MEDICAL CENTRE,-0.288192,51.413388
741.78,BROADWAY (SWBCCG) MALLING HEALTH OOH,-2.02775,52.527792
4159.06,WARWICKSHIRE GP OOH,-1.478439,52.51258
2470.2,THE WINDMILL PRACTICE,-1.13475,52.951951
16.06,TUDOR COURT,-2.224848,53.590211
1953.17,HOLLY BANK SURGERY,-2.724149,53.454211
3153.76,HALL GROVE GROUP PRACTICE,-0.181801,51.78932
1326.47,RUTLAND HOUSE SURGERY,-0.14424,51.594563
2615.87,PEMBROKE ROAD SURGERY,-2.618518,51.464336
2047.02,OLD TOWN SURGERY,-1.796355,51.550429
1692.47,PUTNOE MEDICAL CENTRE WALK IN CENTRE,-0.438308,52.147939
693.24,MEDICUS HEALTH PARTNERS-RILEY HOUSE,-0.043984,51.664416
41.17,TOGETHER4HEALTHCARE LIMITED (DKA),-1.997982,52.516003
1009.94,ANDOVER MEDICAL CENTRE,-0.116461,51.561766
1635.58,CHURCH STRETTON MEDICAL CENTRE,-2.806169,52.537286
2101.81,BARLBOROUGH MEDICAL PRACTICE,-1.284471,53.289528
514.4,HOSSAIN PRACTICE,-2.156747,53.509855
622.87,DR P & S POOLOGANATHAN,0.175968,51.560718
278.34,PRIMARY HEALTHCARE DARLINGTON,-1.561958,54.528141
5086.75,NEW COLLEGIATE MEDICAL CENTRE,-2.236077,53.504378
1477,MANCHESTER ROAD SURGERY,-1.521086,53.380573
1398.91,FRESSINGFIELD MEDICAL CENTRE,1.310808,52.347219
61.12,INTEGRATED COMMUNITY DERMATOLOGY SERVICE,-2.455551,53.733223
3648.82,THE CROFT SURGERY,-0.657769,50.841375
2170.58,WEST TIMPERLEY MEDICAL CENTRE,-2.353117,53.402699
845.67,QUEENS AVENUE PRACTICE,-0.147916,51.591852
3899.54,NORTHUMBERLAND HOUSE SURGERY,-2.261095,52.38419
3901.56,OXTED HEALTH CENTRE,9.9e-05,51.257686
3053.08,MUCH WENLOCK & CRESSAGE MEDICAL PRACTICE,-2.559942,52.595605
