total_cost,name,longitude,latitude
84942.09,COLVILLE HEALTH CENTRE,-0.206231,51.515837
127945.01,RICHMOND MEDICAL GROUP,-0.267239,51.465848
96.17,HEALTH VISITORS STOKE,-2.109085,52.810605
67845.25,ARCHWAY MEDICAL CENTRE,-0.126124,51.562541
222.77,CPFT SPECIALIST SERVICE CAMBS CITY,-0.077691,52.223169
42357.07,ATHENA MEDICAL CENTRE,-0.053257,51.554943
202372.18,LAKE ROAD PRACTICE,-1.078356,50.804825
149146.68,ROUNDWELL MEDICAL CENTRE,1.203795,52.648844
95.2,EAST BIRMINGHAM LCN FLEX PILOT,-1.817518,52.478024
292428.49,ST.JAMES SURGERY,1.147433,51.787326
122149.68,THE MAYFLOWER MEDICAL PRACTICE,-1.01945,53.431872
60918.4299999999,HYLTON MEDICAL GROUP,-1.414195,54.908604
189346.23,EDENFIELD ROAD SURGERY,-2.188671,53.622297
58703.01,THE EXMOOR SURGERY,-0.217218,51.522362
218929.34,CLEVEDON MEDICAL CENTRE,-2.84572,51.437228
96699.73,ST ALBANS SURGERY,0.133341,51.537112
583.33,NDUC NORTH TYNESIDE OOH,-1.58819,55.01932
63096.01,COLLINGWOOD FAMILY PRACTICE,-1.903405,52.55667
2.76,HIV COMMUNITY SERVICE,-2.945005,53.395651
106.18,PETERSFIELD GP EXTENDED ACCESS HUB,-0.942399,51.003885
115666.87,POPLAR HOUSE SURGERY,-3.03076,53.754721
339.57,END OF LIFE SERVICES,-0.602817,51.675087
136450.38,MARTON MEDICAL PRACTICE,-3.034524,53.812843
121166.84,OAKRIDGE PARK MEDICAL CENTRE,-0.777853,52.068655
42866.89,THE TUDOR HOUSE MEDICAL CENTRE,-0.266689,51.564495
113640.96,GRANGE STREET SURGERY,-0.335878,51.757298
160814.3,THE PARK SURGERY,1.729276,52.606218
152501.06,BIDDULPH VALLEY SURGERY,-2.178498,53.116111
35693.96,THE BALAJI SURGERY  THE SPARKBROOK CHC,-1.871333,52.462659
52757.38,HARLEY GROVE MEDICAL CTR.,-0.027752,51.527964
92387.98,STREATFIELD HEALTH CENTRE,-0.30812,51.593812
112142.02,THE LIMES SURGERY MEDICAL CENTRE,-2.114052,52.456884
75407.0800000002,STAVERTON SURGERY,-0.22584,51.544182
85205.1000000001,SPRINGWELL MEDICAL GROUP,-1.422181,54.890239
91060.08,DR WS RIDDELL'S PRACTICE,-1.223723,53.260141
3917.54,SMS COMMUNITY DERMATOLOGY CLINIC,-1.398499,50.913503
109066.84,VIOLET LANE MEDICAL PRACTICE,-0.107972,51.360366
115976.95,PARKSIDE GROUP PRACTICE,-0.098549,51.350645
96770.0900000001,BEDFORD HILL FAMILY PRACTICE,-0.149067,51.44085
96501.28,KINGS MEDICAL CENTRE,-1.216402,54.571717
135793.64,SILVERDALE PRACTICE,-0.121708,50.952843
160066.92,PENNY'S HILL PRACTICE,-1.894499,50.801788
93195.8800000001,APPLEBY SURGERY,-1.456596,55.011193
91.47,COMMUNITY TEAM BODMIN,-4.72264,50.472848
92078.0600000001,ASHWELL MEDICAL CENTRE,-1.778612,53.803786
9.93,CONNECT HEALTH WOLVERHAMPTON MSK,-1.584082,55.018702
26829.39,BARTON SURGERY,-4.088247,50.359085
4228.8,WEST MERTON ACCESS HUB,-0.210281,51.409967
95825.09,AVON VALLEY PRACTICE,-1.812104,51.294105
113.38,ST RAPHAEL'S HOSP (MERTON),-0.220816,51.37886
251031.47,THE ARMADA FAMILY PRACTICE,-2.571861,51.413438
125772.55,WOODVIEW MEDICAL CENTRE,-0.841889,52.268682
116062.27,PRINCES GARDENS SURGERY,-0.766458,51.250407
3122.14,COMMUNITY NURSING,-2.372621,51.358169
208745.46,WELLFIELD HEALTH CENTRE,-2.147479,53.606581
78587.6,BRAITHWAITE RD SURGERY,-2.574985,53.477412
118712.46,SEDLESCOMBE & WESTFIELD SURGERIES,0.534725,50.934129
2563.71,PDS MEDICAL OOH,-3.023363,53.797158
90402.5799999999,RIVERSIDE SURGERY,0.180773,51.479567
175966.56,RIDGEWAY VIEW FAMILY PRACTICE,-1.791571,51.524175
184999.72,SCHOPWICK SURGERY,-0.299293,51.645362
939.97,URGENT CARE CENTRE HRCH,-0.324434,51.473648
17.19,COMMUNITY GYNAECOLOGY CLINICS,-0.173569,51.516969
1512.41,WORTHING MIAMI GP ACCESS HUB,-0.390026,50.823979
92978.1600000001,THE WOOTTONS SURGERY,0.437136,52.790343
35060.6799999999,THE WILLOWS MEDICAL PRACTICE,-2.309137,53.485461
68452.75,STRATFORD VILLAGE SURGERY,0.006461,51.542096
8.92,PRIMARY CARE CONNECT - ANFIELD HEALTH,-2.945317,53.429436
7.56,BRADFORD GPWSI MSK SERVICE,-1.779859,53.78091
69038.93,MIRFIELD SURGERY,-1.776956,52.469072
79549.82,COMMONWEALTH HEALTH CENTRE,0.36308,51.463166
72358.88,HENDON WAY SURGERY,-0.241873,51.579182
104762.79,JUBILEE HEALTHCARE,-1.518884,52.403423
31.38,HAYWOOD HOSPITAL INPATIENT,-2.191413,53.056944
213848.53,THE ELMS MEDICAL CENTRE,0.557729,51.4201
7.58,SUFFOLK FOOT SURGERY CENTRE,1.196861,52.052722
52306.83,WIGMORE MEDICAL CENTRE,0.588765,51.352272
34222.31,BARNSLEY DRUG & ALCOHOL SERVICE,-1.477568,53.549879
151843.8,VICTORIA ROAD SURGERY,1.716498,52.471024
4715.19,INTEGRATED CARE 24 LTD (CWSX OOH),0.891514,51.129106
68412.73,CHURCH HILL SURGERY,1.229008,52.428527
224.92,BS CLINIC,-1.361645,52.530096
137793.09,E HARLING & KENNINGHALL MEDICAL PRACTICE,0.932279,52.43909
162882.94,WATLING MEDICAL CENTRE,-0.262021,51.603291
208.95,SUSSEX BEACON,-0.112934,50.838597
36829.0299999999,OXFORD ROAD MEDICAL PRACTICE,-1.603365,54.699579
11497.47,PORTSMOUTH HUB,-1.088774,50.790159
24599.03,DR SURYANI,-2.070174,52.552984
432514.54,CARN TO COAST HEALTH CENTRES,-5.268154,50.226222
114731.74,OLD HARLOW HEALTH CENTRE,0.134039,51.784038
30571.72,LYMPHOEDEMA SERVICE FOR SANDWELL CCG,-1.953778,52.398207
229247.14,NORTHAM SURGERY,-4.215465,51.038082
2.73,BRENT & HARROW SAFE HAVEN UNIT,-0.19422,51.595001
48987.05,KIRKDALE MEDICAL CENTRE,-2.973842,53.433523
233208.44,WEAVERS MEDICAL,-0.733538,52.401531
176934.34,LITTLEWICK MEDICAL CENTRE,-1.304838,52.966452
144955.54,ST JAMES' MEDICAL CENTRE,-2.289474,53.708959
100131.95,REVEL SURGERY,-1.361421,52.41228
98.02,HMP DARTMOOR,-3.997529,50.549223
39851.89,RUDGWICK MEDICAL CENTRE,-0.450643,51.090073
106474.11,COACHMANS MEDICAL PRACTICE,-0.203875,51.096335
137326.77,BISHOPS CLOSE MEDICAL PRACTICE,-1.599142,54.699817
55983.12,DR YADAVA N PRACTICE,0.334586,51.476703
97087.33,LONG CLAWSON MEDICAL PRACTICE,-0.923909,52.839215
133547.01,ABBEY MEDICAL PRACTICE,-1.951015,52.091043
2408.69,COASTAL HEALTH CARE WOUND CARE FLEETWOOD,-3.010416,53.920956
2056.23,COMMUNITY DERMATOLOGY SERVICE,-2.033839,52.472088
80454.51,REDBURN PARK MEDICAL CENTRE,-1.474775,55.00092
56.16,SEFTON 0-19 SERVICE,-2.606862,53.429516
61615.17,THE DENSHAM SURGERY,-1.318986,54.561625
47689.47,ROSERTON STREET SURGERY,-0.010049,51.498482
118540.49,DR FIRTH AND PARTNERS,-0.608263,51.713308
55269.17,ENFIELD COMMUNITY SERVICES,-0.084383,51.662127
263715.5,QUEENSWAY  MEDICAL CENTRE,0.714012,51.541786
23.12,GLOUCESTERSHIRE CARE SERVICES NHS TRUST,-2.176389,51.847073
54227.7,BRUCE GROVE PRIMARY HEALTH CARE CTR,-0.070141,51.592004
138316.13,KEATS GROVE SURGERY,-2.099546,52.614561
61307.9400000001,CRICK MEDICAL PRACTICE,-1.135861,52.343212
25277.29,SILTON SURGERY,-2.315694,51.074742
77449.4,FISHERGATE HILL SURGERY,-2.714363,53.754455
2094.5,WWL NURSES,-2.629091,53.55774
122365.73,APPLETREE MEDICAL PRACTICE,-1.486919,52.985104
209309.08,SOUTH LEWISHAM GROUP PRACTICE,-0.013043,51.430269
58.65,EYE 2 EYE OPTICIANS,0.497081,51.286118
25068.91,NAYAR JK,-0.368366,53.768793
32793.33,SPEKE HC - DR SINGH & DR BICHA,-2.838793,53.340911
4.2,WALDRON - HURLEY UNREGISTERED PRACT WIC,-0.031433,51.476334
12294.31,BRADFORD STUDENT HEALTH SERVICE,-1.768359,53.785323
428725.45,STANMORE MEDICAL GROUP,-0.204612,51.913274
36011.52,HARTLAND SURGERY,-4.482549,50.992721
51565.7,KIRPAL MEDICAL PRACTICE,-1.934945,52.503094
4963.89,RICHMOND GP ALLIANCE,-0.313083,51.415592
198107.23,FARNHAM DENE MEDICAL PRACTICE,-0.777405,51.200549
13.51,PARK HEALTH CENTRE,-1.454225,53.377769
24427.96,THE ADDERLANE SURGERY,-1.845745,54.962605
79620.2199999998,DR BAKER & PARTNERS,0.548167,51.570733
115104.42,THE PANTON PRACTICE,-1.862595,50.72093
217601.66,CLEVELEYS GROUP PRACTICE,-3.042545,53.875111
4977.3,WDP NORTHWICH,-2.503199,53.258978
34335.27,BRAMLEY AVENUE SURGERY,-0.141707,51.323235
115764.47,THE WEARDALE PRACTICE,-2.002656,54.746005
101808.25,LEA ROAD MEDICAL PRACTICE,-2.140864,52.575971
44443.71,THE ROBINS SURGERY  HAROLD HILL HEALTH C,0.224895,51.606266
58680.77,THE CEDAR PRACTICE,-0.093757,51.568531
31741.94,BOLEYN ROAD PRACTICE,0.031124,51.538882
241661.33,DMC ST MARYS ISLAND SURGERY,0.538105,51.406776
292488.18,TAMAR VALLEY HEALTH,-4.320073,50.503476
71116.9,THE ROEHAMPTON SURGERY,-0.242431,51.451154
81089.3300000001,ROYAL CRESCENT,-2.078966,51.900098
337.88,COMMUNITY PAEDIATRICIANS-SOUTHWARK,-0.081097,51.474092
99033.9700000001,CHURCHWOOD MEDICAL PRACTICE,0.539934,50.878228
35,NORTHERN HEALTH GPPO HUB 4,-2.19447,53.47569
69222.5100000001,AKSYR MEDICAL PRACTICE,-0.263604,51.542472
81818.05,NEWNHAM WALK SURGERY,0.110503,52.199281
140286.4,MARKET SURGERY,1.253177,52.791348
100404.86,THE MEDICAL CENTRE BUNTINGFORD,-0.02183,51.949019
136690.58,PARK LANE SURGERY,-0.021245,51.746514
51103.36,COVENT GARDEN MEDICAL CENTRE,-0.123689,51.515564
41,DIABETES CLINIC(NORTH),-2.486748,53.750552
206.07,NEAS NORTH TYNESIDE CCG,-1.712365,54.969713
26312.94,WINDSOR MEDICAL CENTRE,-1.622157,53.693875
97655.18,THE VILLAGE MEDICAL CENTRE,-0.647436,51.51295
6.92,CORPORATE DIVISION,0.475497,50.850706
85399.5500000002,WHITBURN SURGERY,-1.364667,54.952795
229406.97,ABBEY SURGERY,-4.150401,50.546904
5601.18,URGENT CARE CENTRE (NELFT),0.002638,51.578831
140117.41,HAMPSTEAD GROUP PRACTICE,-0.163076,51.553171
4148.29,CITY REACH HEALTH SERVICES,1.288137,52.633042
11435.21,EAST LANCS MEDICAL SERVICE OOH,-2.442698,53.747769
112926.47,NEW FOREST MEDICAL GROUP,-1.576665,50.81471
72726.72,DISTINGTON SURGERY,-3.541351,54.595305
199161.85,ROSEDALE SURGERY,1.705996,52.457187
65252.7199999999,DRS RAJCHOLAN & GEORGE,-2.057836,52.613672
51245.7699999999,GREEN LANE  GOODMAYES MEDICAL PRACTICE,0.113559,51.563316
128204.06,NORTHBROOK HEALTH CENTRE,-1.821273,52.419657
120969.85,GORTON MEDICAL CENTRE,-2.171985,53.463168
56854.6400000001,YEADING MEDICAL CENTRE,-0.397019,51.533634
66020.88,BEESTON VILLAGE SURGERY,-1.569152,53.772415
31574.75,MATLOCK ROAD SURGERY,-0.157915,50.843638
3230.4,CBS OOH,-1.233579,53.134573
118356.41,WATERFRONT AND SOLENT SURGERY,-1.403379,50.870013
37448.65,GARSTON FAMILY HEALTH CENTRE,-2.89683,53.353909
53308.09,NORTHERN MOOR MEDICAL PRACTICE,-2.285109,53.408049
100864.91,EMERSONS GREEN MEDICAL CENTRE,-2.477023,51.492762
159010.86,THE GREEN HOUSE SURGERY,-1.068807,54.599299
51911.74,BATTERSEA RISE GROUP PRACTICE,-0.163474,51.460833
893.08,RESPIRATORY CLINIC,-2.095555,52.599722
264233.84,DRAYTON MEDICAL PRACTICE,1.226086,52.679249
23751.8,HAVERFIELD SURGERY,-0.449803,51.711933
24506.44,CRI ATLANTIC HOUSE,-2.115194,52.462489
76239.39,GLOUCESTER HEALTH ACCESS CENTRE,-2.239997,51.862659
1097.4,WOKING COMMUNITY HOSPITAL WIC,-0.556304,51.315132
469.59,NL EXTENDED ACCESS,-0.647232,53.568261
262547.3,ST STEPHENS GATE MEDICAL PARTNERSHIP,1.286835,52.623967
178768.27,MARKET CROSS SURGERY,0.510146,52.343506
224431.87,STOCKPORT MEDICAL GROUP,-2.177788,53.402873
93316.3500000002,EMPINGHAM MEDICAL CENTRE,-0.593784,52.667718
78786.9300000001,FOSSE MEDICAL CENTRE (GK SHARMA),-1.152153,52.636707
100625.8,FARROW MEDICAL CENTRE,-1.74312,53.802511
242852.46,THE HAYMARKET HEALTH CTR,-2.211781,53.060343
20963.1,CHARLOTTE STREET SURGERY,-2.424635,53.592518
1811.68,BROMLEY HEALTHCARE-CROYDON DIABETES,-0.064573,51.342409
97549.1400000001,SHERBOURNE MEDICAL CENTRE,-1.532618,52.29289
101833.33,CHURCH LANGLEY MEDICAL PRACTICE,0.132734,51.767477
64385.2100000001,ELGIN CLINIC,-0.198468,51.524818
208470.05,COWES MEDICAL CENTRE,-1.302115,50.75145
133043.53,THE BRIDGE GROUP PRACTICE,-0.375759,53.787555
23319.18,DUDLEY URGENT CARE CENTRE OOH,-2.118518,52.502944
116710.16,PADDOCK AND LONGWOOD FAMILY PRACTICE,-1.80546,53.642119
142898.04,DYKES HALL MEDICAL CENTRE,-1.506024,53.40514
49923.36,ALBION STREET SURGERY,-0.133965,50.827627
1646.16,RIPON OOH,-1.527195,54.135436
102132.37,WIVENHOE SURGERY,0.961234,51.856059
116111.14,BRIGSTOCK & SOUTH NORWOOD PARTNERSHIP,-0.109304,51.395046
346.68,IPU18-21 SOUTH WARKS-STRATFORD,-1.713072,52.194837
27110.66,BROOKFIELD PARK SURGERY,-0.142656,51.563724
169809.4,ALBION PLACE MEDICAL PRACTICE,0.529542,51.274206
239.14,OCTAGON SAS,-0.103578,52.622001
48021.8700000001,BROADMEAD MEDICAL CENTRE,-2.58948,51.457392
2613.16,PGPA IMPROVED ACCESS CENTRAL,-1.892899,53.721064
33401.22,DR SJC CLAY'S PRACTICE,-1.216618,52.72642
88703.6500000002,WEOBLEY & STAUNTON ON WYE SURGERIES,-2.87187,52.159258
3840.28,ST ANDREW'S HOUSE,-1.463927,52.913241
75567.46,THORNTON & VALLEY PARK SURGERY,-0.120709,51.388871
129387.68,LITTLE LONDON SURGERY,-1.979284,52.574984
73408.6100000001,MULBERRY HOUSE SURGERY,-1.402391,50.931652
5.95,NOTTINGHAMSHIRE HOSPICE,-1.140074,52.971721
171175.91,BEDLINGTONSHIRE MED.GROUP,-1.598682,55.1322
105599.49,MILLVIEW SURGERY,-1.203958,53.144123
871.04,NDUC GP OUT OF HOURS SERVICE (OOH),-1.372186,54.879952
48537.56,COURT THORN SURGERY,-2.826247,54.801828
265327.61,COASTAL VILLAGES PRACTICE,1.685649,52.674686
40671.15,CROSTON MEDICAL CENTRE,-2.773743,53.666146
70715.6400000001,PARK VIEW SURGERY,-0.435833,53.72979
1987.29,MARTIN HOUSE HOSPICE,-1.344259,53.900051
1931.86,COMMUNITY INTERMEDIATE CARE SERVICE,-2.455551,53.733223
154138.27,CORNERWAYS MEDICAL CENTRE,-2.85592,53.422901
90846.4399999999,BRENTFIELD MEDICAL CENTRE,-0.260251,51.550588
2403.21,SUCCESS CENTRE - MOREDON,-1.807069,51.582197
83278.2599999999,ASHFIELD HOUSE (ANNESLEY),-1.256047,53.07651
45529.17,EASTHAMPSTEAD SURGERY,-0.753965,51.405543
16340.37,ACTON TOWN MEDICAL CENTRE,-0.28217,51.50246
225924.87,ST MARY'S SURGERY,0.258109,52.398364
103289.31,SOUTHVIEW MEDICAL PRACTICE,-0.559823,51.313647
2266.26,NY HORIZONS NALLERTON,-1.43587,54.34019
88315.61,SMA MEDICAL PRACTICE,-0.008594,51.571154
223.22,ADULT COMMUNITY NURSING,-0.607463,51.241016
149393.22,HUMBERSTONE MEDICAL CENTRE (IP JONES),-1.089641,52.645126
1230.97,COMMUNITY ENT SERVICE,-2.262369,53.406329
85902.88,CHACEWATER HEALTH CENTRE,-5.155777,50.25596
148095.04,DR MAASSARANI & PARTNERS,-2.88656,53.495201
49916.47,UPMINSTER BRIDGE SURGERY,0.235279,51.558957
47780.5199999999,DR DEVARAJA VC PRACTICE,0.44359,51.520015
141759.24,HENFIELD MEDICAL CENTRE,-0.275597,50.936107
115905.6,CHEDDAR MEDICAL CENTRE,-2.775544,51.274669
22.58,DMC COMMUNITY DERMATOLOGY SERVICE,-1.497858,53.800234
102718.32,BEACONSFIELD MEDICAL PRACTICE,-0.148293,50.838378
63809.52,QUEENS ROAD MEDICAL CENTRE,-0.02047,51.579799
19243.2,RDASH FT COMMUNITY NURSING,-1.146558,53.497488
996.47,HP NMP'S NW CCG,-1.143101,53.130244
174438.97,STENNACK SURGERY,-5.484395,50.210854
34120.11,ROCHESTER ROAD SURGERY,0.390394,51.435136
15139.26,MINSTER MEDICAL CENTRE,0.793061,51.415409
280.28,PAIN MANAGEMENT SOUTH,-2.109085,52.810605
92337.89,BROOKLANDS HEALTH CENTRE,-0.675657,52.044408
3076.1,COMMUNITY OPHTHALMOLOGY SERVICE,-0.316409,51.558214
34316.56,WIDDRINGTON SURGERY,-1.62051,55.240248
699.96,EAST CAMHS,-1.531703,53.817673
77097.7900000002,HARBURY SURGERY,-1.458027,52.236759
52929.35,THE ALLENDALE ROAD SURGERY,-0.319827,51.551186
33730.66,BEGG PRACTICE,-0.179391,51.459968
124418.53,PARKGATE SURGERY,-2.882743,53.564772
4894.37,FRIMLEY PRIMARY CARE OOH,-0.742029,51.319666
10478.88,WHITTINGTON HEALTH (HARINGEY),-0.139066,51.566482
2653.93,LEIGH NHS WIC,-2.511455,53.503236
72884.6500000001,ALL SAINTS SURGERY,-1.644121,52.794285
56023,KNOCKIN MEDICAL CENTRE,-2.993042,52.79343
218.76,CONTRACEPTION & SEXUAL HLH,-1.607743,54.974103
116347.47,LIME GROVE MEDICAL CENTRE,-1.55303,53.139004
89811.39,DEVONSHIRE GREEN MEDICAL CENTRE,-1.477593,53.379509
122780.32,3/LOWER BROUGHTON MEDICAL PRACTICE,-2.258808,53.49359
76118.16,DR NAVIN KUMAR,0.70187,51.544989
67993.4900000001,THE MEADOWS SURGERY,-0.53774,52.399512
27075.07,MAYFAIR MEDICAL CENTRE,-0.150172,51.513536
109717.15,ST LEONARDS PRACTICE,-3.522731,50.723743
124813.06,HELSBY STREET MED/CTR,-2.576324,53.39498
207509.05,BISHOPGATE MEDICAL CENTRE,-1.676211,54.659158
288821.59,WOKINGHAM MEDICAL CENTRE,-0.831068,51.411661
158373.28,HOLYCROFT SURGERY,-1.914477,53.863828
64.91,PALLIATIVE CARE NORTH,-2.109085,52.810605
46343.75,HOLBORN MEDICAL CENTRE,-0.118539,51.522233
30811.05,ALVERTHORPE,-1.518486,53.685476
63801.96,ROMAN ROAD HEALTH CENTRE,-2.472202,53.728431
151146.15,IVRY STREET MEDICAL PRACTICE,1.148624,52.064021
84271.37,ASHLEY CENTRE SURGERY,-0.270061,51.33244
51389.2399999999,DOCTORS' SURGERY,-2.187672,53.55683
106496.41,DUNCHURCH SURGERY,-1.290193,52.337874
1692.54,ACE LTD OOH,0.296471,51.626042
8836.77,THE GREENHOUSE WALK-IN,-0.055343,51.538827
142590.82,HANDFORTH HEALTH CENTRE,-2.214647,53.347874
374.92,COMMUNITY TISSUE VIABILITY SERVICE,-2.681273,53.496386
72458.2,ENDERBY MEDICAL CENTRE,-1.211488,52.587061
6875.75,LYMPHOEDEMA SERVICE FOR SOLIHULL CCG,-1.953778,52.398207
15349.63,ABBEY MEDICAL CENTRE,-0.982406,51.453949
2092.13,HOSPITAL AT HOME,-0.831575,51.410524
163571.76,THE GRANGE MEDICAL CENTRE,-1.458215,52.526837
145972.62,BIRCHWOOD MEDICAL PRACTICE,-0.605376,53.215749
87956.4200000001,THE GABLES MEDICAL GROUP,-1.564429,55.140811
125437.28,THE HAMILTON PRACTICE,0.114548,51.757005
219203.2,GRAYSHOTT SURGERY,-0.745626,51.110093
113933.84,LITTLEBOROUGH GROUP PRACTICE,-2.103349,53.642995
89204.8700000001,BROWNLOW HEALTH  @ PRINCES PARK,-2.95165,53.391535
459.05,PATHFINDER GP,-2.512253,53.504428
22.1,STELLAR HEALTHCARE OPHTHALMOLOGY,0.12393,51.704295
1037.73,ASHLEY INTERMEDIATE CARE CTR,-2.044846,51.883772
172668.71,CENTRAL UXBRIDGE SURGERY,-0.475739,51.546229
5421,DERMATOLOGY DEPARTMENT CANNOCK,-2.095555,52.599722
3350.71,STOP SMOKING SERVICE (R&C),-1.235298,54.577005
1904.69,MEDICUS HEALTH PARTNERS-GREEN STREET,-0.044502,51.657069
152250.98,PENKRIDGE MEDICAL PRACTICE,-2.118352,52.725728
3715.86,DOUGLAS MACMILLAN HOSPICE,-2.150544,52.970554
268657.12,BECCLES MEDICAL CENTRE,1.562886,52.453288
936.05,WORKING AGE ADULTS-RIKENEL,-2.24469,51.860419
73520.8300000001,ST JAMES MEDICAL PRACTICE2,-2.097323,52.514234
8.43,HMP/YOI DRAKE HALL,-2.240835,52.878831
986.24,THE HAMBLEDEN CLINIC,-0.089556,51.463601
54165.08,GLADSTONE ROAD SURGERY,-0.608263,51.713308
124836.96,KEYWORTH MEDICAL PRACTICE,-1.093411,52.871477
33371.15,KEELE PRACTICE,-2.273581,53.003262
245306.82,BRIDGNORTH MEDICAL PRACTICE,-2.422947,52.537874
121445.56,BENHILL & BELMONT PRACTICE,-0.19029,51.366603
178.64,CANNOCK MINOR INJURIES UNIT,-2.030614,52.693241
41987.03,DERMATOLOGY HEALTH SERVICE AT WOLVES,-2.59517,53.394149
4232.05,GP SERVICES - GP HUBS,-0.175734,51.240416
94328.5200000002,DATCHET HEALTH CENTRE,-0.576314,51.482057
37655.29,ROOD END MEDICAL PRACTICE,-1.999691,52.494094
7926.89,NEMS OOH,-1.146156,52.947802
11197.17,BUCKS UTC & OOH,-0.771127,51.633345
64245.51,TUDOR HOUSE MEDICAL PRACTICE,-1.149856,52.990599
424.37,ENT SPINKS LANE,0.632055,51.796089
153197.42,THE ROBERT DARBISHIRE PRACTICE,-2.226177,53.454626
125767.21,WENTWORTH MEDICAL PRACTICE.,-0.187898,51.607748
72406.75,DOWNSFIELD MEDICAL CENTRE,-1.77969,52.466938
224570.83,MARYPORT HEALTH SERVICES,-3.494531,54.706432
70417.7800000001,HOPWOOD HOUSE MEDICAL PRACTICE,-2.095467,53.542109
1.13,PERINATAL MENTAL HEALTH,-0.831575,51.410524
91983.9800000001,LANE ENDS SURGERY,-2.727014,53.770173
82625.9600000002,TEMPLE FORTUNE MEDICAL GROUP,-0.197845,51.581101
15.32,AQP ANTICOAG WARREN FARM HEALTH CENTRE,-1.877898,52.542092
68726.67,LYDDEN SURGERY,1.23991,51.163193
48764.21,DMC CHADWICK ROAD,-0.074257,51.467864
98806.5,MILLSTREAM MEDICAL CENTRE,-1.797547,51.071683
130488.94,HELSBY HEALTH CENTRE,-2.770522,53.270467
54662.31,DR AP KUMAR,-0.05904,53.573513
85998.65,COMMONFIELD RD SURGERY,-3.086369,53.370187
30800.8,STATION SURGERY,-2.690615,53.698033
184435.71,APPLETON VILLAGE SURGERY,-2.729552,53.371391
117497.6,CALOW AND BRIMINGTON PRACTICE,-1.396121,53.257848
118366.56,FIRTH PARK SURGERY,-1.445847,53.417523
56430.07,BOTOLPH BRIDGE COMMUNITY HEALTH CENTRE,-0.261557,52.562595
35624.26,SPRINGFIELD MEDICAL PRACT,-1.859629,52.444953
68469.6599999999,ROCK COURT SURGERY,-2.916187,53.411597
203.21,CAMDEN DIABETES IPU,-0.131658,51.53665
216182.78,CATHETER PRESCRIPTION SERVICE,-2.976431,53.380314
30507.16,BRIGHTON STATION HEALTH CENTRE,-0.141323,50.827937
120519.47,VILLAGE SURGERY,-0.350376,51.023691
60720.3699999999,STUBLEY MEDICAL CENTRE,-1.488541,53.304986
89423.84,NEWTON HEATH MEDICAL CENTRE,-2.181199,53.500995
85839.52,NORTHWAY MEDICAL CENTRE,-2.130997,52.548105
1679.97,DR ST GEORGES MIU/OOH,-1.532085,53.747855
61944.24,SHREEJI MEDICAL CENTRE,-0.606689,51.518363
27887.19,KIYANI MEDICAL PRACTICE,0.0021,51.555415
25049.85,NORTH LANCASHIRE INSPIRE,-2.798181,54.04844
198128.08,TONBRIDGE MEDICAL GROUP,0.275507,51.185826
57017.15,DERBYSHIRE ROAD SOUTH SURGERY,-2.310144,53.416957
130847.64,RITCHIE STREET GROUP PRACTICE,-0.107858,51.53474
90764.68,CENTRAL SURGERY - SOUTHCHURCH BLVD,0.739537,51.54219
2555.79,CAMHS - WARWICK,-1.523453,52.284798
219544.96,FOREST MEDICAL,-1.205754,53.14969
45498.1,CATHERINE HOUSE SURGERY,-3.683479,50.429832
157850.73,EAST LEAKE MEDICAL GROUP,-1.177129,52.83403
110335.69,PENDLE VIEW MEDICAL CTRE,-2.232263,53.826018
40550.4000000001,GREYSTONES MEDICAL CENTRE,-1.510002,53.363853
152144.29,KING EDWARD ROAD SURGERY,-0.866422,52.242766
35129.61,BOUNDARY COURT SURGERY,-0.059836,51.623784
2561.84,THANET INTEGRATED ACUTE RESPONSE,1.387926,51.377178
21816.76,BLAYDON GP LED PRACTICE,-1.696266,54.958098
383.32,CCS-CONTRACEPTION & SEXUAL HLTH SERVICE,0.15083,52.197136
72720.0800000001,SHEERNESS HEALTH CENTRE,0.766639,51.436119
154.58,MIRAH DAY HOSPITAL,-1.477708,52.526988
143828.18,ALCONBURY SURGERY,-0.256797,52.371699
136207.75,ORCHARD SURGERY MELBOURN,0.020092,52.080651
303.32,PRINCESS ALICE HOSPICE,-0.376651,51.367131
147053.78,NUNWELL SURGERY,-2.507177,52.187931
34697.1,SOMERSET FHP O,-0.369034,51.523141
242339.3,DR L FREEMAN & PARTNERS,-1.449442,53.752493
85500.5600000001,THE BASSINGHAM SURGERY,-0.636987,53.126641
103499.27,LONGLEVENS SURGERY,-2.212032,51.875911
79493.0900000001,NANTWICH HEALTH CENTRE,-2.518506,53.068155
53411.48,ESTOVER SURGERY,-4.0952,50.411271
116807.13,SUNNY MEED SURGERY,-0.551243,51.315439
85.44,PCH WARD,-2.077775,52.114052
11.79,NORTH COTSWOLDS LOCALITY N. PRESCRIBER,-2.176389,51.847073
2818.32,THOMAS LINACRE SPECIALIST,-2.629091,53.55774
5743.24,C.A.M.H.S.,-2.689816,53.693597
96451.0600000001,SEA MILLS SURGERY,-2.649928,51.484587
53880.87,THE SYMONDS GREEN HEALTH CENTRE,-0.22159,51.91302
120582.35,RIDGE GREEN MEDICAL PRACTICE,-1.836242,51.567683
83.59,PLANE WARD,0.12393,51.704295
726.01,H&R P C SPECIAL SCHEME,0.578137,50.857944
59498.42,BALMORAL GARDENS,0.547786,51.385637
207.22,COMMUNITY ENT SERVICE,-0.258726,52.574107
35.69,SWYPFT NMP BBDU,-1.454617,53.546954
220868.82,STONYHILL MEDICAL PRACTICE,-3.047383,53.781401
193985.39,FURLONG MEDICAL CENTRE,-2.208139,53.063325
27489.51,THE SURGERY (BARRETTS GROVE),-0.078285,51.5522
44158.84,STILLINGTON SURGERY,-1.108927,54.103615
149223.54,BARNARD CASTLE SURGERY,-1.916153,54.545708
93213.52,CROSSROADS MEDICAL PRACTICE,-0.587134,53.183432
62447.93,PRINCES MEDICAL CENTRE,-0.359925,53.753343
133161.88,TWYFORD SURGERY,-0.862762,51.481804
1333.76,PML NEIGHBOURHOOD HUB (BANBURY),-1.349027,52.057771
29174.58,HIGHTOWN VILLAGE SURGERY,-3.058369,53.530081
259575.5,BURNLEY GROUP PRACTICE,-2.238948,53.791326
133450.84,BARBOURNE HEALTH CENTRE,-2.224952,52.208752
594.07,CPFT - CONSULTANT DIABETES TEAM,-0.240576,52.584016
1579.5,GRANTHAM OOH,-0.640714,52.921087
45753.41,NHS SOUTH CHESHIRE CCG NMP'S,-2.45397,53.098813
84693.98,SUDBURY & ALPERTON MEDICAL CENTRE,-0.298046,51.536916
397.04,ST JOHN'S HOSPICE,-2.803011,54.067023
51942.7,THORNS ROAD SURGERY,-2.109345,52.472042
41664.15,ALDERSBROOK MEDICAL CENTRE,0.038356,51.560671
71176.7100000001,QUARRY BANK MEDICAL CENTRE,-2.102402,52.471845
8523.07,NORTHUMBERLAND COMMUNITY SERVICE,-1.508192,55.020469
36456.98,OLD SCHOOL SURGERY,0.535827,51.09887
35482.42,GROBY SURGERY,-1.225017,52.661865
85933.92,HIGH STREET MEDICAL CENTRE,-2.282777,51.747097
72211.1699999999,MEVAGISSEY SURGERY,-4.788601,50.270644
12679.18,BRISDOC HEALTHCARE SERVICES OOH,-2.596274,51.428746
42932.17,REGENCY SURGERY,-0.136165,50.82196
81412.0100000001,THE SLIEVE SURGERY,-1.927168,52.520008
202192.83,KING'S MEDICAL PRACTICE,-1.419613,53.700643
287727.64,EASTWOOD PRIMARY CARE CENTRE,-1.307753,53.016064
216457.72,TODMORDEN GROUP PRACTICE,-2.092159,53.713651
632.82,IMPERIAL COMMUNITY DERMATOLOGY SERVICE,-0.08431,51.500087
87911.45,THE ALMONDBURY SURGERY,-1.751311,53.631868
2062.81,ST CHARLES UCC CENTRE WIC,-0.217218,51.522362
79613.22,MARPLE BRIDGE SURGERY,-2.053323,53.400594
8.34,INDEPENDENT HEALTH GROUP,-2.414415,51.312224
223227.04,STRAND MEDICAL GROUP,-0.41094,50.818463
94.65,NT&H COMM RR,-1.227837,54.702398
156236.2,THORNTON MEDICAL CENTRE,-1.576209,53.791908
55355.88,CHEVELEY PARK MEDICAL CTR,-1.525818,54.7856
98808.3100000001,THE RED PRACTICE WALTON,-0.406024,51.380924
60698.65,HIGH STREET SURGERY,-0.037483,51.708474
44925.99,THE INGHAM SURGERY,-0.57717,53.336945
42195.72,SADDLERS HEALTH CENTRE,-1.979464,52.587684
120486.75,CHILDREN AND FAMILIES DIVISION,-1.892891,52.445923
1125,NSC BOSWORTH HUB,-1.753633,52.480569
141467.43,THE GLEN MEDICAL GROUP,-1.52187,54.97385
82972.3,HILLINGDON HEALTH CENTRE,-0.448053,51.551621
140150.99,BROCKWORTH SURGERY,-2.156696,51.844575
95.56,WATERLOOVILLE GP EXTENDED ACCESS HUB,-1.033601,50.891899
3.36,HMP LINDHOLME,-0.970161,53.544277
5271.33,DMC SHEPPEY-W.I. CLINIC,0.793061,51.415409
50942.76,GRANGE ROAD MEDICAL PRACTICE,-1.763413,54.972384
209300.42,WESTERHOPE MEDICAL GROUP,-1.686811,54.997777
1064.91,MODALITY AWC EXTENDED ACCESS,-1.889371,53.858954
54146.55,BROUGHTON HOUSE SURGERY,-1.636312,53.713801
19.8,OUT PATIENTS DEPARTMENT,-4.116613,50.378837
108852.49,WESTCROFT HEALTH CENTRE,-0.795699,52.006367
203991.53,THE WALL HOUSE SURGERY,-0.208192,51.241304
158160.53,THE DUNSTAN PARTNERSHIP,-2.384279,53.582354
136448.27,ODIHAM HEALTH CENTRE,-0.94103,51.254544
10634.15,SHAKESPEARE WIC,-1.525196,53.802098
1499.03,EPSOM DAY SURGERY UNIT,-0.255324,51.334461
42431.68,CENTRAL CLINIC,-2.075775,52.507977
60993.5600000001,ROYAL ARSENAL MEDICAL CENTRE,0.073476,51.493492
185114,HEACHAM GROUP PRACTICE,0.491184,52.90988
2954.96,CYPS - EVERGREEN HOUSE,-2.073674,51.881059
34.95,SCC HEALTH VISITING,1.143441,52.054221
128121.13,OLD ROAD WEST SURGERY,0.367195,51.433655
168852.46,LONG CATLIS ROAD SURGERY,0.595579,51.348325
251579.69,THE GRANGE MEDICAL CENTRE,-1.354248,53.611836
77326.61,CHASE CROSS MEDICAL CENTRE,0.164796,51.600118
661034.590000002,PRIORY MEDICAL GROUP,-1.129435,53.949388
405.51,LIVINGCARE HEALTH SERVICES ENT,-1.427194,53.79855
1001.87,DODDINGTON LUCS,0.058102,52.497587
122837.16,BEECHWOOD SURGERY,0.292731,51.608567
1274.17,ADULT ADHD SERVICE,-1.450395,50.884596
105169.98,ST GEORGE'S MEDICAL CENTRE,-2.189031,53.509666
62982.7599999999,YORK ROAD SURGERY,-1.348576,53.435091
3.41,ST MARGARET'S HOSPICE,-3.127087,51.016495
207621.46,SOUTH GRANGE MEDICAL GROUP PRACTICE,-1.166506,54.569955
44234.82,ASHCROFT SURGERY,-0.71666,51.898041
227908.67,WESTBOURNE MEDICAL CENTRE,-1.90343,50.723515
114433.35,EAST BARNET HEALTH CENTRE,-0.166424,51.646339
214712.24,LITCHDON MEDICAL CENTRE,-4.041711,51.069586
26132.98,OPEN DOOR,-0.068703,53.572249
184891.6,SALFORD PRIMARY CARE TOGETHER,-2.423902,53.529872
46754.8599999999,GROVE HILL MEDICAL CENTRE,-0.457357,51.772315
34157.28,HOUNSLOW FAMILY PRACTICE,-0.366799,51.471773
17825.9,HILLTOP MEDICAL PRACTICE,-0.263604,51.542472
137317.88,FRIARY HOUSE SURGERY,-4.128292,50.37266
168829.55,MYTHE MEDICAL PRACTICE,-2.153433,51.99229
252650.130000001,WILLIAM BROWN CENTRE,-1.33142,54.757994
53035.62,UNIVERSITY HEALTH SERVICE HEALTH CENTRE,-1.482709,53.380323
123508.47,HT PRACTICE,-2.110496,53.478305
69038.4300000001,BARNT GREEN SURGERY,-1.991028,52.35999
93861.8899999999,NEASDEN MEDICAL CENTRE,-0.247382,51.559667
76204.88,LANGLEY MEDICAL PRACTICE,-0.299929,51.390825
181579.26,BILLINGSHURST SURGERY,-0.445798,51.024981
76615.5199999999,DROYLSDEN RD FAMILY PRACTICE,-2.175662,53.499916
132298.12,GADE SURGERY,-0.481406,51.636736
61319.1899999999,FERRY ROAD HEALTH CENTRE,0.728076,50.951404
92787.7799999999,SPRING HOUSE SURGERY,-2.463553,53.588374
152742.17,WELL CLOSE MEDICAL GROUP,-2.006127,55.772458
12134.79,ADDACTION NORTH EAST LINCOLNSHIRE,-0.074329,53.573559
77371.67,PROSPECT SURGERY,-1.235397,54.575047
274.8,BEECHCARE & PGU,0.25484,51.420223
9881.8,REDDITCH & BROMSGROVE COMMUNITY NURSES,-2.055662,52.344136
56092.23,ST HELENS OUT OF HOSPITAL SERVICE,-2.723398,53.418906
88969.3800000001,THE TOLLERFORD PRACTICE,-2.571586,50.778924
109046.46,DENMARK ROAD MEDICAL CENTRE,-1.876102,50.747031
82337.5400000001,WEST GREEN ROAD SURGERY,-0.092209,51.58587
159905.44,SPINNEY BROOK MEDICAL CENTRE,-0.614041,52.32438
121313.67,EVERSLEY MEDICAL CENTRE,-0.111913,51.388514
77741.8000000001,LANGSTONE WAY SURGERY,-0.210815,51.606981
208487.04,BEECH HILL MEDICAL PRACTICE,-2.644352,53.555654
121840.49,BELLEVUE MEDICAL CENTRE,-1.900852,52.465393
49175.11,ILKESTON HEALTH CENTRE,-1.308041,52.968251
32171.97,ALEXANDRA MEDICAL CENTRE,-2.063026,52.454036
244496.48,THE ARNEWOOD PRACTICE MILTON MEDICAL CEN,-1.657992,50.756444
52749,KENNETH MACRAE MED CENTRE,-2.786435,53.49903
67281.78,STANLEY CORNER MEDICAL CENTRE,-0.296619,51.544251
5088.24,BROOKLANDS,-1.744102,52.4712
57562.45,SOUTH NORWOOD HILL MEDICAL CENTRE,-0.080772,51.403169
63984.58,GREENWICH PENINSULA,0.012038,51.493258
21779.76,DCHS DERBY CITY,-1.441882,53.221288
303547.21,FROME MEDICAL CENTRE,-2.311568,51.237318
191776.079999999,ROYAL MANOR HEALTH CARE,-2.437275,50.544008
153.96,RTPCT DERMATOLOGY GPWSI,-0.242504,51.473609
53.2,YAS IUC OOH,-1.517971,53.709391
6063.67,THE SKIN CLINIC,-2.74562,52.713895
39799.92,BNSSG COMMUNITY PAEDIATRICIANS,-2.499941,51.462591
223607.48,EXCEL PRIMARY CARE,-2.758901,53.538343
233310.24,BARTON SURGERY,-3.473818,50.579848
122844.83,BAMPTON SURGERY,-1.55034,51.729032
723.51,RAMSAY HEALTHCARE SPRINGFIELD HOSPITAL,0.484598,51.753372
2161.22,HASTINGS AND ROTHER OOH,0.891514,51.129106
30953.71,SCOTT PARK SURGERY,0.669733,51.571078
295.67,LOCAL PRIMARY CARE EAST/WEST SPOKE,-2.486748,53.750552
151280.69,WITTON MEDICAL CENTRE,-2.507553,53.740232
74964.58,THE PRACTICE ALBERT ROAD,0.053108,51.501557
45.4,COMMUNITY CARDIOLOGY SERVICE,0.15356,51.455555
157532.15,CORNERSTONE PRACTICE,0.091322,52.548858
5490.78,KINGSTON PRIMARY CARE EXTENDED SERVICE,-0.304894,51.414188
85506.91,THE CHURCH VIEW PRACTICE,0.609995,51.363412
121659.67,HAYDOCK MEDICAL CENTRE,-2.656554,53.468334
2807.78,BRACKNELL URGENT CARE CENTRE WIC,-0.735982,51.413263
441.79,COMMUNITY MATRONS,-2.095555,52.599722
176795.059999999,THE OAKS MEDICAL CENTRE,-1.895827,52.552454
227855.88,EAST NORWICH MEDICAL PARTNERSHIP,1.337135,52.637255
383522.56,TOWER FAMILY HEALTHCARE,-2.341432,53.614725
84308.7400000002,THE MILLER PRACTICE,-0.092165,51.551419
7877.26,DMC NORTH KENT DERMATOLOGY - DGS,0.343258,51.435153
127129.38,DRUID GROUP,-1.942009,52.486277
97558.3200000001,FRONT STREET SURGERY,-1.126923,53.954403
12593.84,FULHAM CROSS MEDICAL CENTRE,-0.214067,51.482774
5893.82,GREAT HARWOOD SURGERY,-2.414211,53.768459
197046.87,CASTLECROFT MEDICAL PRACTICE,-2.189808,52.57877
87706.4299999999,BRIERCLIFFE SURGERY,-2.212859,53.810388
227639.56,THATCHAM HEALTH CENTRE,-1.262387,51.404018
108096.06,WATLINGTON MEDICAL CENTRE,0.391163,52.666799
99963.1999999998,THE ROSEBERRY PRACTICE,-1.292215,54.611726
93297.83,ASPULL SURGERY,-2.586036,53.569599
115059.14,GRESLEYDALE HEALTHCARE CENTRE,-1.576841,52.760758
118188.79,WINCOBANK MEDICAL CENTRE,-1.416316,53.419405
16.14,CCS HEALTH VISITORS (SOUTH),-0.067127,52.322863
62952.4699999999,THE WRAGBY SURGERY,-0.301337,53.287948
75677.86,ROYAL DOCKS MEDICAL PRACTICE,0.062932,51.50946
42116.27,ALVELEY MEDICAL PRACTICE,-2.353309,52.454738
9190.33,ST WERBURGH'S MEDICAL PRACTICE HOMELESS,-2.890684,53.194463
214153.8,LISTER MEDICAL CENTRE,0.090365,51.754515
160030.33,STURRY SURGERY,1.130308,51.304473
183514.28,PUTNOE MEDICAL CENTRE PARTNERSHIP,-0.438308,52.147939
108006.69,BURVILL HOUSE SURGERY,-0.22721,51.761302
0.91,COMMUNITY STROKE CO-ORDINATING TEAM,-2.095555,52.599722
64553.0499999999,PRIORS FIELD SURGERY,0.124169,52.388951
181856.61,AXMINSTER MEDICAL PRACTICE,-2.999226,50.780899
932.23,WILL ADAMS NHS TREATMENT CENTRE,0.576568,51.380889
172041.54,CENTRAL PARK MEDICAL CENTRE,-3.045864,53.415672
48129.4799999999,MALTHOUSE MEADOWS SURGERY,-2.568038,50.668698
112140.41,THE SPRINGFIELD SURGERY (BINGLEY),-1.827829,53.846937
64626.18,HOOK SURGERY,-0.312059,51.359148
479.17,CARE UK OPHTHALMOLOGY CATS,-2.14084,53.622824
2021.94,NT&H COMM RESP N,-1.227837,54.702398
144086.72,BHARANI MEDICAL CENTRE,-0.647828,51.520652
95691.2500000001,DR LONGFIELD AND PARTNERS,-0.759425,52.997585
2848.21,IC24-CANTERBURY CCG-OOH,0.891514,51.129106
160323.34,SANDY LANE SURGERY,-2.694715,53.689488
31763.59,HATTON MEDICAL PRACTICE,-0.433285,51.457879
46564.5900000001,BECKETT HOUSE PRACTICE,-0.123521,51.469491
27283.6,HINDON SURGERY,-2.130793,51.095814
111454.83,THE RANGE MEDICAL CENTRE,-2.257066,53.452309
5824.67,MENTAL HEALTH AND WELLBEING SERVICES,-2.739882,52.745851
896.34,COMMUNITY ENT,0.303361,51.290055
45512.89,MARSHALLS ROAD SURGERY,-0.539225,52.344743
68033.3999999999,ARDINGLY COURT SURGERY,-0.132888,50.82118
109410.65,HUNTINGDON ROAD SURGERY,0.11009,52.214035
282.29,ENT GPWSI CUMBERLAND CENTRE,-4.167875,50.369991
147128,WICKHAM MARKET MEDICAL CENTRE,1.363674,52.151842
58790.99,STRETTON MEDICAL CENTRE,-2.577017,53.339489
29197.83,DR U AKBAR,-1.777945,53.803569
136244.07,WIGTON GROUP MEDICAL PRACTICE,-3.159002,54.820303
1421.52,SEXUAL HEALTH WIRRAL,-3.026531,53.380029
171.7,EXTENDED ACCESS PCD LAKESIDE PRACTICE,-1.148909,53.615496
10551.79,YARDLEY MEDICAL CENTRE,-1.828397,52.463189
168847.29,PENN MANOR MEDICAL PRACTICE,-2.14981,52.559823
26393.11,THE PRACTICE COLLEGE ROAD,-0.539824,51.322572
195450.52,MERIDIAN SURGERY,-0.000811,50.796102
88895.5700000001,HOMESTEAD,-1.518747,53.68227
25894.34,ALLENBY CLINIC,-0.376261,51.531514
4.68,HV CRAVEN  HARROGATE & RURAL,-1.517573,53.993807
17665.71,BSW IUC OOH,-2.122946,51.473348
228107.67,WELLINGTON MEDICAL PRACTICE,-2.514204,52.699878
22422.39,NARBOROUGH ROAD SURGERY,-1.153521,52.624383
73851.32,LAMBGATES HEALTH CENTRE,-1.970153,53.463477
6904.69,CSS DERMATOLOGY SERVICE,-0.00105,51.620089
382439.769999999,THE DEEPINGS PRACTICE,-0.316194,52.683726
5837.53,CAMHS WHITESTONE CLINIC,-1.438173,52.504116
137068.82,MIDWAY SURGERY,-0.355421,51.733852
67569.7999999999,SOOD (THE GREEN & FIR ROAD),-0.340635,51.443826
56135.18,THE LINDLEY VILLAGE SURG.,-1.82571,53.661331
65769.5399999999,HIGH OAK SURGERY,-2.13113,52.500707
36124.08,WESTWOOD PRIMARY CARE CENTRE,-1.110806,53.296468
59367.86,NHS FYLDE & WYRE CCG,-2.881037,53.789498
75075.62,POTTERIES MEDICAL CENTRE,-2.136838,53.020074
61398.81,THE OLD COLE HOUSE PRACTICE,-1.475043,52.477262
90517.1900000002,SOUTHWAY SURGERY,-4.133237,50.427678
248.46,DONCASTER NORTH ADULT CMHT,-1.149914,53.556395
138841.06,GUARDIAN STREET MED/CTR,-2.606297,53.391901
93075.0300000001,BRANDON STREET SURGERY,-1.122261,52.648042
704.09,M & A LTC PALLIATIVE CARE NURSE,-1.238124,52.98146
167697.51,HIGH PASTURES SURGERY,-2.946534,53.519395
123048.02,PLANE TREES GROUP PRACTICE,-1.894437,53.730448
68630.14,MICKLEOVER SURGERY,-1.53732,52.907481
363.76,DIABETES CROMPTON LODGE,0.503562,51.719263
148550.03,CROCUS MEDICAL PRACTICE,0.238729,52.025067
88512.75,ASH SURGERY,1.27891,51.279887
441.87,RAMSAY HEALTHCARE - NORTH DOWNS HOSPITAL,-0.079153,51.273556
31090.11,DELTA HEALTHCARE,-0.292835,53.764281
102753.97,SWANWOOD PARTNERSHIP,0.519034,51.613356
1831.65,HOLYWELL AT LANGLEY HOUSE HCT,-0.391206,51.683651
405.12,COMPTON HOSPICE,-2.172068,52.585801
125414.18,BROOK GREEN MEDICAL CENTRE,-0.220945,51.495163
3179.44,STORTHFIELD HOUSE,-1.332746,53.097559
173704.91,WHADDON MEDICAL CENTRE,-0.766276,52.000308
16219.46,KINGS HEALTH & LINGS BROOK PRACTICE,-0.922279,52.256829
104133.97,THE NEW BREWERY LANE SURG,-1.636835,53.67243
56528.47,GROVE SURGERY,-0.01097,51.579197
99893.5400000001,CRESSEX HEALTH CENTRE,-0.778801,51.617114
23430.68,CGL NORTH & CENTRAL LANCASHIRE,-2.703636,53.758538
12913.53,CGL EAST CHESHIRE,-2.442143,53.097489
47447.99,DR SATHANANDANS PRACTICE,0.650261,51.555142
23875.71,THE PRACTICE SURGERIES LTD,-0.099109,51.370492
208657.61,ST JOHNS MEDICAL CENTRE,-2.352158,53.38672
1000.73,NORTH SATELLITE UNIT,-1.487911,53.42172
160457.94,UNDERCLIFFE SURGERY,-1.67818,53.707224
78594.38,WHITBY GROUP PRACTICE SURGERY   (BLACK),-2.910629,53.26751
27158.14,ST LUKE'S SURGERY,-0.0358,50.8023
115601.61,DR ARORA RK,-1.997982,52.516003
118154.15,ODDFELLOWS HALL & ST CLEMENTS,0.327906,51.480703
121959.33,SPINNEY SURGERY,-0.077762,52.33533
2133.07,ACUTE GP REFERRAL SERVICE,-4.113684,50.41672
96895.6100000001,WARWICK ROAD SURGERY,-2.928541,54.893858
87758.9499999999,THE PETWORTH SURGERY,-0.607135,50.983365
85064.1500000001,SLEIGHTS AND SANDSEND MEDICAL PRACTICE,-0.659645,54.452005
80575.8000000001,WIDE WAY MEDICAL CENTRE,-0.134454,51.401824
195.78,MATERNAL MENTAL HEALTH TEAM,-1.459978,52.387714
174549.41,SNAPS STOMA,-2.475863,53.117685
307.37,ARUN MIAMI GP ACCESS HUB,-0.531673,50.808759
165448.34,RIVER LODGE SURGERY,0.018818,50.874836
215552.61,CLOVER GROUP PRACTICE,-1.40885,53.384843
64495.38,WOODBANK SURGERY,-2.308802,53.60507
172257.91,CRUDDAS PARK SURGERY,-1.630965,54.968173
68929.72,OAKHILL MEDICAL PRACTICE,-1.458311,53.305662
158203.9,PARK PRACTICE,0.277898,50.794441
137430.88,HAZELDENE HOUSE SURGERY,-2.004496,52.800688
80687.7900000001,DR. MASTERTON'S SURGERY,-0.130137,51.430487
1098.1,OLDER AGE - WEAVERS CROFT,-2.209872,51.742704
139891.29,KINGS NORTON SURGERY,-1.930753,52.404588
49505.43,NASEBY MEDICAL CENTRE,-1.844953,52.489175
322.4,WEST LANCS HEART FAILURE SERVICE,-2.840112,53.602357
42313.1099999999,YEADING COURT SURGERY,-0.40009,51.528299
58456.59,PRIME PRACTICE PARTNERSHIP,0.152111,51.535187
66946.18,ADULT COMMUNITY NURSING,-0.086794,51.503466
35858.49,HEADSTONE ROAD SURGERY,-0.340912,51.583768
74419.16,OAKLANDS SURGERY,-2.617414,50.954243
35148.02,BELSIZE PRIORY MEDICAL PRACTICE (GROUP),-0.188014,51.539773
22593.16,DR SKS SWEDAN,0.024864,51.550554
104.17,MEDWAY PRACTICES ALLIANCE (MPA),0.546037,51.326929
183452.7,CASTLE HEALTHCARE PRACTICE,-1.144908,52.930476
44777.5700000001,MONTPELIER SURGERY,-0.149079,50.827148
4499.89,SOUTH SEFTON GP EXTRA SERVICE,-3.002733,53.472727
13273.79,THE TOWN SURGERY,-0.378104,51.512512
87188.4000000002,EVERGREEN OAK SURGERY,-1.958467,50.723629
191.43,CPT CRAWLEY,-0.375414,50.817416
155544.51,DR JK MARSDEN'S PRACTICE,-0.436528,51.894968
110054.9,CEDAR BROOK PRACTICE,-0.414132,51.534092
23.55,MAIDSTONE CENTRAL CLUSTER,0.277462,51.194717
76988.1100000001,SOLWAY HEALTH SERVICES,-3.551342,54.642687
171937.08,ALMA MEDICAL CENTRE,-1.317648,54.56949
123219.32,COLLINGHAM CHURCH VIEW SURGERY,-1.408994,53.908099
9515.12,DONNINGTON SKIN CLINIC,-2.435652,52.714406
52105.0300000001,INTRAHEALTH PLATT BRIDGE,-2.595925,53.522279
2018.5,JOHN TAYLOR HOSPICE,-1.823564,52.527352
209192.18,MERCHISTON SURGERY,-1.749007,51.587527
45448.03,THE BROOK SURGERY,-1.871333,52.462659
18663.81,YOUR HEALTHCARE COMM. PRACT,-0.292882,51.386515
59425.13,THE YELLOW PRACTICE,-0.406024,51.380924
66981.1100000001,BROKEN CROSS SURGERY,-2.12262,53.257964
189397.69,WARLEY MEDICAL CENTRE,-2.006757,52.468122
11875.61,ROTH. NHS FT COMM. SERV,-1.358666,53.434741
29180.5,GOVIND HEALTH CENTRE,-1.532784,52.400277
40472.41,WILLIAM HARVEY SURGERY,0.597963,51.593347
2627.87,C.V.W. CASTLEBERG 1,-2.292211,54.069558
71935.8200000001,TRI-LINKS MEDICAL PRACTICE,-1.664038,52.634849
652.03,OLDHAM 7 DAY ACCESS HUB3 OOH,-2.156747,53.509855
50.85,MERIDIAN HOUSE - AIREWHARFE CMHT,-1.895521,53.873987
36188.78,THE SURGERY FODEN STREET,-2.188242,52.997045
48367.21,MAYTREES MEDICAL PRACTICE,-2.563371,51.470243
223.41,WORCESTER CMHT,-2.217086,52.192053
63850.3900000001,APPLEBY MEDICAL PRACTICE,-2.492993,54.578082
135913.23,CENTRAL GATESHEAD MEDICAL GROUP,-1.604307,54.956479
122312.55,TORRIDON ROAD MEDICAL PRACTICE,-0.002112,51.44011
58660.67,THE WHITE HOUSE SURGERY,0.088164,51.534004
95977.35,BIRCHES HEAD MEDICAL CTR.,-2.154096,53.035667
525812.320000001,HAXBY GROUP PRACTICE,-1.081866,54.019329
6531.81,NEWCASTLE DIABETES CENTRE,-1.644546,54.976238
16981.74,ROCHDALE AND OLDHAM ACTIVE RECOVERY,-2.156353,53.615191
71732.7199999999,VALE DRIVE MEDICAL PRACTICE,-0.194727,51.648828
116433.49,THE ERIC MOORE PARTNERSHIP,-2.59716,53.393404
36372.49,DR DP SHAH'S PRACTICE,0.160037,51.545122
96998.8800000002,PRESCOTT SURGERY,-2.852689,52.784345
115102,DR AHMAD & PTNRS,-2.595925,53.522279
53462.48,HORNE STREET SURGERY,-1.871717,53.725678
439.94,COMMUNITY COPD SERVICES,-1.508005,52.413401
141894,CHISLEHURST MEDICAL PRACTICE,0.066938,51.419678
145540.35,THE REDWELL MEDICAL CENTRE,-0.701555,52.314792
22644.96,ST JOHNS HOSPICE,-1.149142,53.500048
193161.27,THE ALDERGATE MED.PRACT.,-1.695644,52.639079
258190.74,POCKLINGTON GROUP PRACTICE,-0.781336,53.924503
140758.84,LOCKFIELD SURGERY,-2.057135,52.585445
21340.99,DR SOOD'S PRACTICE,-0.382386,51.483967
192280.5,MOUNT FARM SURGERY,0.742641,52.245214
221729.78,VALENTINE HEALTH PARTNERSHIP,0.061519,51.49221
86674.1600000001,DR AHMED & PARTNERS,-1.782551,53.655615
74216.45,NORTH CHELMSFORD NHS HCC,0.510815,51.750584
92235.8399999999,THE OAKWOOD SURGERY,-1.073937,53.506609
216051.72,CENTRE PRACTICE,-1.17634,50.853776
112746.24,MORETON HEALTH CLINIC,-3.112556,53.400453
138450.33,JUBILEE STREET PRACTICE,-0.050552,51.513595
83325.2399999999,HIGH STREET MEDICAL CENTRE,-2.595495,53.47988
36948.99,DERWENT MEDICAL CENTRE,-1.480751,52.929325
11438.87,BARDOC GP OOH,-2.427769,53.590447
107599.4,SHEEPCOT MEDICAL CENTRE,-0.412898,51.695192
5.14,WORKING AGE ADULTS - PULLMAN PLACE,-2.238316,51.866796
103886.6,DEER PARK FAMILY MEDICAL PRACTICE,-1.230829,52.949242
181591.38,THE MEDICAL CENTRE  DRIFFIELD,-0.439676,54.006257
40624.6,THE NEW SURGERY,-0.235578,51.506058
88562.9899999999,LAMBETH WALK GROUP PRACTICE,-0.112591,51.495609
61661.3,LEANDER ROAD SURGERY,-0.117457,51.399457
110849.78,CHELSFIELD SURGERY,0.104017,51.355726
168279.5,CANFORD HEATH GROUP PRACT,-1.964765,50.741327
188903.74,YAXLEY GROUP PRACTICE,-0.251101,52.516866
56790.6,BOLTON MEDICAL CENTRE,-2.431399,53.56543
7845.83,CORNWALL 111 OOH,-5.097984,50.265937
110796.71,TEMPLE HOUSE PRACTICE,-2.498229,51.409833
37467.67,THE CRANE,0.535827,51.09887
514.46,EAST HULL FAMILY PRACTICE,-0.268619,53.77908
153115.31,MANOR HOUSE LANE SURGERY,-1.802707,52.461306
97040.7800000003,BRIDGE STREET SURGERY,-0.495121,53.551684
30077.43,MELROSE SURGERY,-1.287301,54.609397
44375.39,MEDICAL CENTRE CAMELFORD (DR GARROD),-4.676789,50.624027
133028.31,MACKLIN STREET SURGERY,-1.481767,52.92115
150819.98,POLDEN MEDICAL PRACTICE,-2.87579,51.150216
1697.62,RUNCORN GP EXTRA,-2.727045,53.331865
102939.26,LIMES MEDICAL CENTRE,-1.387885,53.098493
6747.39,WASHWOOD HEATH URGENT CARE CENTRE,-1.849921,52.487617
1518.9,BCH HEART FAILURE SERVICE,-2.55823,51.482972
220118.14,ABBEY MEADS MEDICAL PRACT,-1.792794,51.597826
227291.12,CHEVIOT ROAD SURGERY,-1.455974,50.921365
588.72,COMMUNITY DERMATOLOGY SERVICE,-1.508005,52.413401
261.87,CRISIS RESPONSE TEAM,-2.186902,53.52264
155437.49,ST NEOTS SURGERY,-4.160899,50.387979
935.68,NEWARK ACUTE HOME VISITING SERVICE,-1.238124,52.98146
30735.78,SHEERWATER HEALTH CENTRE,-0.530722,51.334156
148377.6,LIQUORPOND SURGERY,-0.025925,52.9735
86930.71,FORDINGTON SURGERY,-2.42746,50.713004
264856.49,SHAFTESBURY MEDICAL CTR.,-1.497858,53.800234
32903.86,CPT WORTHING,-0.375414,50.817416
345.98,HB CLINIC,-1.161857,52.675604
50623.5,BURNSIDE SURGERY,-2.424635,53.592518
84912.7599999999,HIGHGROVE SURGERY,0.098727,51.538564
70.52,MINOR INJURIES UNIT,-3.045864,53.415672
74478.98,MEDICENTRE,-2.643055,53.494018
78807.16,MARKET OVERTON & SOMERBY SURGERIES,-0.684769,52.739345
68702.93,RICHMOND MEDICAL CENTRE,-2.384874,53.752328
86334.1800000002,TWIN OAKS MEDICAL CENTRE,-1.737739,50.781308
100886.14,STONELEIGH SURGERY,-2.770704,54.227277
100174.57,WESTMINSTER MEDICAL CENTRE,-2.97836,53.44083
60396.0899999999,DESFORD MEDICAL CENTRE,-1.296116,52.627473
121421.37,WILMSLOW HEALTH CENTRE,-2.237324,53.322922
145404.86,MANOR FARM MEDICAL CENTRE,0.690513,52.648544
64.1,CATARACT SERVICE AT EVMC,1.012662,51.340885
219447.509999999,RAVENSWOOD MEDICAL PRACTICE,1.199377,52.030367
68104.83,CHESSINGTON PARK SURGERY,-0.312059,51.359148
430.24,HMP LOWDHAM GRANGE,-1.038109,53.016096
3862.61,ASHTON  LEIGH & WIGAN OOH,-2.614585,53.534922
122118.06,DR SINHA & PARTNERS,0.100204,53.030138
33.81,HMP BULLINGDON,-1.094423,51.848497
71983.1900000001,ROSEWORTH SURGERY,-1.61867,55.001366
66619.3,THORPE HESLEY SURGERY,-1.432602,53.458647
53009.99,BANK HOUSE SURGERY,0.069949,51.359218
115725.23,STATION ROAD SURGERY,0.102029,51.431445
154587.44,ADDISON HOUSE - HAQUE PRACTICE,0.088979,51.770891
62276.48,CALDBECK SURGERY,-3.050622,54.749864
7156.69,NON MEDICAL PRESCRIBERS,-0.801989,51.797983
119804.07,AWBURN HOUSE MEDICAL PRACTICE,-2.011,53.458105
2721.99,IC24-ASHFORD CCG-OOH,0.891514,51.129106
58266.4200000001,DR COLLINS AND CARRAGHER,-0.311771,52.006602
195047.89,MOUNT CHAMBERS MEDICAL PRACTICE,0.552722,51.879812
2164.8,DR A K JHA (SH),-2.164492,53.856587
61640.0699999999,HOWELL SURGERY,0.398895,51.150874
9227.52,SOUTHAMPTON PRIMARY CARE HUBS,-1.317099,50.913217
2580.07,EDGWARE WIC,-0.271242,51.606493
117881.2,THE MUSWELL HILL PRACTICE,-0.141215,51.59225
121076.31,THE BARKANTINE PRACTICE,-0.025725,51.500806
98596.4200000001,ABBEY ROAD SURGERY,-3.224778,54.109942
63583.8499999999,MANOR PRIMARY CARE,-2.764643,53.549695
3.18,QVM HOSPITAL,-0.222867,51.827957
993.13,7 DAY ACCESS MIDDLETON HC,-2.172588,53.54895
144271.39,CONSTABLE COUNTRY RURAL MEDICAL PRACTICE,1.026191,51.977179
112266.96,BEECH HOUSE MEDICAL PRACT,-2.118146,53.379406
187217.879999999,COQUET MEDICAL GROUP,-1.580504,55.332599
199088.81,WARLINGHAM GREEN MED PRAC,-0.057218,51.312278
150302.88,THE MANOR HOUSE SURGERY,-1.159231,54.557403
84839.0700000001,THE SURGERY - 48 MULGRAVE ROAD,-0.196293,51.358332
395.34,DERMATOLOGY SERVICE,-2.635267,53.445979
51362.43,WEST TOWN SURGERY,-0.443862,53.685751
41025.32,HOLLINGTON SURGERY,0.872487,51.151423
84798.5199999999,WAKE GREEN SURGERY,-1.883357,52.446103
1232.38,CROYDON SOUTH & CENTRAL EXTENDED ACCESS,-0.114466,51.34074
55823.86,MEDICAL CENTRE CAMELFORD (DR NASH),-4.676789,50.624027
116036.86,FALLODON WAY MEDICAL CENTRE,-2.609541,51.483068
136023.28,HIGHCROFT SURGERY,-1.12882,53.00411
57427.2499999999,RIVERSIDE FAMILY PRACTICE,-2.238948,53.791326
83250.6400000002,DALTON SURGERY,-1.751038,53.644598
70332.9000000001,HOUNSLOW MEDICAL CENTRE,-0.37684,51.469395
149031.66,THE CEDARS SURGERY,0.173742,51.395873
28362.44,KINCORA DOCTORS SURGERY,-0.412216,51.511666
146767.17,LARKSFIELD SURGERY MEDICAL PARTNERSHIP,-0.235113,52.017132
95883.11,SPRING TERRACE HEALTH CENTRE,-1.450673,55.010941
3144.4,MIAMI CLINIC - ST LAWRENCE SURGERY,-0.390026,50.823979
106326.67,NORTHGATE VILLAGE SURGERY,-2.892972,53.195093
56508.51,CROSLAND MOOR SURGERY,-1.809637,53.63841
179414.05,HARCOURT MEDICAL CENTRE,-1.800762,51.067489
403607.12,PEMBROKE MEDICAL GROUP,-3.560246,50.445527
34683.97,HORNDON-ON-THE-HILL SURGERY,0.405746,51.523749
98116.6999999999,AELFGAR SURGERY,-1.937701,52.763581
159639.47,ORCHARD MEDICAL CENTRE,-2.510659,51.462087
125623.14,WEST END SURGERY,-1.327291,50.928501
47605.89,WYRE FOREST COUNTYWIDE NURSES,-2.244954,52.387785
67019.5700000001,LAKESIDE,-2.203683,52.595468
77093.6400000001,CHURCH END MEDICAL CENTRE,-0.253241,51.54757
91769.0000000002,WILLIAM FISHER MED.CTR.,0.826913,51.662819
148385.23,GREAT BRIDGE P/SHIP FOR HEALTH,-2.032577,52.528908
394.41,TORBAY NMP SPECIALIST,-3.552785,50.48778
96085.38,THE REYNARD SURGERY,0.484029,52.302685
871.01,MYDDLETON ROAD SURGERY,-0.115662,51.606554
1295.61,RAM PATEL (DERMATOLOGY),-1.03822,52.946139
35.19,HV RICHMONDSHIRE,-1.517573,53.993807
186943.87,ENDERLEY ROAD MEDICAL CENTRE,-0.340469,51.601872
226653.2,THE GRANGE GROUP PRACTICE,-1.781351,53.662292
10107.24,TURNING POINT CROYDON RECOVERY NETWORK,-0.103547,51.370114
94589.92,ELIZABETH AVENUE GROUP PRACTICE,-0.091905,51.539023
110019.99,CONTINENCE SERVICE PROJECT,-2.181199,53.500995
30650.58,ECCLES GATEWAY MEDICAL CENTRE,-2.339314,53.48253
1017.81,NORTHVILLE FAMILY PRACTICE,-2.570103,51.50079
152861.07,HALESOWEN MEDICAL PRACTICE,-2.059137,52.444056
70792.2499999999,HIGHERLAND SURGERY,-2.232632,53.009021
212430.21,FAILSWORTH GROUP PRACTICE,-2.156747,53.509855
131254.22,FELDON LANE PRACTICE,-2.028271,52.467325
65422.75,DRS CHALMERS & MEIER,-0.066189,53.557292
107263.02,PRICES MILL SURGERY,-2.224938,51.693801
8.16,COMMUNITY MENTAL HEALTH,-1.445534,52.42244
12559.65,PELC REDBRIDGE OOH,0.066648,51.55684
37883.63,SAXENA L,-2.668958,53.521291
47687.97,CRADLEY SURGERY,-2.402119,52.118284
290598.46,LORDSWOOD HOUSE GROUP MEDICAL PRACTICE,-1.961221,52.459054
123.5,EAST CLUSTER IAGPS,-1.82052,50.747482
24280.61,TURNING POINT LEICESTER & LEICESTERSHIRE,-1.127621,52.637554
206700.03,STOCKTON HEATH MED.CENTRE,-2.582161,53.37195
61913.5,CGL NORFOLK,1.315558,52.62367
108666.15,CENTRAL SURGERY,-2.74261,53.456686
94159.5099999999,CROSBY HOUSE SURGERY,-0.599437,51.517962
20512.17,GLOUCESTER ROAD SURGERY,-0.183052,51.647272
148765.83,THREE VILLAGES MEDICAL PRACTICE,-2.146398,52.465406
6960.30999999999,MEDICUS HEALTH PARTNERS-MOORFIELD ROAD,-0.047082,51.660296
107088.83,SWANSWELL MEDICAL CENTRE,-1.816529,52.432515
64223,TOOTING SOUTH MEDICAL CENTRE,-0.161461,51.421738
139660.94,STAPENHILL MEDICAL CENTRE,-1.624908,52.785524
132273.37,DENMEAD HEALTH CENTRE,-1.067347,50.904386
65.18,RHEUMATOLOGY DEPARTMENT,-2.095555,52.599722
61629.34,SOUTH PARK MEDICAL PRACTICE,0.189702,51.270005
249908.44,AW SURGERIES,-2.122432,52.482313
65617.4199999999,WAYSIDE MEDICAL PRACTICE,-0.165912,51.173238
1360.69,SOUTH HORNCHURCH WALK IN CENTRE,0.192085,51.533441
138845.59,COTSWOLD MEDICAL PRACTICE,-1.75678,51.886317
171218.66,MOUNT PLEASANT MED CENTRE,-1.637294,53.707036
39189.02,THE LORDSHIP LANE SURGERY,-0.073221,51.448369
160025.36,NEASHAM ROAD SURGERY,-1.542648,54.517256
149122.4,SWINESHEAD SURGERY,-0.158921,52.940616
179467.48,KING GEORGE SURGERY,-0.206096,51.907416
95040.23,MAWBEY GROUP PRACTICE,-0.125232,51.479283
80977.5199999999,THE KAKOTY PRACTICE,-1.473444,53.5464
188617.06,NEW SOUTHGATE SURGERY,-1.50415,53.692762
79252.78,HALDON HOUSE SURGERY,-3.416301,50.619764
105626.95,MARKFIELD MEDICAL CENTRE,-1.272985,52.685255
136606.31,THE ROCKWELL AND WROSE PRACTICE,-1.744408,53.822997
64508.74,ASHLEY SURGERY,-2.355514,52.925782
10523.82,ROSSLYN HILL SURGERY,-0.170852,51.554201
33984.94,CHILDS (THAMESIDE),-0.326599,51.427449
151064.24,THE GROUP PRACTICE ALFRED SQUIRE ROAD,-2.080754,52.599417
89728.3300000001,DR M ASLAM'S PRACTICE,0.510532,51.57811
170.6,GAINSEA,-0.780581,53.411776
4624.94,ACE,0.921589,51.923793
85037.8399999999,NORTHLANDS WOOD SURGERY,-0.081209,50.996531
77609.0899999999,BROOK HOUSE SURGERY,-1.445882,50.921794
145280.48,WEST ROAD SURGERY,0.70187,51.544989
553232.589999999,WHITSTABLE MEDICAL PRACTICE,1.012662,51.340885
94909.9100000001,EARLS BARTON MEDICAL CENTRE,-0.758162,52.264648
29798.01,GREAT HOLLANDS PRACTICE,-0.770726,51.398661
10517.82,CGL READING,-0.981474,51.453788
148140.05,VEOR SURGERY,-5.299615,50.209958
34348.27,HEATHWAY MEDICAL CENTRE,0.152111,51.535187
29745.81,BIRTLE VIEW MEDICAL PRACTICE,-2.2277,53.595186
1664.65,COMMUNITY DERMATOLOGY CLINIC,0.01625,51.510991
89930.0800000002,RIVER PLACE HEALTH CENTRE,-0.09656,51.540513
72516.31,MILLBROOK SURGERY  CASTLE CARY,-2.51716,51.087618
117240.48,BLACKETTS MEDICAL PRACTICE,-1.559007,54.527221
22453.67,AL-SHIFA MEDICAL CENTRE,-2.229695,53.433705
100449.38,SUN LANE,1.087469,51.071536
7778.85,TORBAY AND SOUTHERN DHCT,-3.552785,50.48778
91748.7300000001,KINGSWOOD SURGERY,-1.517051,53.991495
166432.11,CROFT MEDICAL CENTRE,-1.727743,52.477876
78203.72,KNIGHTWICK SURGERY,-2.394831,52.200399
122983.64,ST ANDREWS MEDICAL PRACTICE.,-0.17238,51.630138
113492.53,CHAPEL ROW SURGERY,-1.17086,51.425877
100500.81,BELMONT & SHERBURN MEDICAL GROUP,-1.52816,54.786148
49309.15,UEA MEDICAL CENTRE,1.241391,52.622369
136718.86,STAUNTON GROUP PRACTICE,-0.112926,51.599388
58546.1099999999,MODALITY DARLASTON PRACTICE,-2.036323,52.56617
7098.62,GPSI DERMATOLOGY SERVICE BUCKDEN HUNTS,-0.254174,52.291764
83197.16,BROCKHURST MEDICAL CENTRE,-1.15337,50.808243
71595.86,HADEN VALE SURGERY,-2.073333,52.466347
155566.58,KESTON MEDICAL PRACTICE,-0.114466,51.34074
117248.39,HEATHCOTE MEDICAL CENTRE,-0.228084,51.294799
188263.520000001,THE AVENUE MEDICAL CENTRE,-2.211676,53.533178
70292.2,DR CURRAN & PARTNERS,-0.136034,51.465148
13676.93,NCH&C COMMUNITY NURSES (WEST),0.410147,52.749129
96646.49,HAPPY HOUSE SURGERY,-1.422785,54.885012
186661.87,PRIORY FIELDS SURGERY,-0.179856,52.332272
57201.5399999999,SOUTHEND MEDICAL CENTRE,0.708516,51.540069
3435.49,EVMC DERMATOLOGY CLINIC,1.012662,51.340885
11.45,ARDEN MH ACUTE TEAM,-1.445534,52.42244
200764.89,BLACKWATER MEDICAL CENTRE,0.68095,51.728379
10154.19,WHITTINGTON HEALTH (ISLINGTON),-0.139066,51.566482
5050.62,HOMERTON NMP'S,-0.046099,51.550634
4342.95,HARROGATE OOH,-1.517573,53.993807
191733.68,TUDOR MEDICAL CENTRE,-2.136002,52.594673
133175.68,MARTONSIDE MEDICAL CENTRE,-1.220329,54.553175
61134.8900000001,THE MOORINGS MEDICAL PRACTICE,-0.095892,51.322229
160790.12,BRADSHAW MEDICAL CENTRE,-2.688594,53.537889
214213.13,COLLEGE SURGERY PARTNERSHIP,-3.392716,50.864169
142138.86,ELMS MEDICAL PRACTICE,-0.352007,51.818895
212525.63,THE RED HOUSE GROUP,-0.317147,51.68273
149851.69,MILL BANK,-2.118627,52.80489
96597.73,ST JOHNS MEDICAL CENTRE,-0.0222,51.467393
31451.48,THE CIVIC MEDICAL CENTRE,-0.337497,51.587155
36958.27,ISLIP MANOR MEDICAL CENTRE,-0.372994,51.547315
277455.620000001,LOVEMEAD GROUP PRACTICE,-2.202601,51.31857
183689.15,CROUCH OAK FAMILY PRACTICE,-0.490757,51.371507
173592.99,NORTH THORESBY SURGERY,-0.056751,53.46502
127142.52,KINGSFIELD MEDICAL CENTRE,-1.89301,52.427278
126.02,KINGSNORTH GYNAECOLOGY,0.859919,51.1207
56307.37,PARLIAMENT HILL SURGERY,-0.145468,51.555169
71.12,CARE HOME LIAISON TEAM,-2.614585,53.534922
142791.01,PARKFIELD MEDICAL CENTRE,-0.179588,51.695129
10975.03,COMMUNITY PAEDIATRICIANS,0.025373,51.395313
56874.6300000001,THE PINE MEDICAL CENTRE,-0.416838,51.527591
112608.56,BURDWOOD SURGERY,-1.244202,51.396133
21775.15,MEDIC HOUSE,0.362131,51.462932
1442.01,WIGAN & LEIGH RECOVERY TEAM,-2.512253,53.504428
94966.35,BELMONT MEDICAL CENTRE,-2.739476,52.041288
46371.16,ARDEN MEDICAL CENTRE,-1.744762,52.379799
217569.86,CASTLE PARTNERSHIP,1.298303,52.633973
3.2,GP - HAYWOOD HOSPITAL OOH,-2.191413,53.056944
112.16,COMMUNITY COPD CLINIC,-1.435213,53.333016
3489.93,HARROW DARS WDP,-0.343086,51.577963
20094.16,NEW ROAD MEDICAL CENTRE,-1.939238,52.648704
415.41,SUSSEX DOWN AND WEALD SPECIAL SCHEME,0.294614,50.773566
202324.15,SANDY LANE SURGERY,-1.937103,52.75674
53799.73,CHOLMLEY GARDENS SURGERY,-0.195423,51.552261
372.44,LOUGH OOH,-0.008582,53.37101
36674.36,MITCHLEY AVENUE SURGERY,-0.092485,51.32998
34579.7900000001,GATEACRE MEDICAL CENTRE,-2.85753,53.385435
306442.659999999,BEACON HEALTH GROUP-DANBURY MEDICAL CTR,0.587566,51.716669
184599.88,THE SUMMERHILL SURGERY,-2.171615,52.496514
39493.15,SCHOOL LANE PMS PRACTICE,0.749246,52.412444
76320.2799999999,BELLINGHAM GREEN SURGERY,-0.02426,51.430378
127667.75,BOUNDARY HOUSE MEDICAL CENTRE,-2.288936,53.415635
84679.84,HILL LANE SURGERY,-1.41571,50.915802
23131.09,AVENUE MEDICAL PRACTICE,-1.603419,54.988036
110732.22,SPRING HALL GROUP PRACTICE,-1.892899,53.721064
78468.3100000001,KINGSHOLM SURGERY,-2.239023,51.868028
187268.19,SILVERDALE MEDICAL CENTRE,-2.267264,53.015627
601.05,COMMUNITY DIABETES CLINIC,-0.419303,51.505917
197060.14,ARLINGTON ROAD SURGERY,0.277559,50.768189
171766.99,THE SHREWSBURY CENTRE,0.043312,51.540929
127586.18,LEEN VIEW SURGERY,-1.196589,52.998051
217747.23,HEATHERVIEW MEDICAL CTR.,-1.913033,50.739773
1633.51,GP EXTENDED ACCESS - HARROGATE,-1.529793,53.996354
60795.48,CONNAUGHT SQUARE PRACTICE,-0.164264,51.513974
86193.64,ABERCROMBY FAMILY PRACTICE,-2.961744,53.399032
132654.25,BRIDGE HOUSE MEDICAL CENTRE,-1.709788,52.190536
44.12,AQP ANTICOAG RIDGACRE MEDICAL CENTRE,-1.99011,52.460912
171.37,AQP ANTICOAG SOUTH DOC DOVECOTE SURGERY,-1.994863,52.464059
134015.22,CAVERSHAM GROUP PRACTICE,-0.138116,51.550467
127647.14,COUNTESTHORPE HEALTH CENTRE,-1.136767,52.554536
22848.1,THE GOLBORNE MEDICAL CENTRE,-0.206303,51.524023
26494.34,BLESSING MEDICAL CENTRE,-0.205742,51.533041
95741.3900000001,CHARNOCK HEALTH PRIMARY CARE CENTRE,-1.420724,53.342996
76188.8300000001,PARKFIELDS SURGERY,-1.432388,52.898298
677.49,THE HEATON MEDICAL PRACTICE,-1.808133,53.81642
42351.73,CHAPELTOWN FAMILY SURGERY,-1.526199,53.811432
34584.02,DR VASANTH,-2.500811,53.527489
25670.48,DR GI JONES' PRACTICE,-1.471058,53.166526
58034.8199999999,RIVERBANK MEDICAL SERVICES,-1.152629,53.207243
34956.81,HARDEN HEALTH CENTRE,-1.985958,52.608552
77585.77,HARSTON SURGERY,0.073806,52.138364
70720.0000000001,HOYLAND HOUSE,-2.194177,51.790995
48116.72,HATCH END MEDICAL CENTRE,-0.377077,51.606242
175499.5,WIBSEY & QUEENSBURY MED P,-1.779715,53.767225
13953.98,DERMATOLOGY CLINIC,-1.899142,52.505172
192624.25,JORVIK GILLYGATE PRACTICE,-1.077772,53.959168
38482.6799999999,VALLEY ROAD SURGERY,-0.119424,51.428616
38.23,EAST ALLIANCE NMPS (SANDY HILL LANE),1.162902,52.037279
118690.76,CHATSWORTH ROAD MEDICAL CENTRE,-1.467337,53.231374
40.5,COMMUNITY PHYSIOTHERAPY SERVICES,-1.214805,54.551755
155553.72,PRESTON GROVE MEDICAL CENTRE  YEOVIL,-2.644279,50.94185
52.48,MAPPERLEY PARK MEDICAL CENTRE,-1.146455,52.96828
0.84,HMP NOTTINGHAM,-1.155058,52.984531
252439.49,NORTH CLACTON MEDICAL PRACTICE,1.162631,51.818131
128459.22,FINCHAMPSTEAD PRACTICE,-0.858066,51.375104
118352.44,SHERBURN GROUP PRACTICE,-1.253519,53.798594
62274.61,BOURN SURGERY,-0.063404,52.193155
93.98,WORKING AGE ADULTS - STONEBOW UNIT,-2.705709,52.057013
88541.1300000002,DR BHATE SURGERY,-1.37324,54.905516
138790.04,OSMASTON SURGERY,-1.467954,52.911084
189265.819999999,BISHOPS WALTHAM SURGERY,-1.212149,50.95528
144539.96,BROOK SQUARE SURGERY,-0.409328,54.281789
655.37,DCHS BEDS WITH CARE,-1.441882,53.221288
45365.1599999999,BORSTAL VILLAGE SURGERY,0.482446,51.372102
86473.47,BROOK MEDICAL CENTRE,-0.803796,52.255823
38341.37,THE MARSHSIDE SURGERY,-2.963125,53.671433
33941.78,CITY OF COVENTRY HEALTH CENTRE,-1.508005,52.413401
58141.91,ULLAH M,-2.595925,53.522279
102573.18,ST.MARY'S MEDICAL CENTRE,0.497526,51.397836
3674.79,RBWM DAAT,-0.711361,51.522098
29525.43,WALSALL WOOD HEALTH CENTRE,-1.927755,52.629621
123650.7,MADELEY PRACTICE,-2.345126,52.999856
1095.35,THE SHELDON PRACTICE,-0.215603,51.555924
10.94,HEALTH INCLUSION TEAM,-1.435213,53.333016
91030.2800000001,SHADBOLT PARK HOUSE SURG,-0.252507,51.376451
27.19,STELLAR HEALTHCARE ORTHOPAEDICS,0.12393,51.704295
218526.44,HILDENBOROUGH MEDICAL GROUP,0.243873,51.215118
11151.22,THE MATTHEWMAN PRACTICE,-0.149281,51.545823
52182.07,CHURCH LANE - KHAN,-1.793962,52.487056
100234.23,DEVON SQUARE SURGERY,-3.60508,50.529985
67753.66,UPWELL STREET SURGERY,-1.434724,53.406424
275628.88,EAST LINDSEY MEDICAL GROUP,0.002264,53.362241
117130.82,MATTISHALL SURGERY,1.034195,52.658795
7564.55,ROTHERHAM HOSPICE,-1.340784,53.424046
310362.37,ASHFORD MEDICAL PARTNERSHIP,0.898839,51.136741
240.67,BMI BEARDWOOD HOSPITAL,-2.513177,53.755038
138843.08,LOW MOOR SURGERY,-1.769897,53.75385
81645.26,ST ELIZABETH'S MEDICAL CENTRE (JA WOOD),-1.061189,52.648257
94238.43,PENNINE DRIVE PRACTICE,-0.208882,51.568477
100534.87,THE CEDARS SURGERY,-0.72004,51.52561
147595.59,LONGTON HEALTH CENTRE,-2.780194,53.727756
75414.59,OWLTHORPE MEDICAL CENTRE,-1.375862,53.33869
92211.8400000001,ST ANDREWS HEALTH CENTRE,-0.014302,51.523949
141132.97,WONERSH SURGERY,-0.545609,51.197393
2077.78,RAINBOW HEALTH CENTRE,-0.109304,51.395046
2318.9,WEST CAMHS - KIRKSTALL,-1.599694,53.817164
22084.37,COMMUNITY NURSE PRESCRIBERS,-0.103268,51.381027
118702.22,HOLLIES MEDICAL CENTRE,-1.494834,53.363179
49016.5,COMMUNITY HEALTH NEWHAM,-0.072273,51.516339
169249.11,GALLERIES MEDICAL PRACTICE,-1.531242,54.898814
2866.58,SUFFOLK GP FEDERATION OOH,1.164244,52.044508
66403.8800000001,GLEN ROAD MEDICAL CENTRE,0.03253,51.522221
87329.1399999999,THE WOLDS VIEW PRIMARY CARE CENTRE,-0.215754,54.086552
18.88,SEVERN HOSPICE TELFORD,-2.5145,52.714988
492.59,CPFT SPECIALIST SERVICE HUNTS,-0.207095,52.336893
120934.5,COMMUNITY HEALTH CENTRE (ZS OSAMA),-1.113421,52.632387
262.26,DERMATOLOGY GPSWI,-0.340999,51.425838
179992.39,CHURCHILL MEDICAL CENTRE,-0.018466,51.618226
49.35,NEAS DARLINGTON CCG,-1.712365,54.969713
614.94,THE PINN UNREGISTERED WIC,-0.382232,51.595076
132251.28,NAVENBY CLIFF VILLAGES SURGERY,-0.526297,53.103518
114250.6,PRINCE OF WALES GROUP SURGERY,-0.147117,51.546913
93027.35,WEST POINT MEDICAL CENTRE,-2.197586,53.445978
10.73,NELC CHILDREN'S HEALTH PROVISION,-0.071571,53.573616
267.49,BURNAGE HEALTHCARE PRACTICE,-2.200433,53.43018
164413.36,DURNFORD MEDICAL CENTRE,-2.197033,53.554038
110298.19,TRINITY MEDICAL CENTRE,-0.158437,51.437554
2308.71,HOMELESS AND VIOLENT PATIENT SERVICE,-2.238316,51.866796
162408.88,THE DICCONSON GROUP PRACTICE,-2.644891,53.549467
225744.94,TALBOT MEDICAL CENTRE,-1.908934,50.748888
9055.62,CAMDEN HEALTH IMPROVEMENT PRACTICE,-0.138243,51.528275
99577.7200000001,WHITLEY ROAD MEDICAL CENTRE,-2.2227,53.49493
891.06,LONG EATON ON DAY SERVICE,-1.272531,52.901553
182994.22,AVISFORD MEDICAL GROUP,-0.61388,50.822687
45.73,COMMUNITY TEAM ST AUSTELL,-4.772363,50.327877
180489.98,ASHVILLE MEDICAL CENTRE PMS PRACTICE,-1.4569,53.543072
19851.6,CARRFIELD MEDICAL CENTRE,-1.465061,53.358636
67319.8100000001,WALNUT TREE PRACTICE,-2.357425,51.68003
8146.02,URGENT CARE CENTRE NORTHWICK PARK HOSP,-0.322037,51.575407
28205.94,SIBFORD SURGERY,-1.479244,52.037614
206.78,R&B OA CMHT,-2.055662,52.344136
104891.47,THE GAINSBOROUGH PRACTICE,-0.73138,51.426252
219485.57,PORTISHEAD MEDICAL GROUP,-2.767318,51.482805
101160.68,HONOR OAK GROUP PRACTICE,-0.041114,51.458097
57643.38,FEATHERSTONE,-2.089566,52.645773
197230.64,STUBBINGTON MEDICAL PRACTICE,-1.215422,50.825008
4644.59,GP CARE WAKEFIELD OOH,-1.494838,53.679942
204758.9,FISHER MEDICAL CENTRE,-2.021408,53.96167
67730.11,HORNDEAN SURGERY,-0.991298,50.914995
84635.8900000002,MARKET STREET MEDICAL PRACTICE,-2.145635,53.478959
232765.52,LIBRARY HOUSE SURGERY,-2.633893,53.650664
76886.79,GOSSOPS GREEN MEDICAL CTR,-0.21648,51.107248
86758.4100000001,STROUD PRACTICE,-2.024533,52.58916
223435.21,CASTLEFIELDS HEALTH CENTRE,-2.691794,53.338807
215228.62,BLACK COUNTRY FAMILY PRACTICE,-2.071182,52.528846
143954.28,MARK STREET SURGERY,-2.144639,53.62423
63446.29,LAUNCESTON CLOSE SURGERY,-2.542488,53.183101
186446,CARITAS GENERAL PRACTICE PARTNERSHIP,-2.134599,53.395928
1677.16,COMPTON PALLIATIVE CARE TEAM,-2.172068,52.585801
81585.85,COLNE ROAD SURGERY,-2.236848,53.801226
98747.8100000001,CASTLE GARDENS SURGERY,-4.140046,50.951639
108978.93,WATERSIDE MEDICAL CENTRE,-1.529997,52.283202
300956.64,THREE CHEQUERS MEDICAL PRACTICE,-1.794625,51.071924
92383.5699999998,GANTS HILL MEDICAL CENTRE,0.064452,51.577157
8856.87,THE GATE,-1.552396,54.52991
15.54,HEALTH VISITORS,-2.095555,52.599722
95224.59,SOUTH WIGHT MEDICAL PRACTICE,-1.287022,50.587616
77269.54,HOPWOOD MEDICAL CENTRE,-2.212052,53.587143
32332.93,THORNTREE SURGERY,-1.18346,54.565208
158299.6,AIR BALLOON SURGERY,-2.531438,51.459
100512.77,MINET GREEN HEALTH PRACTICE,-0.105204,51.475715
0.94,ANTICOAGULATION GP ADVISER,-0.19711,51.363031
127079.61,KINGSNORTH MEDICAL PRACTICE,0.859919,51.1207
5779.81,GRANTHAM ADDACTION,-0.643015,52.913139
47915.75,27 BEAUMONT STREET,-1.26216,51.755081
165204.19,LANE END MEDICAL GROUP,-0.274866,51.615287
1.19,HEALTH VISITORS,-2.372621,51.358169
211684.26,LAUREL HOUSE SURGERY,-1.692825,52.636563
62849.9000000001,RADFORD MEDICAL PRACTICE (KAUR),-1.167635,52.956339
77285.84,MCKENZIE GROUP PRACTICE,-1.239266,54.660465
152020.2,BLUE DYKES SURGERY,-1.414353,53.167483
435108.570000001,ASPEN MEDICAL PRACTICE,-2.225797,51.865969
75128.1000000001,REDFERN HEALTH CENTRE,-3.769118,50.238912
8805.53,HAVERING CCG,0.179796,51.579247
358464.699999999,BEACHES MEDICAL CENTRE,1.727734,52.577124
61738.18,WOOTTON VALE HEALTHY LIVING CENTRE,-0.527951,52.093688
45282.22,HILLSIDE HOUSE SURGERY,-2.842807,53.419526
128933.04,CHURCHFIELDS MEDICAL PRACTICE,-1.180398,52.978865
71713.95,ST LAWRENCE ROAD SURGERY,-1.387829,53.180152
51291.07,MILL ROAD SURGERY,0.150585,52.197163
99018.5500000001,POTTERELLS MEDICAL CENTRE,-0.208602,51.726922
2693.12,NEWCASTLE GP IN A&E SERVICE,-1.618869,54.98022
6076.52,CAMDEN EXTENDED ACCESS SERVICE,-0.130607,51.529916
136335.01,HORTON PARK MEDICAL PRACTICE,-1.772791,53.785161
483207.199999999,ST AUSTELL HEALTH GROUP,-4.760416,50.344296
1.37,EAST CMHT,-4.053937,50.388928
237748.69,WHITBY GROUP PRACTICE,-0.62317,54.485919
17169.64,FELTON SURGERY,-1.7113,55.298652
74853.9200000001,SWARLAND AVENUE SURGERY,-1.578629,55.006365
87102.9700000001,CLAY LANE MEDICAL PRACTICE,-1.482836,52.412774
15932.51,MARILLAC HOSPITAL,0.307264,51.621757
214294.780000001,WHICKHAM COTTAGE MEDICAL CENTRE,-1.677226,54.94538
113936.44,POVEREST MEDICAL CENTRE,0.101265,51.39001
49880.39,INGLETON AVENUE SURGERY,0.104087,51.454007
1180.66,DONCASTER CENTRAL OLDER PEOPLE CMHT,-1.146558,53.497488
2655.38,MINOR SURGERY ST JAMES,-2.979084,53.398334
497.35,CONTINENCE SERVICE CGH,-2.071883,51.89212
42355.24,STUART CRESCENT HEALTH CENTRE,-0.110172,51.600434
79937.29,WAYFIELD ROAD SURGERY,0.530781,51.359826
41122.53,MATCHING GREEN SURGERY,0.481244,51.582852
48.04,ANTICOAGULATION SERVICE  NMGH,-2.229502,53.517882
28807.85,ZAIN MEDICAL CENTRE,-0.271242,51.606493
39.25,PUBLIC HEALTH SERVICES,0.020377,51.403879
101382.33,MITCHELDEAN SURGERY,-2.488369,51.865935
57843.62,WATERS EDGE MEDICAL CENTRE,-2.443972,53.192336
41622.22,BROWNLOW AT MARYBONE,-2.987806,53.411269
57965.52,NORTH LEVERTON SURGERY,-0.822245,53.332038
142554.01,WELTON FAMILY HEALTH CENTRE,-0.484843,53.306584
4.78,BARTS HEALTH NHS TRUST CHS,-0.042206,51.525048
48459.8599999999,ORRELL PARK MEDICAL CENTRE,-2.962942,53.462025
47270.37,ST ELIZABETHS CENTRE,0.089303,51.830298
907.81,CAMHS - STRATFORD,-1.7134,52.195265
121439.39,TINKERS LANE SURGERY,-1.900604,51.543578
32548.28,FAMILY DOCTORS,-1.440964,53.798248
75157.6,BRACONDALE MEDICAL CENTRE,-2.147089,53.393998
121524.53,DENTON PARK MEDICAL GROUP,-1.698725,54.993108
119894.18,BURTON CROFT SURGERY,-1.57692,53.820807
30514.28,NORHEADS LANE SURGERY,0.026739,51.314542
134636.61,THE SPINNEY MEDICAL CTR.,-2.757627,53.442443
29.95,T&G EXTENSIVIST SERVICE,-2.089243,53.488929
133846.62,HUNGERFORD MEDICAL CENTRE,-2.427003,53.09787
1918.4,WHHFT COMMUNITY NURSE PRESCRIBERS,-2.610717,53.393973
138542.97,CHURCH STREET PRACTICE,-0.459783,51.37345
66494.99,OMBERSLEY MEDICAL CENTRE,-2.229023,52.276554
71158.7199999999,MONKFIELD MEDICAL PRACTICE,-0.065978,52.218778
50152.94,IMEARY STREET PRACTICE,-1.424863,54.98753
770.36,WIGAN ASSESSMENT TEAM,-2.614585,53.534922
83512.41,THE OLD SCHOOL MEDICAL PRACTICE,-1.142404,53.916163
139851.8,SALTERS MEDICAL PRACTICE,-2.153493,52.266877
106248.55,NEWBURN SURGERY,-1.743614,54.985644
36474.46,WARLEY ROAD SURGERY,-1.993726,52.490193
33056.29,ROSEHEATH SURGERY,-2.82558,53.359024
20423.45,THE SURGERY (BROOKE ROAD),-0.070755,51.560052
123615.77,BLAKEWATER HEALTH CENTRE,-2.473916,53.76497
103616.87,ST.PAUL'S WAY MEDICAL CTR,-0.024483,51.517862
51815.88,GREAT BARFORD SURGERY,-0.351406,52.156171
106882.28,ST.AGNES SURGERY,-5.202589,50.310768
109315.46,THE WHITFIELD PRACTICE,-1.526509,53.779894
79909.22,ST MELOR HOUSE SURGERY,-1.777291,51.171219
125995.92,MEDLOCK VALE MEDICAL PRACTICE,-2.142502,53.479062
126342.58,BEDMINSTER FAMILY PRACTICE,-2.594216,51.444159
36443.73,ABBEYSLADE PMS (DR CHAND),0.107443,51.487796
358055.69,BOROUGHBURY MEDICAL CENTRE,-0.245486,52.577858
89491.9700000001,THE NAYAR PRACTICE,-1.193379,53.480824
82875.0300000001,QUAYSIDE MEDICAL PRACTICE,-2.156747,53.509855
59.58,BARTON MOSS SECURE CHILDREN'S HOME,-2.39687,53.468834
239420.75,FARNHAM ROAD PRACTICE,-0.617796,51.530427
137176,THE ELMS MEDICAL CENTRE,-2.892972,53.195093
1210.36,DERMATOLOGY CLINIC CECS,0.54113,51.879585
77.79,COASTAL HEALTH CARE WOUND CARE KIRKHAM,-2.878541,53.781939
274710.53,WELLWAY MEDICAL GROUP,-1.689718,55.169477
46162.39,WESTBURY MEDICAL CENTRE,-2.955353,52.67874
102646.67,ARTHUR MEDICAL CENTRE,-1.422636,53.001503
195912.39,IRIDIUM MEDICAL PRACTICE  RICHMOND PCC,-1.817518,52.478024
16.42,MEDWAY SECURE TRAINING CENTRE,0.49548,51.361824
67073.7099999999,SPRING GROVE MEDICAL PRACTICE,-0.345443,51.474432
22005.11,HILL TOP PRACTICE,-2.011775,52.537791
96960.7799999999,THE BLITHEHALE MED.CTR.,-0.065196,51.523775
119.92,ENT GPWSI TAVISTOCK HOSPITAL,-4.154685,50.547679
172782.53,THE KIRTON LINDSEY AND SCOTTER SURGERY,-0.594073,53.474089
11.73,RENNIE GROVE HOSPICE CARE,-0.677277,51.795192
86165.7300000001,UNITY HEALTH,-1.029922,53.950316
148225.38,WALLACE HOUSE,-0.081701,51.796317
26438.65,MONMOUTH SURGERY,-2.367579,51.383191
119965.55,WHITTINGTON MOOR SURGERY,-1.431065,53.260996
99344.0000000001,ARUNDEL SURGERY,-0.567268,50.852881
27519.15,CLAPHAM JUNCTION MEDICAL PRACTICE,-0.173908,51.465969
72202.1900000001,FOWNHOPE MEDICAL CENTRE,-2.594618,52.007664
1098,ORTHOPAEDIC & RHEUMATOLOGY,-2.431198,53.576864
27933.22,DR JEHANGIR (SH),-2.21885,53.838042
176955.96,RIVERBANK MEDICAL CENTRE,-0.735087,50.993474
96661.09,ST HILARY GROUP PRACTICE,-3.06136,53.422188
65.53,CHILD DEVELOPMENT TEAM HOUNSLOW,-0.371755,51.468263
131042.33,WYCHALL LANE SURGERY,-1.935566,52.409967
26550.16,ROWLANDS ROAD SURGERY,-1.806157,52.463271
10.81,DIABETES COMMUNITY SERVICE,-1.735746,51.554535
129785.7,DOWNING STREET GROUP PRACTICE,-0.798901,51.212905
125477.16,THE SALTSCAR SURGERY,-1.073638,54.616282
126729.09,CEDAR MEDICAL PRACTICE,-0.655287,53.570914
205896.45,PULBOROUGH MEDICAL GROUP,-0.509104,50.961138
195.69,FAIRHAVENS HOSPICE,0.67746,51.538273
96854.71,MARKET QUARTER MEDICAL PRACTICE,-1.252936,52.377534
99292.1100000002,WHITCHURCH SURGERY,-1.340372,51.230256
45.12,NT&H COMM DIAB N DDES,-1.227837,54.702398
26865.67,PIKE MEDICAL PRACTICE,-2.045643,53.517861
33325.37,WYRE FOREST COMMUNITY NURSES,-2.244954,52.387785
47884.59,FALMOUTH ROAD GROUP PRACTICE,-0.093122,51.496427
123728.17,LOCKSTOWN PRACTICE,-2.057135,52.585445
48707.07,SIMMONDLEY MEDICAL PRACTICE,-1.969041,53.43954
331026.7,THE PEARTREE PRACTICE,-1.339341,50.900324
31667.44,DR SP TALPAHEWA,-0.260303,51.616115
380136.42,TROWBRIDGE HEALTH CENTRE,-2.206779,51.325271
112434.71,THE WHITELEY SURGERY,-1.266072,50.88262
215172.87,CUMBERLAND HOUSE SURGERY,-2.12262,53.257964
88524.1600000001,SONNING COMMON HEALTH CTR,-0.982114,51.515603
1628.81,7 DAY GP SERVICE,-3.011356,53.629265
64653.21,GARSWOOD SURGERY,-2.681273,53.496386
32903.67,DR N SADDIQ'S PRACTICE,-1.605537,53.744776
69.71,MINOR INJURIES UNIT,-0.152663,52.802684
82718.47,CLOVER HEALTH CENTRE,0.068593,51.490359
77364.17,DEMONTFORT MEDICAL CENTRE,-1.938869,52.09226
70635.4600000001,CASSIO SURGERY,-0.401058,51.656689
3309.15,DERMATOLOGY GPSI DEVONPORT HC,-4.167875,50.369991
90462.9400000001,LATCHFORD MEDICAL CENTRE,-2.561658,53.381001
571.56,WEALD CLUSTER,0.277462,51.194717
2.78,HOSPITAL AT HOME,-2.897884,53.2088
67.97,BAY MEDICAL GROUP EXTENDED OOH,-2.859565,54.072841
134536.49,LONGROVE SURGERY,-0.204664,51.654244
997.95,SOUTH COTSWOLD LOCALITY NURSE PRESCRIBER,-2.176389,51.847073
94256.23,STONEBRIDGE SURGERY,-2.608242,53.827609
87946.3,PROSPECT SURGERY,-1.583343,53.681523
188508.69,FORDINGBRIDGE SURGERY,-1.793531,50.928159
40927.67,DR MAHMOOD & PARTNERS,-1.661589,53.677829
201003.88,THE PENDLE MEDICAL PARTNERSHIP,-2.144307,53.915882
101837.81,THE PHOENIX PRACTICE,-0.223569,51.587311
149717.64,OAKESWELL HEALTH CENTRE,-2.013776,52.5542
83219.2800000001,CHARLTON HOUSE MEDICAL CENTRE,-0.069309,51.595299
103598.82,SUTTON VALENCE GROUP PRACTICE,0.59403,51.211195
124628.95,KINGSWOOD SURGERY,-1.754341,51.556256
80803.9099999999,CARNON DOWNS SURGERY,-5.091905,50.22345
53155.1199999999,LONGVIEW MEDICAL CENTRE,-2.825032,53.415399
167128.39,LAVANT ROAD SURGERY,-0.781051,50.853385
188360.07,TANFIELD VIEW MEDICAL GROUP,-1.701373,54.869939
733.49,SWADLINCOTE EXTENDED ACCESS,-1.559331,52.774889
120759.33,BRIDGE LANE GROUP PRACTICE,-0.167394,51.474142
53368.96,WINTON HEALTH CENTRE,-1.876372,50.739605
54173.1000000001,BHF LUNDWOOD SURGERY,-1.438538,53.557711
4771.75,PHOENIX WALK IN CENTRE,-2.095555,52.599722
2471.28,IC24 LTD (HORSHAM & MID SUSSEX OOH),0.891514,51.129106
86589.54,PADGATE MEDICAL CENTRE,-2.556188,53.406509
24841.7,THE BEDFORD PARK SURGERY,-0.262302,51.49598
3164.79,SOUTH YORK HEART FAILURE NURSES,-1.082907,53.951837
30702.76,GARRETTS GREEN LANE SURGERY,-1.788691,52.468447
54605.79,PARK HOUSE MEDICAL CENTRE,-0.20665,51.53452
151258.12,SUTHERLAND LODGE SURGERY,0.482571,51.725662
269419.57,EASTGATE MEDICAL GROUP  HORNSEA,-0.16825,53.915277
102319.19,WESTBOURNE MEDICAL GROUP,-1.495464,54.866868
66529.62,THE HOLLIES FAMILY SURGERY,-3.061442,53.55525
1.36,NORTH LEEDS MP COMMUNITY CARE,-1.534037,53.843332
250173.04,MIRIAM PRIMARY CARE GROUP,-3.04649,53.398246
36945.46,HUNTLEY MOUNT MEDICAL CENTRE,-2.27859,53.600201
95007.38,THE ORCHARD PRACTICE,-0.303542,51.369116
120923.75,LAKENHAM SURGERY,1.296577,52.6183
34475.18,B'WATER CH CN WARRINGTON,-2.628343,53.415482
19940.93,SPECIALIST SERVICES,-1.441882,53.221288
72393.26,THE ACORN & GAUMONT HOUSE SURGERY,-0.06645,51.474157
491517.81,THE ADAM PRACTICE,-2.07822,50.757881
121622.96,NEWTOWN MEDICAL PRACTICE,-2.669697,53.538479
141912.72,MATHER AVENUE SURGERY,-2.892382,53.365377
12075.74,WESTCOTES GP SURGERY (TWO),-1.15115,52.628609
4648.12,W HANTS SW COMM DERM SERVICE,-2.455551,53.733223
157637.15,MARSH MEDICAL PRACTICE,0.143689,53.445069
158.5,HMP HEWELL,-1.986589,52.324784
23057.54,BOLTON COMMUNITY DRUG AND ALCOHOL SERV,-2.436998,53.577146
38778.34,PALMERSTON ROAD SURGERY,0.044819,51.626871
282595.45,BIRTLEY MEDICAL GROUP,-1.576441,54.891881
144446.47,TOWNHILL MEDICAL PRACTICE,-0.102825,51.290561
120905.46,DORRIDGE SURGERY,-1.752074,52.372757
95631.9700000001,THE CORINTHIAN SURGERY,-2.0815,51.906706
13826.91,BROMLEY GP ALLIANCE,-0.033209,51.405232
150149.25,RYE MEDICAL CENTRE,0.730363,50.961944
131724.35,OAKLANDS HEALTH CENTRE,-1.784282,53.577106
187207.52,HIGH STREET SURGERY,1.756043,52.482123
71714.88,FAIRMORE MEDICAL PRACTICE,-2.280663,53.70081
3414.18,BRIDGEWATER CH COMM NURSES ST HELENS,-2.527537,53.414117
54210.76,DR VICTORIA MUIR'S PRACTICE,-0.151358,51.490651
201992.03,LINDEN AVENUE MEDICAL CENTRE,-0.716133,52.397046
67465.65,ALPHA MEDICAL PRACTICE,-1.856091,52.490749
4595.11,NORTH TYNESIDE COMMUNITY SERVICE,-1.508192,55.020469
3665.13,CONSULTANT DERMATOLOGIST(SUNDERLAND),-1.447219,54.926589
148908.52,THE STREET LANE PRACTICE,-1.513393,53.843234
136563.69,VINE HOUSE HEALTH CENTRE,-0.41878,51.70477
82.73,TONBRIDGE CLUSTER,0.277462,51.194717
159131.69,NEWBURY GREEN MEDICAL PRACTICE,-2.26047,53.506995
200856.69,TAUNTON ROAD MEDICAL CENTRE,-3.001634,51.124679
169974.91,CHARNWOOD MEDICAL GROUP,-1.22117,52.774303
177320.89,DONNINGTON MEDICAL PRACTICE,-2.437109,52.715179
481.92,WEST KENT GROUP,1.118942,51.075872
133067.59,MANOR DRIVE MEDICAL CENTRE,-0.248366,51.380785
50119.12,DR NASAH & PARTNERS,0.505558,51.567734
2.49,NHS GLOUCESTERSHIRE CCG,-2.174623,51.848478
43521.39,LINKS MEDICAL PRACTICE,-2.079024,52.487973
86164.7699999999,PARK MEDICAL PRACTICE,-2.327843,53.401899
50655.1300000001,OLD TRAFFORD MEDICAL PRACTICE,-2.275745,53.458074
1208.07,CATERHAM DENE RAC,-0.085202,51.283627
127.55,HEART FAILURE SERVICE,-2.629091,53.55774
99766.4400000001,HAVEN HEALTH,1.327039,51.96536
146593.76,CASTLE MEDICAL GROUP PRACTICE,-0.415501,51.875588
146754.91,SACRISTON MEDICAL CENTRE,-1.628413,54.819683
81152.3400000001,SOUTHAM SURGERY,-1.385752,52.251212
42824.85,ADDICTIONS SERVICE,-1.607294,54.973724
119253.84,NORVIC FAMILY PRACTICE,-1.960133,52.489728
29.27,CMHT EAST,-0.066189,53.557292
168502.55,WINTERTON MEDICAL PRACTICE,-0.606876,53.652511
115595.7,STONEHAM LANE SURGERY,-1.378468,50.939305
64589.78,LILFORD PARK SURGERY,-2.511455,53.503236
232293.38,LINTONVILLE MEDICAL GROUP,-1.570274,55.183776
32971.02,BLUEBELL SURGERY,0.921899,51.916473
69971.6499999999,MANOR HOUSE SURGERY,-0.161227,51.916084
19278.88,WEST KENT DERMATOLOGY,-0.364575,50.819326
74938.94,NEW ISLINGTON MEDICAL CENTRE,-2.219472,53.4829
112042.29,SEFTON PARK MEDICAL CENTRE,-2.934843,53.393088
68707.12,LATHOM ROAD MEDICAL CENTRE,0.052675,51.538066
190693.42,THE CAXTON SURGERY,-3.051276,52.861431
13677.2,TOTTENHAM HALE MEDICAL PRACTICE,-0.058714,51.589477
192597.88,SALTERS MEADOW HEALTH CTR,-1.933023,52.68216
81816.1800000001,SURREY LODGE PRACTICE,-2.218728,53.458264
45369.2,PLEASLEY SURGERY,-1.250873,53.175809
162223.87,LYTHAM ROAD SURGERY,-2.710575,53.77784
41933.31,MILLENNIUM FAMILY PRACTICE,-1.603663,54.962972
67.62,THE RIVERS HOSPITAL,0.130457,51.807096
150188.57,PURTON SURGERY,-1.878078,51.585483
2.78,VIRGIN CARE (REDCAR & CLEVELAND),-1.071064,54.617107
72873.6099999999,BARRINGTON MEDICAL CENTRE,-2.352158,53.38672
15501.64,HALTON COMMUNITY PAEDIATRIC SERVICE,-2.719776,53.342471
41535.38,HEDNESFORD MEDICAL PRACTICE,-2.000697,52.71233
182986.96,WALDERSLADE SURGERY,-1.43772,53.499821
41721.0700000001,ABRIDGE SURGERY,0.12458,51.653631
648.15,GRANTHAM EXTENDED ACCESS K2,-0.639825,52.910073
90010.3799999999,ARTHINGTON MEDICAL CENTRE,-1.532912,53.77216
128680.38,SHIFNAL & PRIORSLEE MEDICAL PRACTICE,-2.376009,52.667675
184391.88,ASHWORTH STREET SURGERY,-2.165652,53.619565
27763.75,MFT ADULT COMMUNITY SERVICES,-2.188524,53.446352
165253.31,THE LIGHTHOUSE GROUP PRACTICE,-1.080505,50.796551
243860.790000001,TESTVALE SURGERY,-1.489898,50.919405
19.82,NORTH TYNESIDE HEALTH VISITORS,-1.510464,55.024056
170774.83,THE DOVE VALLEY PMS PRACTICE,-1.46034,53.529021
18528.84,PRIMARY CARE SEVEN DAY SERVICE,-0.059836,51.623784
173856.87,MILL ROAD SURGERY,0.896057,51.912436
116335.46,TONG MEDICAL PRACTICE,-1.716795,53.77049
145074.14,GODIVA GROUP PRACTICE,-1.482836,52.412774
121752.1,KINGSBRIDGE MEDICAL CENTRE,-2.226198,52.9927
2675.69,THE ROYAL MEWS SURGERY,-0.145223,51.498764
374.63,ASHFORD HUB,-0.472813,51.444022
44533.55,DR VARDHAN'S SURGERY,-2.447913,53.500769
104276.13,WELLS PARK PRACTICE,-0.063327,51.430508
42259.62,THE DOC'S SURGERY,-2.238064,53.476932
221787.71,HADLEIGH BOXFORD GROUP PRACTICE,0.953136,52.043021
299334.98,EAST NORFOLK MEDICAL PRACTICE,1.725527,52.619127
731.76,SCARBOROUGH EXTENDED ACCESS HUB,-0.416116,54.282229
34005.02,HANCOCKS ME,-0.412964,53.782123
155514.84,THE MILTON SURGERY,-2.949198,51.352664
66216.34,BAKERSFIELD MEDICAL CENTRE,-1.104957,52.960219
69490.8999999999,RAINFORD HEALTH CENTRE,-2.781746,53.500694
137848.99,MARCHAM RD FAMILY HEALTH CENTRE,-1.302953,51.66958
152996.21,THE LAURELS SURGERY,0.544165,51.758518
276845.9,THE CAMBRIDGE PRACTICE,-0.76565,51.254364
95920.4700000001,ROCKLEIGH COURT SURGERY,0.326872,51.63026
841.1,WIGAN RECOVERY TEAM NORTH,-2.614585,53.534922
16092.58,HARROW CCG COMMUNITY NURSES CLCH (NMP),-0.199155,51.47377
125206.3,IFIELD MEDICAL PRACTICE,-0.211874,51.121108
182,BRIMPTON HOUSE,0.699534,51.835776
76.88,PRIME ENDOSCOPY (BRISTOL),-2.601961,51.449773
162810.51,ST.STEPHENS HEALTH CENTRE,-0.031163,51.532455
50256.39,PARK ROAD MEDICAL CENTRE,-0.150952,51.363489
77714.1400000001,MANCHESTER MEDICAL,-2.23745,53.45875
191212.3,POUND HILL MEDICAL GROUP,-0.156409,51.118813
72059.52,SANDY LANE SURGERY,-1.182896,53.147091
1872.14,BEALEY COMMUNITY HOSPITAL,-2.309285,53.565754
140447.67,LANGWORTHY MEDICAL PRACTICE,-2.294771,53.489371
134287.67,THE GOODINGE GROUP PRACTICE,-0.125442,51.54825
2624.91,NEMS CBS MID NOTTS OOH,-1.233579,53.134573
190586.99,ROLLE MEDICAL PARTNERSHIP,-3.401499,50.621139
31166.56,RILLWOOD MEDICAL CENTRE,-0.835728,52.263295
58594.2,THE MANSELL ROAD PRACTICE,-0.358969,51.525654
81201.91,CONTINENCE PRESCRIPTION SERVICE,-1.162019,52.97426
180185.69,FORESTSIDE MEDICAL PRACTICE,-1.416173,50.851823
40746.53,TRINITY SURGERY,-1.650877,52.617569
149131.37,NORTHWOOD MEDICAL CENTRE,-1.932971,52.415485
75840.3399999999,AUGHTON SURGERY,-2.902089,53.543684
11444.2,WESTMINSTER DAWS,-0.132264,51.511274
75276.5200000001,CHATHAM STREET SURGERY,-0.981895,51.455924
15066.49,SLAIDBURN HEALTH CENTRE,-2.444001,53.967313
3863.51,PETERLEE PRIMARY CARE SERVICES,-1.335627,54.758287
198990.15,FEARNHEAD CROSS MED.CTR.,-2.559106,53.411071
31577.4500000001,GREENFIELD MEDICAL CENTRE,-1.855764,52.491684
31115.31,THE PROJECT SURGERY,0.020636,51.532273
34106.6,THE VALE SURGERY,-0.251817,51.506454
114.38,TOTTON HEALTH CENTRE,-1.488789,50.92065
209080.16,HAVELOCK GRANGE PRACTICE,-1.214164,54.682342
622,LOCAL PRIMARY CARE NORTH LOCALITY SPOKE,-2.467263,53.758668
37105.73,ST. LUKE'S SURGERY,-1.167635,52.956339
94792.7000000001,CRICH MEDICAL PRACTICE,-1.482573,53.084327
186300.17,CHURCH STREET PRACTICE,-2.153433,51.99229
69931.56,GUTTERIDGE MEDICAL CENTRE,-2.691248,53.769881
129388.73,KIRKHAM HEALTH CENTRE,-2.878541,53.781939
307.17,EXTENDED ACCESS PCD CONISBROUGH GROUP,-1.237653,53.482282
66821.2,DR N NAGPAL'S PRACTICE,-2.467033,53.746299
245518.55,AINTREE PARK GROUP PRACTICE,-2.967297,53.462799
129780.03,THE RYAN MEDICAL CENTRE,-2.663635,53.730399
61997.8900000001,CAREPOINT PRACTICE,-0.411552,51.604465
215189.49,FLANSHAM PARK HEALTH CENTRE,-0.629205,50.794855
19355.43,MOHANTY PRACTICE,-2.130534,53.53731
9528.62,THE LEGER CLINIC,-1.124029,53.525476
91.56,HEART FAILURE C N S BENTHAM,-1.962695,53.898015
63007.81,CHORLEYWOOD HEALTH CENTRE,-0.520415,51.654714
0.85,MUSCULO SKELETAL SERVICE,-1.494838,53.679942
295842.46,THE SWAN PRACTICE,-0.985664,52.001593
13802.95,SOLIHULL SUB MISUSE SERV,-1.737064,52.47879
91616.9700000001,KENSINGTON ROAD SURGERY,-1.532401,52.40257
89168.1400000001,TONGE FOLD HEALTH CENTRE,-2.405772,53.579119
144293.2,GUISELEY AND YEADON MEDICAL PRACTICE,-1.684131,53.865295
34399.1,HAROLD STREET MEDICAL CENTRE,-1.492871,53.393121
203072.66,SHERWOOD MEDICAL PARTNERSHIP,-1.137878,53.157488
8890,DIABETES TECHNOLOGIES,-2.705709,52.057013
517.19,NORTH COTSWOLDS IMPROVED ACCESS,-2.239997,51.862659
181394.81,CASTLE PRACTICE,-1.617531,51.256028
84142.8699999998,CARDEN SURGERY,-0.126631,50.862197
30939.33,LANCELOT MEDICAL CENTRE,-0.299498,51.552907
201455.95,ELLERGREEN MEDICAL CENTRE,-2.919309,53.445416
7263.1,COMMUNITY DERMATOLOGY SERVICE NHS H&R,0.475497,50.850706
93243.0600000003,KIDDROW MEDICAL PRACTICE,-2.288626,53.795175
161996.71,THE VINE MEDICAL CENTRE,0.514909,51.270888
128147.62,THE SYMONS MEDICAL CENTRE,-0.73892,51.522782
195198.27,HARESFIELD HOUSE SURGERY,-2.202996,52.194829
140675.93,CENTRAL SURGERY,0.147747,51.812546
70044.8600000001,QUEENHILL MEDICAL PRACTICE,-0.066791,51.34499
128099.91,GATEACRE BROW SURGERY,-2.8632,53.383291
114105.45,RED HOUSE SURGERY,0.129161,52.214906
2013.89,COMMUNITY DIABETES SERVICE,-2.842807,53.419526
76668.81,RUSH HILL SURGERY,-2.393951,51.365379
2159.06,OUT OF HOURS CENTRE,-1.842798,54.869081
69581.26,DR S PHILLIPS AND DR M PATEL PRACTICE,-0.027903,51.569142
190197.66,ST GEORGES MEDICAL CENTRE,0.762412,51.436183
74775.98,THE CHESSER SURGERY,-0.177303,51.374927
55706.31,ASHURST PRIMARY CARE,-2.772723,53.563208
44190.82,TOWN HALL SURGERY,-2.092973,53.478374
112430.65,WHITE CLIFFS MEDICAL CENTRE,1.301586,51.12422
1422.17,IPU3-8 SOUTH WARKS  WARK OP,-1.521648,52.285309
17953.87,PARTNERSHIP SOUTH,-2.109085,52.810605
4139.97,ST ANDREWS EXTENDED ACCESS HUB,-0.013843,51.523897
87711.9100000001,NORTH BEVERLEY MEDICAL CENTRE,-0.439008,53.857996
104639.28,KILLICK STREET HEALTH CENTRE,-0.119068,51.534237
73654.5199999999,THE LILYVILLE SURGERY,-0.199155,51.47377
61014.59,BURNBRAE MEDICAL PRACTICE,-0.303885,53.760383
136696.04,TOPSHAM SURGERY,-3.462097,50.683825
25570.21,FITZMAURICE (KEW),-0.283117,51.475875
64390.5200000001,ST PETER'S SURGERY,1.41893,51.362936
109786.87,THE COURTYARD SURGERY,-0.328342,51.065411
614.88,BROOMFIELD DOCTOR IN ED,0.465993,51.774654
109481.64,SHIFA SURGERY,-2.475999,53.757295
4205.62,AQP ANTICOAG QE HERITAGE BUILDING,-1.941776,52.450146
58271.1099999999,SHIPDHAM SURGERY,0.894462,52.628852
40120,OLD PARSONAGE SURGERY,0.460418,51.112785
71290.43,POPLAR PRIMARY CARE CENTRE,-1.890326,52.43631
66234.38,SPITAL SURGERY,-3.003678,53.340977
108358.95,GRAVESEND MEDICAL CENTRE,0.369986,51.443932
22080.9,THE KILLINGHOLME SURGERY,-0.260335,53.629908
139686.88,THEATRE ROYAL SURGERY,0.942383,52.683767
44135.6299999999,SOMERS TOWN MEDICAL CENTRE,-0.130607,51.529916
149631.8,THE SANDRINGHAM PRACTICE,-1.098266,53.533949
84965.4200000002,BRANSTON & HEIGHINGTON FAMILY PRACTICE,-0.467988,53.195831
104405.82,THE BORCHARDT MEDICAL CENTRE,-2.237795,53.434307
58785.4499999999,THE VILLAGE MEDICAL CTRE,-2.871986,53.374777
41650.26,DR GT HENDOW'S PRACTICE,-0.32136,53.787408
37105.64,WEST BROM P'SHIPS FOR HEALTH,-2.000605,52.517891
137434.62,ANGEL LANE SURGERY,0.362574,51.871967
188546.8,BUNGAY MEDICAL CENTRE,1.442974,52.44971
3963.92,NOTTINGHAM NHS URGENT CARE CENTRE,-1.139043,52.950139
43759.9899999999,ST MARY'S SURGERY,-2.000799,52.613174
27868.31,BROOM ROAD MEDICAL PRACTICE,-0.030275,51.369778
29613.12,ARDEN HEALTHCARE CENTRE,-1.508005,52.413401
80727.74,KIRKBY COMMUNITY PRIMARY CARE CENTRE (3),-1.248741,53.10176
60491.87,VICTORIA MEDICAL CENTRE,-1.52187,54.97385
93641.8800000001,THE RIGG-MILNER MEDICAL CENTRE,0.415644,51.48007
4845.75,SHROPSHIRE WALK IN HEALTH CENTRE,-2.738044,52.707892
53878.18,KIRKGATE SURGERY,-1.667625,53.732234
35667.92,ST CHRISTOPHER'S HOSPICE,-0.058693,51.421385
92482.54,FRIERN BARNET MEDICAL CENTRE,-0.155988,51.613267
68437.8500000001,HOLLAND PARK SURGERY,-0.194435,51.501412
125453.21,WOODVILLE SURGERY,-1.536503,52.770685
193380.81,ELMHAM SURGERY,0.943019,52.752311
102326.62,CROWN SURGERY,-2.253515,52.859415
55963.4,REGENT STREET SURGERY,-2.283616,51.744168
90012.84,JUBILEE HEALTH CENTRE,-2.01963,52.551655
250.53,OLDER AGE - BENET BUILDING,-2.754484,52.039017
9367.2,GTD HEALTHCARE PRESTON OOH,-2.706842,53.791521
133183.51,DALTON SURGERY,-3.179816,54.155917
42678.64,MAIDSTONE RD CHATHAM SURGERY,0.516708,51.361226
116856.05,SKEGBY FAMILY MEDICAL CENTRE,-1.273344,53.142337
534.77,HARROW HEALTH CIC - HAEMORRHOIDS SERVICE,-0.383747,51.594674
65246.94,THE WRITTLE SURGERY,0.426548,51.73248
187151.73,PARKBURY HOUSE SURGERY,-0.334063,51.756766
22.19,SHS GUM,-1.912127,52.279774
61140.1699999999,BUCKFASTLEIGH MEDICAL CENTRE,-3.781989,50.480934
111911.96,CITY HEALTH PRACTICE LTD,-0.306816,53.756542
70741.86,VALLEY VIEW SURGERY,-1.731903,53.806791
21854.33,COVENTRY SMS,-1.513076,52.41159
490.07,DIABETES CONSULTANTS SOUTH,-2.109085,52.810605
81373.59,DR PCL KNIGHT,0.010023,51.541412
48987.64,HORNSPIT MEDICAL CENTRE,-2.915341,53.436681
72163.21,ARRAN MEDICAL CENTRE,-1.748679,52.503867
130564.49,THE MAPLES MEDICAL CENTRE,-2.286712,53.384846
56067.65,MILTON SURGERY,0.162445,52.241924
182844.99,DR G LEES & PARTNERS,-1.593212,53.796407
227366.26,THE SHRUBBERY SURGERY,0.351088,51.433242
27235.52,SHIP STREET SURGERY,-0.141753,50.821384
39354.43,NORTON CANES SURGERY,-1.970246,52.673977
92006.0100000002,ST. LAURENCE'S MEDICAL CENTRE,-2.882285,53.475161
19071.68,SALFORD DRUG SERVICE,-2.33719,53.482572
1.19,UROLOGY-MERTON CCG,-0.210281,51.409967
137184.32,THE BRIMINGTON SURGERY,-1.395708,53.257173
62.47,WHITBY MINOR INJURIES UNIT,-0.615671,54.48445
177960.38,MAYLANDS HEALTHCARE,0.190596,51.552912
118607.89,YORKLEIGH SURGERY(CT),-2.0847,51.900132
1076.37,B&H EXTENDED HOURS SERVICE,-0.148293,50.838378
107961.53,LANTERN HEALTH-CARPENTERS PRACTICE,-0.003474,51.537165
35146.96,WALTHAM ROAD MEDICAL CENTRE,0.584106,51.373869
1341.15,COMMUNITY PAEDIATRICIAN,-0.577016,51.252277
7345.85,BURY OOH,-2.288591,53.59553
31203.9,PARROCK STREET SURGERY,0.371171,51.441238
24485.97,NEVILLE ROAD SURGERY,-0.443036,51.906419
3001.73,CWP (WEST) PHYSICAL HEALTH,-2.897884,53.2088
199.93,WEST KENT HEALTH FEDERATION,0.277462,51.194717
42173.74,CATER STREET SURGERY,-0.490495,52.119586
136025.71,WELLING MEDICAL PRACTICE,0.107972,51.460844
129.81,GP SERVICE ACCIDENT AND EMERGENCY,1.71798,52.561672
43833.08,HILL BARTON SURGERY,-3.481689,50.723363
41084.52,STACKYARD AND WOOLSTHORPE SURGERY,-0.7611,52.852515
145501.59,HEALDS ROAD SURGERY,-1.651637,53.700113
43491.1,BRADFORD MOOR PRACTICE,-1.721849,53.797834
182544.86,DR SPENCER & PARTNERS,-0.677325,52.359891
95329.6699999999,SMALLFIELD SURGERY,-0.118564,51.171722
153617.51,CHURCH STREET PRACTICE,-1.425847,51.598763
874.96,WYRE FOREST ADMISSION PREVENTION TEAM,-2.261161,52.386056
42.7,COMMUNITY TEAM STRATTON,-4.516205,50.830225
82724.77,HUMBER ROAD SURGERY,0.48396,51.747558
118323.45,PAT HMR COMMUNITY SERVICE,-2.229502,53.517882
168443.84,BALSALL COMMON & MERIDEN GROUP PRACTICE,-1.643862,52.394956
1967.56,NORTH EAST ESSEX DIABETES SERVICE,0.921899,51.916473
46.6,BCH - DIABETES AND NUTRITION SERVICES,-2.617991,51.509287
2135.72,PALLIATIVE CARE,-2.974618,53.633552
4.5,RESPIRATORY CNS (AWC),-1.962695,53.898015
275594.28,CHELMER MEDICAL PARTNERSHIP,0.459513,51.749313
45831.21,NHS EASTERN CHESHIRE CCG NMP'S,-2.12262,53.257964
6464.03,URGENT CARE CENTRE DARLINGTON OOH,-1.563733,54.530374
52381.89,DR RC RAUTRAY'S PRACTICE,-2.475521,53.752542
153645.18,CLARENDON LODGE MEDICAL CENTRE,-1.531715,52.294043
656.53,COMMUNITAS CLINICS - SUSSEX DERMATOLOGY,-0.103533,51.39729
130327.05,ORCHARD 2000 GROUP,-0.370022,53.786372
6462.73,WESTCLIFFE HEALTH INNOVATIONS ENT,-1.712131,53.823092
162125.75,GOSPORT MEDICAL CENTRE,-1.147265,50.79354
22886.38,LANGTHORNE SHARMA FAMILY PRACTICE,0.0021,51.555415
114428.25,FARMHOUSE SURGERY,-1.7595,50.736437
11960.68,UHSM COMMUNITY SERVICES,-2.25528,53.390625
15000.01,AR-RAZI MEDICAL CENTRE,-1.101204,52.623926
87144.56,TAMWORTH HOUSE MEDICAL CENTRE.,-0.146254,51.40122
7.29,VIRGIN CARE (NORTH LINCS),-0.6524,53.592365
128.7,EALING CONTRACEPTIVE & SEXUAL HEALTH,-0.31522,51.509944
115919.31,MANSFIELD MEDICAL CENTRE,-1.484577,52.405976
291.97,YATE MINOR INJURIES UNIT (MIU),-2.41621,51.540461
9294.05,ADDACTION HARTLEPOOL,-1.206132,54.684625
68489.18,BELMONT MEDICAL CENTRE,-0.385203,51.500848
110603.62,FAIRHILL MEDICAL PRACTICE,-0.282871,51.417069
7671.92,SHROPSHIRE COMMUNITY HEALTH NHS TRUST,-2.789366,52.705844
90347.74,HENLEY GREEN MEDICAL CENTRE,-1.454284,52.428369
37241.44,ADDINGTON MEDICAL PRACTICE,-0.018557,51.344382
82364.7399999999,EDEN PARK SURGERY,-0.041426,51.399335
198036.76,CASTLE PLACE PRACTICE,-3.492865,50.908884
1375.78,NORTH NORFOLK HUB 2 (BIRCHWOOD),1.38334,52.820065
87877.98,CROOKES PRACTICE,-1.502259,53.38366
162714.64,THE SIMPSON CENTRE,-0.651318,51.610791
81439.6399999999,UPTON LANE MEDICAL CENTRE,0.026394,51.5431
222056.32,MAYWOOD HEALTH CARE CENTRE,-0.693582,50.786664
115363.23,ASKERN MEDICAL PRACTICE,-1.148909,53.615496
143677.87,CAPTAIN FRENCH SURGERY,-2.748562,54.323429
3292.74,THREE VALLEY HEALTHCARE,-1.91892,53.32331
39888.65,THE NEW SURGERY,-0.660492,51.794471
125363.66,DENTON TURRET MEDICAL CENTRE,-1.686387,54.983928
54361.87,THE EUXTON MEDICAL CENTRE,-2.676836,53.669016
118526.96,FALMOUTH HEALTH CENTRE,-5.08602,50.156398
322089.970000001,MILLGATE HEALTHCARE PARTNERSHIP,-2.118464,53.455602
427.55,NEW HAYESBANK EYE CLINIC,0.882257,51.165906
5778.71,LUTHER STREET MEDICAL PRACTICE,-1.258255,51.747356
74240.67,SOUTHFIELD WAY SURGERY,-2.018733,52.658391
127236.31,NEW COURT SURGERY,-2.30878,52.113538
119659.01,WINDRUSH SURGERY,-1.343294,52.058899
95346.3700000001,DR GC CHAJED'S PRACTICE,0.465396,51.564483
9229.38,STAR SCHEME EXTENDED,-1.068807,54.599299
3.29,CHILDREN & YP DIR.,-0.017051,51.454329
79924.6400000001,NORTH SHOEBURY SURGERY,0.784481,51.542211
152071.01,SPRINGS HEALTH CENTRE,-1.265531,53.27774
21596.43,VERITAS HEALTH CENTRE,-1.481026,53.354257
104031.34,HEATH LANE MEDICAL CENTRE,-2.86384,53.188961
136554.71,CAMPINGLAND SURGERY,0.690978,52.645997
77335.0000000001,PARK VIEW SURGERY,-2.77111,54.227652
12.65,ST CATHERINE'S HOSPICE DAY THERAPY,-2.681517,53.720825
8386.87,PCT DIABETES CLINIC,-2.227616,53.010128
37806.37,AYLESTONE HEALTH CENTRE,-1.152678,52.605677
8964.74,LCHS NMP,-0.52415,53.226467
2345.05,CHOICE PLUS,-2.0815,51.906706
44406.7299999999,CHARMOUTH MEDICAL PRACTICE,-2.903858,50.738665
41966.81,THE CRESCENT MEDICAL CTR.,-0.876393,52.250449
5840.99,DERMATOLOGY SERVICES E&N,-0.222882,51.827958
46866.18,NORTON CANES HEALTH CENTRE,-1.970246,52.673977
114751.78,VILLAGE SURGERY,-1.896468,50.741178
27186.12,UNIVERSITY HEALTH CENTRE,-0.548748,53.229537
52.07,STELLAR HEALTHCARE RHEUMATOLOGY,0.12393,51.704295
1922.19,ISLINGTON PCCS,-0.091116,51.527895
125542.6,GORDON HOUSE SURGERY,-0.31522,51.509944
154915.94,FULLWELL CROSS MED. CTR.,0.083782,51.594621
133665.65,VISTA ROAD SURGERY,-2.645459,53.457808
103478.08,SANDS END HEALTH CLINIC,-0.191391,51.473128
38021.03,WELLINGTON HEALTH CENTRE,-0.171284,51.532275
207972.03,BALL TREE SURGERY,-0.338832,50.831767
247778.72,KINGFISHER FAMILY PRACTICE,-0.950634,53.325451
119025.73,ABBEY ROAD SURGERY,-0.030102,51.684417
162324.1,LONDON LANE CLINIC,0.008653,51.415223
7727.09,KCA SHARED CARE,0.520741,51.272129
238735.96,IVY COURT SURGERY,0.690221,51.068039
55074.94,THE SURGERY,-2.605295,53.024859
34970.02,DR SHARMA & PARTNERS,0.447593,51.588181
102092.82,THE OAKS MEDICAL CENTRE,-1.215186,52.928031
704.25,CPFT SPECIALIST SERVICE PETERBOROUGH,-0.319752,52.551199
200379.59,THE PARK MEDICAL PRACTICE,-2.739045,53.77018
37283.7599999999,WARRIOR SQUARE SURGERY,0.716503,51.539534
153650.92,CHOBHAM & WEST END MEDICAL PRACTICE,-0.602516,51.34981
7733.45,HP NMP'S N & S CCG,-1.143101,53.130244
79926.86,NENE VALLEY SURGERY,-0.537451,52.399796
46614.52,AILSWORTH MEDICAL CENTRE,-0.352472,52.577435
226888.35,BLOOMFIELD MEDICAL CENTRE,-3.043644,53.804417
76168.0299999999,KINGS ROAD MEDICAL CENTRE,-0.184768,51.480355
251546.23,SEVERN VALLEY MEDICAL PRACTICE,-2.235045,52.190415
159189.35,HOCKLEY FARM MED PRACT (A NANA),-1.183899,52.630898
24541.97,EAST ENFIELD PRACTICE,-0.046596,51.649065
77603.0700000001,THE AZAD PRACTICE,0.044868,51.531234
99746.9500000002,MELBOURNE PARK MEDICAL CENTRE,-1.192728,52.975767
7.45,CHCP - HESSLE  BROUGH  COTT  ANLABY,-0.429474,53.723082
188.75,BCH - THE HAVEN,-2.589454,51.466527
175139.16,THORPEWOOD MEDICAL GROUP,1.341071,52.641956
97521.4300000001,ST.HELENS MEDICAL CENTRE,-1.109209,50.698751
395.7,ADULT MENTAL HEALTH COMMUNITY,-2.041439,53.074197
46842.07,EDEN SURGERY,-1.30159,52.962668
40816.68,THE HOXTON SURGERY,-0.086829,51.533527
309.95,HALTON PRIMARY CARE DERMATOLOGY SERVICE,-2.727045,53.331865
1314.14,S. LEEDS CAMHS - PARKSIDE,-1.547737,53.771599
38501.22,DR MARKS PRACTICE,0.192379,51.572553
37136.24,BRENTFORD FAMILY PRACTICE,-0.310054,51.48676
149083.88,MANOR AND PARK GROUP PRACTICE,-1.42716,53.373705
94701.18,BIRD-IN-EYE SURGERY,0.105639,50.96595
62610.0400000001,LONGFIELD MEDICAL PRACTICE,-2.28357,53.533828
46848.35,THE HALING PARK PARTNERSHIP,-0.098109,51.357113
162.55,SOUTH CHESHIRE & VALE ROYAL PCAH,-2.531272,53.1909
42373.7000000001,DR RB KUMAR PRACTICE,0.800566,51.327757
114.56,BRETTON MEDICAL PRACTICE,-0.281891,52.590431
134356.64,HANDSWORTH MEDICAL PRACTICE,-1.383405,53.371708
106895.96,MOSBOROUGH HEALTH CENTRE,-1.364873,53.325238
54693.24,CRABBS CROSS SURGERY,-1.943704,52.281407
2055.01,GP LED DERMATOLOGY SERVICE,-0.299929,51.390825
9079.65,I HEART BARNSLEY,-1.506899,53.547954
893639.260000001,MIDLANDS MEDICAL PARTNERSHIP,-1.81313,52.519802
73274.07,THE HEALTH CARE SURGERY,-1.487911,53.42172
39.74,VIRGIN CARE (MIDDLESBROUGH),-1.235298,54.577005
77108.8900000001,HYTHE MEDICAL CENTRE SURGERY,-0.526274,51.429608
26461.73,THE LEIGH SURGERY,0.656153,51.555504
175545.57,WILLOW BANK SURGERY,-2.102853,52.97847
38.98,DMC COMMUNITY DERMATOLOGY SERVICE,0.021737,51.597442
127460.7,PARK MEDICAL CENTRE,-2.873099,53.202665
16456.98,COMMUNITY SERVICES NURSE PRESCRIBERS,-0.487256,51.892609
163098.11,THE NEW CONINGSBY SURGERY,-0.173849,53.105092
70712.81,THE STATHAM GROVE SURGERY,-0.08946,51.557463
156072.88,CROWN HOUSE SURGERY,-0.950634,53.325451
85097.5999999999,BARN SURGERY,-0.447347,50.813953
4182.76,PRIMARY CARE MANCHESTER LIMITED,-2.214292,53.489633
35119.3,CRICKLADE SURGERY,-1.85646,51.640614
63306.3800000001,WOODGATE VALLEY HEALTH CENTRE,-1.991423,52.442663
261.26,ENFIELD COMMUNITY GYNAECOLOGY SERVICE,-0.101361,51.659225
17.85,HMP PRESTON,-2.689365,53.761461
81063.4200000001,CROSS ROAD SURGERY,-2.464849,50.602187
72251.26,ST PETER'S MED CENTRE (MANSINGH & MEHRA),-1.119092,52.631036
55.26,HMR CCG HART,-2.152215,53.620446
51391.36,JRB HEALTHCARE BEECHDALE SURGERY,-1.198142,52.961504
10808.33,BARNET RECOVERY CENTRE EDGWARE WDP,-0.271242,51.606493
86.51,KCCG-CHC MT EDGECUMBE,-4.772094,50.328568
125.42,NEWMEDICA DERBY AND DERBYSHIRE,-1.282219,53.281526
134363.77,CHEETHAM HILL PRIMARY CARE CENTRE,-2.23526,53.501162
30093.38,CROSSWAYS PRACTICE,-3.023992,53.484655
49443.95,HOUNSFIELD SURGERY,-0.811033,53.183702
99638.1800000001,HADDENHAM MEDICAL CENTRE,-0.921732,51.777822
168355.65,LISTER HOUSE SURGERY,-0.227126,51.764574
2442.71,SMART DRUG & ALCOHOL SERVICES WOKINGHAM,-0.835236,51.410039
221886.05,NETTLEHAM MEDICAL PRACTICE,-0.476253,53.262865
3008.72,NORTH DEVON TRUST NMPS,-3.413654,50.729414
42435.9799999999,CUMBERLAND MEDICAL CENTRE,0.026047,51.519716
393949.279999999,THE RIDINGS MEDICAL GROUP,-0.622066,53.765218
143686.53,STANMORE HOUSE SURGERY,-2.231468,52.391138
49912.1399999999,DR BK JAISWAL'S PRACTICE,0.125595,51.538934
234613.26,THE OVER-WYRE MED.CTR.,-2.976492,53.928203
250860.42,DOCTOR LANE HEALTH CENTRE,-1.696722,53.675715
251956.61,NEWPORT PAGNELL MED.CTR.,-0.725298,52.086465
261708.6,TRAFALGAR MEDICAL GROUP PRACTICE,-1.092485,50.785331
194626.31,LONDON ROAD SURGERY,0.519034,51.613356
145.5,COMMUNITY DIABETES CLINICS,-0.356441,51.50598
212671.68,LEEDS CITY MEDICAL PRACTICE,-1.555879,53.778323
86778.46,NORTHGATE SURGERY,-1.866567,52.899272
162738.37,AMWELL SURGERY,-0.013312,51.759904
79.41,CRITICAL SUPPLY NIGHT STORE,-2.606862,53.429516
138689.83,THE VILLAGE PRACTICE,-3.014553,53.876825
41633.74,240 WEXHAM ROAD,-0.57838,51.516902
32653.07,THE JUBILEE PRACTICE,-1.003945,53.013557
616.77,TENBURY COMMUNITY HOSPITAL WARD,-2.589551,52.315401
137295.24,LONG LANE,-2.925005,53.456024
122988.82,GREYSTOKE SURGERY,-1.683424,55.171694
75817.1,KINGSTON HEALTH CENTRE,-0.304894,51.414188
152414.57,NORTH TRAFFORD GROUP PRACTICE,-2.299481,53.453882
13.63,GATESHEAD COMMUNITY HEART FAILURE TEAM,-1.580781,54.93938
104.58,N.B.PRIMARY CARE ENT SERVICE,-1.825965,52.538746
29125.51,SMS MEDICAL PRACTICE,-0.306785,51.549713
179381.2,STRATTON MEDICAL CENTRE,-4.516205,50.830225
159692.57,PARK FARM MEDICAL CENTRE,-1.495809,52.94407
130109.02,42 KINGSWAY,-3.020167,53.481011
195127.19,HELSTON MEDICAL CENTRE,-5.270081,50.099592
49018.39,BURSLEDON SURGERY,-1.317111,50.890052
50603.15,WYRESDALE ROAD SURGERY,-2.452196,53.581577
870.18,PRIMARY CARE DVT SERVICE,-2.473916,53.76497
91482.99,THE MEDICAL CENTRE,-0.476068,51.50442
207858.47,THE GLENFIELD SURGERY,-1.196305,52.655381
131363.08,TRENTSIDE MEDICAL GROUP,-1.074629,52.964659
84361.7000000002,THE NEW FOLLY SURGERY,0.384799,51.669624
380.67,WHITBY GP OOH,-1.112167,53.976819
238862.85,SWANSCOMBE HEALTH CENTRE,0.28731,51.424657
38142.45,UPPER HALLIFORD MEDICAL CENTRE,-0.43115,51.411378
116395.47,NESTON MEDICAL CENTRE,-3.064349,53.291818
52912.47,DROYLSDEN MEDICAL PRACTICE,-2.145664,53.487166
74818.76,CEDARS MEDICAL GROUP,-1.740442,54.90557
8006.34,CGL HALTON,-2.733862,53.354554
118.42,WOKING ALEXANDRA WARD,-0.556304,51.315132
36487.1,DR VM PATEL,0.228776,51.561113
45590.0800000001,UNITY SURGERY,-1.103411,52.980422
124424.68,FOREST PRACTICE,0.075235,51.654789
446.82,PALLIATIVE CARE-YORK,-1.111775,53.932164
136249.11,HOLTS HEALTH CENTRE,-2.406966,51.931555
12161.03,CAMHS,-4.112782,50.37838
5221.59,NMP SOUTHERN HEALTH (WEST HANTS),-1.530052,50.9313
68210.33,GUN LANE MEDICAL CENTRE,0.493189,51.397398
12110.66,URGENT CARE CENTRE (ERITH),0.166643,51.477113
37092.4,WESTFIELD MEDICAL CENTRE,-1.531703,53.817673
39.58,HARINGEY PALLIATIVE CARE TEAM,-0.092097,51.580625
20255.27,GOLDINGTON ROAD SURGERY,-0.456174,52.140172
27375.31,PRESTON MEDICAL CENTRE,-0.292579,51.564335
117529.55,WOODHALL SPA NEW SURGERY,-0.207041,53.153263
137763.54,THE NEW SURGERY,1.181851,51.089152
44046.2,GLENDALE MEDICAL CENTRE,-0.434503,51.490429
340263.29,FRIARSGATE PRACTICE,-1.336797,51.074249
13204.72,EHS DERMATOLOGY SERVICE,0.01426,50.873305
52320.3,VESTA ROAD SURGERY,-0.040618,51.468737
108564.48,GRAVEL HILL SURGERY,-2.185723,52.534052
5571.65,SHROPDOC OUT OF HOURS,-2.732712,52.740396
144686.32,LEACROFT MEDICAL PRACTICE,-0.196029,51.126566
112624.15,PEEL HALL MEDICAL CENTRE,-2.265017,53.379925
177699.32,TILEHURST VILLAGE SURGERY,-1.042269,51.461233
105148.4,BUDSHEAD MEDICAL PRACTICE,-4.150289,50.417443
42384.69,SOUTH SAXON HOUSE SURGERY,0.526723,50.868702
67075.77,ELTHAM PALACE PMS,0.053714,51.449946
131026.15,RIVERPORT MEDICAL PRACTICE,-0.075654,52.343316
