total_cost,name,longitude,latitude
637.56,COLVILLE HEALTH CENTRE,-0.206231,51.515837
1299.48,RICHMOND MEDICAL GROUP,-0.267239,51.465848
380.7,ARCHWAY MEDICAL CENTRE,-0.126124,51.562541
332.77,ATHENA MEDICAL CENTRE,-0.053257,51.554943
2158.84,LAKE ROAD PRACTICE,-1.078356,50.804825
1411.61,ROUNDWELL MEDICAL CENTRE,1.203795,52.648844
2701.5,ST.JAMES SURGERY,1.147433,51.787326
873.43,THE MAYFLOWER MEDICAL PRACTICE,-1.01945,53.431872
581.53,HYLTON MEDICAL GROUP,-1.414195,54.908604
1877.52,EDENFIELD ROAD SURGERY,-2.188671,53.622297
267.35,THE EXMOOR SURGERY,-0.217218,51.522362
1799.68,CLEVEDON MEDICAL CENTRE,-2.84572,51.437228
746.56,ST ALBANS SURGERY,0.133341,51.537112
652.83,COLLINGWOOD FAMILY PRACTICE,-1.903405,52.55667
1325.16,POPLAR HOUSE SURGERY,-3.03076,53.754721
1484.94,MARTON MEDICAL PRACTICE,-3.034524,53.812843
1176.74,OAKRIDGE PARK MEDICAL CENTRE,-0.777853,52.068655
411.22,THE TUDOR HOUSE MEDICAL CENTRE,-0.266689,51.564495
812.03,GRANGE STREET SURGERY,-0.335878,51.757298
1987.14,THE PARK SURGERY,1.729276,52.606218
1967.4,BIDDULPH VALLEY SURGERY,-2.178498,53.116111
189.3,THE BALAJI SURGERY  THE SPARKBROOK CHC,-1.871333,52.462659
280.62,HARLEY GROVE MEDICAL CTR.,-0.027752,51.527964
525.6,STREATFIELD HEALTH CENTRE,-0.30812,51.593812
872.79,THE LIMES SURGERY MEDICAL CENTRE,-2.114052,52.456884
364.94,STAVERTON SURGERY,-0.22584,51.544182
932.64,SPRINGWELL MEDICAL GROUP,-1.422181,54.890239
1024.17,DR WS RIDDELL'S PRACTICE,-1.223723,53.260141
937.72,VIOLET LANE MEDICAL PRACTICE,-0.107972,51.360366
866.92,PARKSIDE GROUP PRACTICE,-0.098549,51.350645
650.86,BEDFORD HILL FAMILY PRACTICE,-0.149067,51.44085
1060.54,KINGS MEDICAL CENTRE,-1.216402,54.571717
1131.73,SILVERDALE PRACTICE,-0.121708,50.952843
1605.07,PENNY'S HILL PRACTICE,-1.894499,50.801788
655.81,APPLEBY SURGERY,-1.456596,55.011193
431.07,ASHWELL MEDICAL CENTRE,-1.778612,53.803786
213.8,BARTON SURGERY,-4.088247,50.359085
8,WEST MERTON ACCESS HUB,-0.210281,51.409967
882.48,AVON VALLEY PRACTICE,-1.812104,51.294105
2170.39,THE ARMADA FAMILY PRACTICE,-2.571861,51.413438
1259.85,WOODVIEW MEDICAL CENTRE,-0.841889,52.268682
1000.06,PRINCES GARDENS SURGERY,-0.766458,51.250407
1.13,COMMUNITY NURSING,-2.372621,51.358169
1803.96,WELLFIELD HEALTH CENTRE,-2.147479,53.606581
709.92,BRAITHWAITE RD SURGERY,-2.574985,53.477412
1084.26,SEDLESCOMBE & WESTFIELD SURGERIES,0.534725,50.934129
1.16,PDS MEDICAL OOH,-3.023363,53.797158
501.35,RIVERSIDE SURGERY,0.180773,51.479567
1365.8,RIDGEWAY VIEW FAMILY PRACTICE,-1.791571,51.524175
1630.7,SCHOPWICK SURGERY,-0.299293,51.645362
2,URGENT CARE CENTRE HRCH,-0.324434,51.473648
1025.54,THE WOOTTONS SURGERY,0.437136,52.790343
398.84,THE WILLOWS MEDICAL PRACTICE,-2.309137,53.485461
437.63,STRATFORD VILLAGE SURGERY,0.006461,51.542096
397.18,MIRFIELD SURGERY,-1.776956,52.469072
605.62,COMMONWEALTH HEALTH CENTRE,0.36308,51.463166
698.51,HENDON WAY SURGERY,-0.241873,51.579182
1022.51,JUBILEE HEALTHCARE,-1.518884,52.403423
1537.84,THE ELMS MEDICAL CENTRE,0.557729,51.4201
489.05,WIGMORE MEDICAL CENTRE,0.588765,51.352272
1587.01,VICTORIA ROAD SURGERY,1.716498,52.471024
473.91,CHURCH HILL SURGERY,1.229008,52.428527
1012.3,E HARLING & KENNINGHALL MEDICAL PRACTICE,0.932279,52.43909
1550.35,WATLING MEDICAL CENTRE,-0.262021,51.603291
374.19,OXFORD ROAD MEDICAL PRACTICE,-1.603365,54.699579
340.96,DR SURYANI,-2.070174,52.552984
4848.01,CARN TO COAST HEALTH CENTRES,-5.268154,50.226222
1177.49,OLD HARLOW HEALTH CENTRE,0.134039,51.784038
2234.68,NORTHAM SURGERY,-4.215465,51.038082
455.85,KIRKDALE MEDICAL CENTRE,-2.973842,53.433523
1998.89,WEAVERS MEDICAL,-0.733538,52.401531
1640.25,LITTLEWICK MEDICAL CENTRE,-1.304838,52.966452
1555.53,ST JAMES' MEDICAL CENTRE,-2.289474,53.708959
715.53,REVEL SURGERY,-1.361421,52.41228
1.24,HMP DARTMOOR,-3.997529,50.549223
443.89,RUDGWICK MEDICAL CENTRE,-0.450643,51.090073
692.4,COACHMANS MEDICAL PRACTICE,-0.203875,51.096335
1228.07,BISHOPS CLOSE MEDICAL PRACTICE,-1.599142,54.699817
334.74,DR YADAVA N PRACTICE,0.334586,51.476703
716.88,LONG CLAWSON MEDICAL PRACTICE,-0.923909,52.839215
1347.32,ABBEY MEDICAL PRACTICE,-1.951015,52.091043
636.1,REDBURN PARK MEDICAL CENTRE,-1.474775,55.00092
550.47,THE DENSHAM SURGERY,-1.318986,54.561625
296.84,ROSERTON STREET SURGERY,-0.010049,51.498482
892.46,DR FIRTH AND PARTNERS,-0.608263,51.713308
3.5,ENFIELD COMMUNITY SERVICES,-0.084383,51.662127
1875.56,QUEENSWAY  MEDICAL CENTRE,0.714012,51.541786
509.92,BRUCE GROVE PRIMARY HEALTH CARE CTR,-0.070141,51.592004
780.56,KEATS GROVE SURGERY,-2.099546,52.614561
641.92,CRICK MEDICAL PRACTICE,-1.135861,52.343212
243.57,SILTON SURGERY,-2.315694,51.074742
717.16,FISHERGATE HILL SURGERY,-2.714363,53.754455
1444.5,APPLETREE MEDICAL PRACTICE,-1.486919,52.985104
1365.91,SOUTH LEWISHAM GROUP PRACTICE,-0.013043,51.430269
213.93,NAYAR JK,-0.368366,53.768793
218.91,SPEKE HC - DR SINGH & DR BICHA,-2.838793,53.340911
73.38,BRADFORD STUDENT HEALTH SERVICE,-1.768359,53.785323
3608.85,STANMORE MEDICAL GROUP,-0.204612,51.913274
305.35,HARTLAND SURGERY,-4.482549,50.992721
372.82,KIRPAL MEDICAL PRACTICE,-1.934945,52.503094
28.09,RICHMOND GP ALLIANCE,-0.313083,51.415592
1143.51,FARNHAM DENE MEDICAL PRACTICE,-0.777405,51.200549
233.95,THE ADDERLANE SURGERY,-1.845745,54.962605
715.25,DR BAKER & PARTNERS,0.548167,51.570733
1167.62,THE PANTON PRACTICE,-1.862595,50.72093
2307.23,CLEVELEYS GROUP PRACTICE,-3.042545,53.875111
275.82,BRAMLEY AVENUE SURGERY,-0.141707,51.323235
1432.49,THE WEARDALE PRACTICE,-2.002656,54.746005
554.98,LEA ROAD MEDICAL PRACTICE,-2.140864,52.575971
281.73,THE ROBINS SURGERY  HAROLD HILL HEALTH C,0.224895,51.606266
383.35,THE CEDAR PRACTICE,-0.093757,51.568531
188.11,BOLEYN ROAD PRACTICE,0.031124,51.538882
1737.71,DMC ST MARYS ISLAND SURGERY,0.538105,51.406776
2324.67,TAMAR VALLEY HEALTH,-4.320073,50.503476
484,THE ROEHAMPTON SURGERY,-0.242431,51.451154
787.79,ROYAL CRESCENT,-2.078966,51.900098
921.71,CHURCHWOOD MEDICAL PRACTICE,0.539934,50.878228
452.44,AKSYR MEDICAL PRACTICE,-0.263604,51.542472
598.15,NEWNHAM WALK SURGERY,0.110503,52.199281
1096.37,MARKET SURGERY,1.253177,52.791348
879.21,THE MEDICAL CENTRE BUNTINGFORD,-0.02183,51.949019
1298,PARK LANE SURGERY,-0.021245,51.746514
336.33,COVENT GARDEN MEDICAL CENTRE,-0.123689,51.515564
28.55,NEAS NORTH TYNESIDE CCG,-1.712365,54.969713
173.33,WINDSOR MEDICAL CENTRE,-1.622157,53.693875
635.42,THE VILLAGE MEDICAL CENTRE,-0.647436,51.51295
781.31,WHITBURN SURGERY,-1.364667,54.952795
1825.71,ABBEY SURGERY,-4.150401,50.546904
0.7,URGENT CARE CENTRE (NELFT),0.002638,51.578831
824.61,HAMPSTEAD GROUP PRACTICE,-0.163076,51.553171
19.6,CITY REACH HEALTH SERVICES,1.288137,52.633042
3.02,EAST LANCS MEDICAL SERVICE OOH,-2.442698,53.747769
827.9,NEW FOREST MEDICAL GROUP,-1.576665,50.81471
508.04,DISTINGTON SURGERY,-3.541351,54.595305
1808.74,ROSEDALE SURGERY,1.705996,52.457187
666.9,DRS RAJCHOLAN & GEORGE,-2.057836,52.613672
328.83,GREEN LANE  GOODMAYES MEDICAL PRACTICE,0.113559,51.563316
1025.74,NORTHBROOK HEALTH CENTRE,-1.821273,52.419657
1089.12,GORTON MEDICAL CENTRE,-2.171985,53.463168
470.78,YEADING MEDICAL CENTRE,-0.397019,51.533634
2388.78,BEESTON VILLAGE SURGERY,-1.569152,53.772415
433.08,MATLOCK ROAD SURGERY,-0.157915,50.843638
982.71,WATERFRONT AND SOLENT SURGERY,-1.403379,50.870013
397.68,GARSTON FAMILY HEALTH CENTRE,-2.89683,53.353909
490.56,NORTHERN MOOR MEDICAL PRACTICE,-2.285109,53.408049
738.24,EMERSONS GREEN MEDICAL CENTRE,-2.477023,51.492762
1611.06,THE GREEN HOUSE SURGERY,-1.068807,54.599299
264.47,BATTERSEA RISE GROUP PRACTICE,-0.163474,51.460833
1997.33,DRAYTON MEDICAL PRACTICE,1.226086,52.679249
342.47,HAVERFIELD SURGERY,-0.449803,51.711933
2,CRI ATLANTIC HOUSE,-2.115194,52.462489
593.52,GLOUCESTER HEALTH ACCESS CENTRE,-2.239997,51.862659
2036.65,ST STEPHENS GATE MEDICAL PARTNERSHIP,1.286835,52.623967
1442.68,MARKET CROSS SURGERY,0.510146,52.343506
2286.54,STOCKPORT MEDICAL GROUP,-2.177788,53.402873
717.56,EMPINGHAM MEDICAL CENTRE,-0.593784,52.667718
790.4,FOSSE MEDICAL CENTRE (GK SHARMA),-1.152153,52.636707
793.53,FARROW MEDICAL CENTRE,-1.74312,53.802511
2012.78,THE HAYMARKET HEALTH CTR,-2.211781,53.060343
96.78,CHARLOTTE STREET SURGERY,-2.424635,53.592518
766.16,SHERBOURNE MEDICAL CENTRE,-1.532618,52.29289
985.74,CHURCH LANGLEY MEDICAL PRACTICE,0.132734,51.767477
274.27,ELGIN CLINIC,-0.198468,51.524818
2425.35,COWES MEDICAL CENTRE,-1.302115,50.75145
1444.35,THE BRIDGE GROUP PRACTICE,-0.375759,53.787555
7.29,DUDLEY URGENT CARE CENTRE OOH,-2.118518,52.502944
818.32,PADDOCK AND LONGWOOD FAMILY PRACTICE,-1.80546,53.642119
1404.23,DYKES HALL MEDICAL CENTRE,-1.506024,53.40514
515.06,ALBION STREET SURGERY,-0.133965,50.827627
878.51,WIVENHOE SURGERY,0.961234,51.856059
735.68,BRIGSTOCK & SOUTH NORWOOD PARTNERSHIP,-0.109304,51.395046
140.04,BROOKFIELD PARK SURGERY,-0.142656,51.563724
1640.08,ALBION PLACE MEDICAL PRACTICE,0.529542,51.274206
355.62,BROADMEAD MEDICAL CENTRE,-2.58948,51.457392
20,PGPA IMPROVED ACCESS CENTRAL,-1.892899,53.721064
385.86,DR SJC CLAY'S PRACTICE,-1.216618,52.72642
774.02,WEOBLEY & STAUNTON ON WYE SURGERIES,-2.87187,52.159258
642.24,THORNTON & VALLEY PARK SURGERY,-0.120709,51.388871
803,LITTLE LONDON SURGERY,-1.979284,52.574984
504.93,MULBERRY HOUSE SURGERY,-1.402391,50.931652
2097.24,BEDLINGTONSHIRE MED.GROUP,-1.598682,55.1322
1012.34,MILLVIEW SURGERY,-1.203958,53.144123
343.74,COURT THORN SURGERY,-2.826247,54.801828
2700.82,COASTAL VILLAGES PRACTICE,1.685649,52.674686
346.46,CROSTON MEDICAL CENTRE,-2.773743,53.666146
823.17,PARK VIEW SURGERY,-0.435833,53.72979
3.58,COMMUNITY INTERMEDIATE CARE SERVICE,-2.455551,53.733223
1615.64,CORNERWAYS MEDICAL CENTRE,-2.85592,53.422901
470.19,BRENTFIELD MEDICAL CENTRE,-0.260251,51.550588
1195.59,ASHFIELD HOUSE (ANNESLEY),-1.256047,53.07651
669.94,EASTHAMPSTEAD SURGERY,-0.753965,51.405543
225.57,ACTON TOWN MEDICAL CENTRE,-0.28217,51.50246
1839.32,ST MARY'S SURGERY,0.258109,52.398364
1026.1,SOUTHVIEW MEDICAL PRACTICE,-0.559823,51.313647
679.62,SMA MEDICAL PRACTICE,-0.008594,51.571154
834.41,HUMBERSTONE MEDICAL CENTRE (IP JONES),-1.089641,52.645126
718.67,CHACEWATER HEALTH CENTRE,-5.155777,50.25596
1760.91,DR MAASSARANI & PARTNERS,-2.88656,53.495201
247.86,UPMINSTER BRIDGE SURGERY,0.235279,51.558957
408.79,DR DEVARAJA VC PRACTICE,0.44359,51.520015
1006.16,HENFIELD MEDICAL CENTRE,-0.275597,50.936107
836.77,CHEDDAR MEDICAL CENTRE,-2.775544,51.274669
928.34,BEACONSFIELD MEDICAL PRACTICE,-0.148293,50.838378
442.62,QUEENS ROAD MEDICAL CENTRE,-0.02047,51.579799
95.82,RDASH FT COMMUNITY NURSING,-1.146558,53.497488
1642.29,STENNACK SURGERY,-5.484395,50.210854
250.94,ROCHESTER ROAD SURGERY,0.390394,51.435136
121.75,MINSTER MEDICAL CENTRE,0.793061,51.415409
530.85,BROOKLANDS HEALTH CENTRE,-0.675657,52.044408
465.08,WIDDRINGTON SURGERY,-1.62051,55.240248
577.5,HARBURY SURGERY,-1.458027,52.236759
320.13,THE ALLENDALE ROAD SURGERY,-0.319827,51.551186
156.53,BEGG PRACTICE,-0.179391,51.459968
1181.33,PARKGATE SURGERY,-2.882743,53.564772
4.41,FRIMLEY PRIMARY CARE OOH,-0.742029,51.319666
0.5,LEIGH NHS WIC,-2.511455,53.503236
602.61,ALL SAINTS SURGERY,-1.644121,52.794285
493.99,KNOCKIN MEDICAL CENTRE,-2.993042,52.79343
1165.82,LIME GROVE MEDICAL CENTRE,-1.55303,53.139004
646.26,DEVONSHIRE GREEN MEDICAL CENTRE,-1.477593,53.379509
1241.71,3/LOWER BROUGHTON MEDICAL PRACTICE,-2.258808,53.49359
643.49,DR NAVIN KUMAR,0.70187,51.544989
629.23,THE MEADOWS SURGERY,-0.53774,52.399512
341.65,MAYFAIR MEDICAL CENTRE,-0.150172,51.513536
1132.52,ST LEONARDS PRACTICE,-3.522731,50.723743
1375.09,HELSBY STREET MED/CTR,-2.576324,53.39498
2765.66,BISHOPGATE MEDICAL CENTRE,-1.676211,54.659158
2166.56,WOKINGHAM MEDICAL CENTRE,-0.831068,51.411661
1443.07,HOLYCROFT SURGERY,-1.914477,53.863828
371.81,HOLBORN MEDICAL CENTRE,-0.118539,51.522233
317.23,ALVERTHORPE,-1.518486,53.685476
525.55,ROMAN ROAD HEALTH CENTRE,-2.472202,53.728431
1802.05,IVRY STREET MEDICAL PRACTICE,1.148624,52.064021
913.13,ASHLEY CENTRE SURGERY,-0.270061,51.33244
713.22,DOCTORS' SURGERY,-2.187672,53.55683
922.14,DUNCHURCH SURGERY,-1.290193,52.337874
6,ACE LTD OOH,0.296471,51.626042
40.25,THE GREENHOUSE WALK-IN,-0.055343,51.538827
1352.05,HANDFORTH HEALTH CENTRE,-2.214647,53.347874
561.38,ENDERBY MEDICAL CENTRE,-1.211488,52.587061
122.04,ABBEY MEDICAL CENTRE,-0.982406,51.453949
2.85,HOSPITAL AT HOME,-0.831575,51.410524
1798.97,THE GRANGE MEDICAL CENTRE,-1.458215,52.526837
909.98,BIRCHWOOD MEDICAL PRACTICE,-0.605376,53.215749
803.81,THE GABLES MEDICAL GROUP,-1.564429,55.140811
1214.89,THE HAMILTON PRACTICE,0.114548,51.757005
1477.66,GRAYSHOTT SURGERY,-0.745626,51.110093
1327.9,LITTLEBOROUGH GROUP PRACTICE,-2.103349,53.642995
670.34,BROWNLOW HEALTH  @ PRINCES PARK,-2.95165,53.391535
3.6,ASHLEY INTERMEDIATE CARE CTR,-2.044846,51.883772
1366.29,CENTRAL UXBRIDGE SURGERY,-0.475739,51.546229
8.2,MEDICUS HEALTH PARTNERS-GREEN STREET,-0.044502,51.657069
1072.07,PENKRIDGE MEDICAL PRACTICE,-2.118352,52.725728
2516.87,BECCLES MEDICAL CENTRE,1.562886,52.453288
4,WORKING AGE ADULTS-RIKENEL,-2.24469,51.860419
444.57,ST JAMES MEDICAL PRACTICE2,-2.097323,52.514234
0.9,THE HAMBLEDEN CLINIC,-0.089556,51.463601
498.07,GLADSTONE ROAD SURGERY,-0.608263,51.713308
1327.82,KEYWORTH MEDICAL PRACTICE,-1.093411,52.871477
565.66,KEELE PRACTICE,-2.273581,53.003262
1741.16,BRIDGNORTH MEDICAL PRACTICE,-2.422947,52.537874
877.76,BENHILL & BELMONT PRACTICE,-0.19029,51.366603
24.85,GP SERVICES - GP HUBS,-0.175734,51.240416
828.85,DATCHET HEALTH CENTRE,-0.576314,51.482057
148.85,ROOD END MEDICAL PRACTICE,-1.999691,52.494094
10,NEMS OOH,-1.146156,52.947802
6.62,BUCKS UTC & OOH,-0.771127,51.633345
803.7,TUDOR HOUSE MEDICAL PRACTICE,-1.149856,52.990599
987.1,THE ROBERT DARBISHIRE PRACTICE,-2.226177,53.454626
1065.17,WENTWORTH MEDICAL PRACTICE.,-0.187898,51.607748
377.67,DOWNSFIELD MEDICAL CENTRE,-1.77969,52.466938
1900.83,MARYPORT HEALTH SERVICES,-3.494531,54.706432
487.03,HOPWOOD HOUSE MEDICAL PRACTICE,-2.095467,53.542109
1010.5,LANE ENDS SURGERY,-2.727014,53.770173
630.63,TEMPLE FORTUNE MEDICAL GROUP,-0.197845,51.581101
425.94,LYDDEN SURGERY,1.23991,51.163193
280.86,DMC CHADWICK ROAD,-0.074257,51.467864
1078.24,MILLSTREAM MEDICAL CENTRE,-1.797547,51.071683
1206.83,HELSBY HEALTH CENTRE,-2.770522,53.270467
453.95,DR AP KUMAR,-0.05904,53.573513
759.49,COMMONFIELD RD SURGERY,-3.086369,53.370187
323.52,STATION SURGERY,-2.690615,53.698033
1578.11,APPLETON VILLAGE SURGERY,-2.729552,53.371391
921.09,CALOW AND BRIMINGTON PRACTICE,-1.396121,53.257848
741.94,FIRTH PARK SURGERY,-1.445847,53.417523
476.14,BOTOLPH BRIDGE COMMUNITY HEALTH CENTRE,-0.261557,52.562595
241.45,SPRINGFIELD MEDICAL PRACT,-1.859629,52.444953
859.63,ROCK COURT SURGERY,-2.916187,53.411597
511.48,BRIGHTON STATION HEALTH CENTRE,-0.141323,50.827937
710.28,VILLAGE SURGERY,-0.350376,51.023691
676.21,STUBLEY MEDICAL CENTRE,-1.488541,53.304986
1584.56,NEWTON HEATH MEDICAL CENTRE,-2.181199,53.500995
900.56,NORTHWAY MEDICAL CENTRE,-2.130997,52.548105
727.24,SHREEJI MEDICAL CENTRE,-0.606689,51.518363
308.17,KIYANI MEDICAL PRACTICE,0.0021,51.555415
1514.14,TONBRIDGE MEDICAL GROUP,0.275507,51.185826
735,DERBYSHIRE ROAD SOUTH SURGERY,-2.310144,53.416957
735.22,RITCHIE STREET GROUP PRACTICE,-0.107858,51.53474
970.7,CENTRAL SURGERY - SOUTHCHURCH BLVD,0.739537,51.54219
40,CAMHS - WARWICK,-1.523453,52.284798
1807.12,FOREST MEDICAL,-1.205754,53.14969
474.27,CATHERINE HOUSE SURGERY,-3.683479,50.429832
1915.87,EAST LEAKE MEDICAL GROUP,-1.177129,52.83403
923.39,PENDLE VIEW MEDICAL CTRE,-2.232263,53.826018
288.71,GREYSTONES MEDICAL CENTRE,-1.510002,53.363853
1289.19,KING EDWARD ROAD SURGERY,-0.866422,52.242766
240.45,BOUNDARY COURT SURGERY,-0.059836,51.623784
7.08,THANET INTEGRATED ACUTE RESPONSE,1.387926,51.377178
299.27,BLAYDON GP LED PRACTICE,-1.696266,54.958098
733.39,SHEERNESS HEALTH CENTRE,0.766639,51.436119
1086.56,ALCONBURY SURGERY,-0.256797,52.371699
933.77,ORCHARD SURGERY MELBOURN,0.020092,52.080651
1306.38,NUNWELL SURGERY,-2.507177,52.187931
312.19,SOMERSET FHP O,-0.369034,51.523141
2221.81,DR L FREEMAN & PARTNERS,-1.449442,53.752493
771.58,THE BASSINGHAM SURGERY,-0.636987,53.126641
852.2,LONGLEVENS SURGERY,-2.212032,51.875911
984.27,NANTWICH HEALTH CENTRE,-2.518506,53.068155
524.9,ESTOVER SURGERY,-4.0952,50.411271
1013.94,SUNNY MEED SURGERY,-0.551243,51.315439
0.43,PCH WARD,-2.077775,52.114052
654.43,SEA MILLS SURGERY,-2.649928,51.484587
515.73,THE SYMONDS GREEN HEALTH CENTRE,-0.22159,51.91302
765.86,RIDGE GREEN MEDICAL PRACTICE,-1.836242,51.567683
0.91,H&R P C SPECIAL SCHEME,0.578137,50.857944
513.67,BALMORAL GARDENS,0.547786,51.385637
2550.59,STONYHILL MEDICAL PRACTICE,-3.047383,53.781401
1979.88,FURLONG MEDICAL CENTRE,-2.208139,53.063325
174.15,THE SURGERY (BARRETTS GROVE),-0.078285,51.5522
385.96,STILLINGTON SURGERY,-1.108927,54.103615
1324.09,BARNARD CASTLE SURGERY,-1.916153,54.545708
606.31,CROSSROADS MEDICAL PRACTICE,-0.587134,53.183432
789.49,PRINCES MEDICAL CENTRE,-0.359925,53.753343
1045.59,TWYFORD SURGERY,-0.862762,51.481804
2.55,PML NEIGHBOURHOOD HUB (BANBURY),-1.349027,52.057771
270.67,HIGHTOWN VILLAGE SURGERY,-3.058369,53.530081
2652.77,BURNLEY GROUP PRACTICE,-2.238948,53.791326
1245.69,BARBOURNE HEALTH CENTRE,-2.224952,52.208752
0.91,NHS SOUTH CHESHIRE CCG NMP'S,-2.45397,53.098813
749.39,SUDBURY & ALPERTON MEDICAL CENTRE,-0.298046,51.536916
987.25,THORNS ROAD SURGERY,-2.109345,52.472042
273.76,ALDERSBROOK MEDICAL CENTRE,0.038356,51.560671
452.42,QUARRY BANK MEDICAL CENTRE,-2.102402,52.471845
3.66,NORTHUMBERLAND COMMUNITY SERVICE,-1.508192,55.020469
274.59,OLD SCHOOL SURGERY,0.535827,51.09887
321.64,GROBY SURGERY,-1.225017,52.661865
637.62,HIGH STREET MEDICAL CENTRE,-2.282777,51.747097
758.04,MEVAGISSEY SURGERY,-4.788601,50.270644
10.74,BRISDOC HEALTHCARE SERVICES OOH,-2.596274,51.428746
426.01,REGENCY SURGERY,-0.136165,50.82196
445.38,THE SLIEVE SURGERY,-1.927168,52.520008
1571.97,KING'S MEDICAL PRACTICE,-1.419613,53.700643
2305.9,EASTWOOD PRIMARY CARE CENTRE,-1.307753,53.016064
1572.8,TODMORDEN GROUP PRACTICE,-2.092159,53.713651
1149.11,THE ALMONDBURY SURGERY,-1.751311,53.631868
1145.87,MARPLE BRIDGE SURGERY,-2.053323,53.400594
1654.78,STRAND MEDICAL GROUP,-0.41094,50.818463
1146.89,THORNTON MEDICAL CENTRE,-1.576209,53.791908
533.22,CHEVELEY PARK MEDICAL CTR,-1.525818,54.7856
916.47,THE RED PRACTICE WALTON,-0.406024,51.380924
612.45,HIGH STREET SURGERY,-0.037483,51.708474
270.19,THE INGHAM SURGERY,-0.57717,53.336945
421.53,SADDLERS HEALTH CENTRE,-1.979464,52.587684
7.01,NSC BOSWORTH HUB,-1.753633,52.480569
1195.16,THE GLEN MEDICAL GROUP,-1.52187,54.97385
611.56,HILLINGDON HEALTH CENTRE,-0.448053,51.551621
1151.63,BROCKWORTH SURGERY,-2.156696,51.844575
0.85,DMC SHEPPEY-W.I. CLINIC,0.793061,51.415409
543.28,GRANGE ROAD MEDICAL PRACTICE,-1.763413,54.972384
1825.3,WESTERHOPE MEDICAL GROUP,-1.686811,54.997777
26.62,MODALITY AWC EXTENDED ACCESS,-1.889371,53.858954
521.2,BROUGHTON HOUSE SURGERY,-1.636312,53.713801
920.6,WESTCROFT HEALTH CENTRE,-0.795699,52.006367
1471.4,THE WALL HOUSE SURGERY,-0.208192,51.241304
1579.71,THE DUNSTAN PARTNERSHIP,-2.384279,53.582354
1173.82,ODIHAM HEALTH CENTRE,-0.94103,51.254544
31.27,SHAKESPEARE WIC,-1.525196,53.802098
461.79,CENTRAL CLINIC,-2.075775,52.507977
445.62,ROYAL ARSENAL MEDICAL CENTRE,0.073476,51.493492
1546.97,HEACHAM GROUP PRACTICE,0.491184,52.90988
971.99,OLD ROAD WEST SURGERY,0.367195,51.433655
1465.87,LONG CATLIS ROAD SURGERY,0.595579,51.348325
2424.95,THE GRANGE MEDICAL CENTRE,-1.354248,53.611836
884.18,CHASE CROSS MEDICAL CENTRE,0.164796,51.600118
5613.43,PRIORY MEDICAL GROUP,-1.129435,53.949388
2.68,DODDINGTON LUCS,0.058102,52.497587
974.99,BEECHWOOD SURGERY,0.292731,51.608567
1009.74,ST GEORGE'S MEDICAL CENTRE,-2.189031,53.509666
417.29,YORK ROAD SURGERY,-1.348576,53.435091
2355.37,SOUTH GRANGE MEDICAL GROUP PRACTICE,-1.166506,54.569955
372.21,ASHCROFT SURGERY,-0.71666,51.898041
2357.42,WESTBOURNE MEDICAL CENTRE,-1.90343,50.723515
1251.07,EAST BARNET HEALTH CENTRE,-0.166424,51.646339
2041.55,LITCHDON MEDICAL CENTRE,-4.041711,51.069586
241.01,OPEN DOOR,-0.068703,53.572249
2109.87,SALFORD PRIMARY CARE TOGETHER,-2.423902,53.529872
405.46,GROVE HILL MEDICAL CENTRE,-0.457357,51.772315
332.34,HOUNSLOW FAMILY PRACTICE,-0.366799,51.471773
164.98,HILLTOP MEDICAL PRACTICE,-0.263604,51.542472
1321.46,FRIARY HOUSE SURGERY,-4.128292,50.37266
1497.35,MYTHE MEDICAL PRACTICE,-2.153433,51.99229
3669.87,WILLIAM BROWN CENTRE,-1.33142,54.757994
340.95,UNIVERSITY HEALTH SERVICE HEALTH CENTRE,-1.482709,53.380323
1559.15,HT PRACTICE,-2.110496,53.478305
524.27,BARNT GREEN SURGERY,-1.991028,52.35999
736.51,NEASDEN MEDICAL CENTRE,-0.247382,51.559667
567.37,LANGLEY MEDICAL PRACTICE,-0.299929,51.390825
1667.55,BILLINGSHURST SURGERY,-0.445798,51.024981
855.83,DROYLSDEN RD FAMILY PRACTICE,-2.175662,53.499916
829.86,GADE SURGERY,-0.481406,51.636736
596.92,FERRY ROAD HEALTH CENTRE,0.728076,50.951404
1379.22,SPRING HOUSE SURGERY,-2.463553,53.588374
1239.29,WELL CLOSE MEDICAL GROUP,-2.006127,55.772458
885.47,PROSPECT SURGERY,-1.235397,54.575047
6,BEECHCARE & PGU,0.25484,51.420223
706.33,THE TOLLERFORD PRACTICE,-2.571586,50.778924
863,DENMARK ROAD MEDICAL CENTRE,-1.876102,50.747031
764.66,WEST GREEN ROAD SURGERY,-0.092209,51.58587
1457.28,SPINNEY BROOK MEDICAL CENTRE,-0.614041,52.32438
825.83,EVERSLEY MEDICAL CENTRE,-0.111913,51.388514
566.23,LANGSTONE WAY SURGERY,-0.210815,51.606981
2393.29,BEECH HILL MEDICAL PRACTICE,-2.644352,53.555654
798.87,BELLEVUE MEDICAL CENTRE,-1.900852,52.465393
444.76,ILKESTON HEALTH CENTRE,-1.308041,52.968251
173.42,ALEXANDRA MEDICAL CENTRE,-2.063026,52.454036
2223.92,THE ARNEWOOD PRACTICE MILTON MEDICAL CEN,-1.657992,50.756444
642.8,KENNETH MACRAE MED CENTRE,-2.786435,53.49903
434.94,STANLEY CORNER MEDICAL CENTRE,-0.296619,51.544251
4.29,BROOKLANDS,-1.744102,52.4712
470.89,SOUTH NORWOOD HILL MEDICAL CENTRE,-0.080772,51.403169
496.4,GREENWICH PENINSULA,0.012038,51.493258
2122.47,FROME MEDICAL CENTRE,-2.311568,51.237318
1687.18,ROYAL MANOR HEALTH CARE,-2.437275,50.544008
2160.95,EXCEL PRIMARY CARE,-2.758901,53.538343
2106.92,BARTON SURGERY,-3.473818,50.579848
734.4,BAMPTON SURGERY,-1.55034,51.729032
29.31,HASTINGS AND ROTHER OOH,0.891514,51.129106
276.4,SCOTT PARK SURGERY,0.669733,51.571078
1717.07,WITTON MEDICAL CENTRE,-2.507553,53.740232
404.94,THE PRACTICE ALBERT ROAD,0.053108,51.501557
8.79,COMMUNITY CARDIOLOGY SERVICE,0.15356,51.455555
1516.71,CORNERSTONE PRACTICE,0.091322,52.548858
4,KINGSTON PRIMARY CARE EXTENDED SERVICE,-0.304894,51.414188
629.43,THE CHURCH VIEW PRACTICE,0.609995,51.363412
1362.21,HAYDOCK MEDICAL CENTRE,-2.656554,53.468334
0.84,COMMUNITY MATRONS,-2.095555,52.599722
1728.16,THE OAKS MEDICAL CENTRE,-1.895827,52.552454
1855.36,EAST NORWICH MEDICAL PARTNERSHIP,1.337135,52.637255
3839.09,TOWER FAMILY HEALTHCARE,-2.341432,53.614725
643.21,THE MILLER PRACTICE,-0.092165,51.551419
910.11,DRUID GROUP,-1.942009,52.486277
903.75,FRONT STREET SURGERY,-1.126923,53.954403
80.75,FULHAM CROSS MEDICAL CENTRE,-0.214067,51.482774
64.83,GREAT HARWOOD SURGERY,-2.414211,53.768459
1419.16,CASTLECROFT MEDICAL PRACTICE,-2.189808,52.57877
1014.35,BRIERCLIFFE SURGERY,-2.212859,53.810388
2090.45,THATCHAM HEALTH CENTRE,-1.262387,51.404018
948.13,WATLINGTON MEDICAL CENTRE,0.391163,52.666799
681.25,THE ROSEBERRY PRACTICE,-1.292215,54.611726
1327.22,ASPULL SURGERY,-2.586036,53.569599
1329.05,GRESLEYDALE HEALTHCARE CENTRE,-1.576841,52.760758
936.19,WINCOBANK MEDICAL CENTRE,-1.416316,53.419405
528.74,THE WRAGBY SURGERY,-0.301337,53.287948
536.53,ROYAL DOCKS MEDICAL PRACTICE,0.062932,51.50946
294.42,ALVELEY MEDICAL PRACTICE,-2.353309,52.454738
101.67,ST WERBURGH'S MEDICAL PRACTICE HOMELESS,-2.890684,53.194463
1734.49,LISTER MEDICAL CENTRE,0.090365,51.754515
1460.89,STURRY SURGERY,1.130308,51.304473
1675.65,PUTNOE MEDICAL CENTRE PARTNERSHIP,-0.438308,52.147939
674.18,BURVILL HOUSE SURGERY,-0.22721,51.761302
547.18,PRIORS FIELD SURGERY,0.124169,52.388951
2013.16,AXMINSTER MEDICAL PRACTICE,-2.999226,50.780899
1471.27,CENTRAL PARK MEDICAL CENTRE,-3.045864,53.415672
376.53,MALTHOUSE MEADOWS SURGERY,-2.568038,50.668698
907.7,THE SPRINGFIELD SURGERY (BINGLEY),-1.827829,53.846937
426.23,HOOK SURGERY,-0.312059,51.359148
858.69,BHARANI MEDICAL CENTRE,-0.647828,51.520652
867.65,DR LONGFIELD AND PARTNERS,-0.759425,52.997585
0.94,IC24-CANTERBURY CCG-OOH,0.891514,51.129106
1497.73,SANDY LANE SURGERY,-2.694715,53.689488
272.44,HATTON MEDICAL PRACTICE,-0.433285,51.457879
281.91,BECKETT HOUSE PRACTICE,-0.123521,51.469491
211.33,HINDON SURGERY,-2.130793,51.095814
804.62,THE RANGE MEDICAL CENTRE,-2.257066,53.452309
12,MENTAL HEALTH AND WELLBEING SERVICES,-2.739882,52.745851
398.85,MARSHALLS ROAD SURGERY,-0.539225,52.344743
557.5,ARDINGLY COURT SURGERY,-0.132888,50.82118
826.34,HUNTINGDON ROAD SURGERY,0.11009,52.214035
1255.09,WICKHAM MARKET MEDICAL CENTRE,1.363674,52.151842
593.27,STRETTON MEDICAL CENTRE,-2.577017,53.339489
139.4,DR U AKBAR,-1.777945,53.803569
1188.38,WIGTON GROUP MEDICAL PRACTICE,-3.159002,54.820303
143.53,YARDLEY MEDICAL CENTRE,-1.828397,52.463189
1419.44,PENN MANOR MEDICAL PRACTICE,-2.14981,52.559823
118.19,THE PRACTICE COLLEGE ROAD,-0.539824,51.322572
1674.18,MERIDIAN SURGERY,-0.000811,50.796102
713.43,HOMESTEAD,-1.518747,53.68227
264.34,ALLENBY CLINIC,-0.376261,51.531514
12.55,BSW IUC OOH,-2.122946,51.473348
1229.5,WELLINGTON MEDICAL PRACTICE,-2.514204,52.699878
180.89,NARBOROUGH ROAD SURGERY,-1.153521,52.624383
1041.84,LAMBGATES HEALTH CENTRE,-1.970153,53.463477
6,CSS DERMATOLOGY SERVICE,-0.00105,51.620089
3282.86,THE DEEPINGS PRACTICE,-0.316194,52.683726
1050.45,MIDWAY SURGERY,-0.355421,51.733852
476.37,SOOD (THE GREEN & FIR ROAD),-0.340635,51.443826
422.94,THE LINDLEY VILLAGE SURG.,-1.82571,53.661331
705.93,HIGH OAK SURGERY,-2.13113,52.500707
360.82,WESTWOOD PRIMARY CARE CENTRE,-1.110806,53.296468
1.82,NHS FYLDE & WYRE CCG,-2.881037,53.789498
869.74,POTTERIES MEDICAL CENTRE,-2.136838,53.020074
447.08,THE OLD COLE HOUSE PRACTICE,-1.475043,52.477262
620.18,SOUTHWAY SURGERY,-4.133237,50.427678
1405.55,GUARDIAN STREET MED/CTR,-2.606297,53.391901
603.95,BRANDON STREET SURGERY,-1.122261,52.648042
1732.54,HIGH PASTURES SURGERY,-2.946534,53.519395
1229.18,PLANE TREES GROUP PRACTICE,-1.894437,53.730448
878.55,MICKLEOVER SURGERY,-1.53732,52.907481
1529.38,CROCUS MEDICAL PRACTICE,0.238729,52.025067
685.4,ASH SURGERY,1.27891,51.279887
520.76,DELTA HEALTHCARE,-0.292835,53.764281
866.02,SWANWOOD PARTNERSHIP,0.519034,51.613356
3.22,HOLYWELL AT LANGLEY HOUSE HCT,-0.391206,51.683651
607.06,BROOK GREEN MEDICAL CENTRE,-0.220945,51.495163
7.99,STORTHFIELD HOUSE,-1.332746,53.097559
1674.97,WHADDON MEDICAL CENTRE,-0.766276,52.000308
73.25,KINGS HEALTH & LINGS BROOK PRACTICE,-0.922279,52.256829
514.5,THE NEW BREWERY LANE SURG,-1.636835,53.67243
576.01,GROVE SURGERY,-0.01097,51.579197
627.79,CRESSEX HEALTH CENTRE,-0.778801,51.617114
356.17,DR SATHANANDANS PRACTICE,0.650261,51.555142
169.12,THE PRACTICE SURGERIES LTD,-0.099109,51.370492
2370.03,ST JOHNS MEDICAL CENTRE,-2.352158,53.38672
1380.72,UNDERCLIFFE SURGERY,-1.67818,53.707224
591.64,WHITBY GROUP PRACTICE SURGERY   (BLACK),-2.910629,53.26751
341.73,ST LUKE'S SURGERY,-0.0358,50.8023
801.09,DR ARORA RK,-1.997982,52.516003
867.38,ODDFELLOWS HALL & ST CLEMENTS,0.327906,51.480703
1054.58,SPINNEY SURGERY,-0.077762,52.33533
2.54,ACUTE GP REFERRAL SERVICE,-4.113684,50.41672
409.93,WARWICK ROAD SURGERY,-2.928541,54.893858
1059.02,THE PETWORTH SURGERY,-0.607135,50.983365
572.81,SLEIGHTS AND SANDSEND MEDICAL PRACTICE,-0.659645,54.452005
456.19,WIDE WAY MEDICAL CENTRE,-0.134454,51.401824
1164.95,RIVER LODGE SURGERY,0.018818,50.874836
1665.23,CLOVER GROUP PRACTICE,-1.40885,53.384843
595.22,WOODBANK SURGERY,-2.308802,53.60507
1227.09,CRUDDAS PARK SURGERY,-1.630965,54.968173
714.78,OAKHILL MEDICAL PRACTICE,-1.458311,53.305662
1756.5,PARK PRACTICE,0.277898,50.794441
879.68,HAZELDENE HOUSE SURGERY,-2.004496,52.800688
352.73,DR. MASTERTON'S SURGERY,-0.130137,51.430487
912.68,KINGS NORTON SURGERY,-1.930753,52.404588
193.3,NASEBY MEDICAL CENTRE,-1.844953,52.489175
8.43,WEST LANCS HEART FAILURE SERVICE,-2.840112,53.602357
468,YEADING COURT SURGERY,-0.40009,51.528299
375.77,PRIME PRACTICE PARTNERSHIP,0.152111,51.535187
0.43,ADULT COMMUNITY NURSING,-0.086794,51.503466
263.12,HEADSTONE ROAD SURGERY,-0.340912,51.583768
627.41,OAKLANDS SURGERY,-2.617414,50.954243
233.62,BELSIZE PRIORY MEDICAL PRACTICE (GROUP),-0.188014,51.539773
189.39,DR SKS SWEDAN,0.024864,51.550554
1418.45,CASTLE HEALTHCARE PRACTICE,-1.144908,52.930476
501.78,MONTPELIER SURGERY,-0.149079,50.827148
19.9,SOUTH SEFTON GP EXTRA SERVICE,-3.002733,53.472727
64.26,THE TOWN SURGERY,-0.378104,51.512512
706.69,EVERGREEN OAK SURGERY,-1.958467,50.723629
1257.08,DR JK MARSDEN'S PRACTICE,-0.436528,51.894968
812.24,CEDAR BROOK PRACTICE,-0.414132,51.534092
596.34,SOLWAY HEALTH SERVICES,-3.551342,54.642687
1174.18,ALMA MEDICAL CENTRE,-1.317648,54.56949
1024.73,COLLINGHAM CHURCH VIEW SURGERY,-1.408994,53.908099
370.31,INTRAHEALTH PLATT BRIDGE,-2.595925,53.522279
1565.84,MERCHISTON SURGERY,-1.749007,51.587527
319.83,THE BROOK SURGERY,-1.871333,52.462659
431.22,THE YELLOW PRACTICE,-0.406024,51.380924
773.04,BROKEN CROSS SURGERY,-2.12262,53.257964
1293.46,WARLEY MEDICAL CENTRE,-2.006757,52.468122
15.16,ROTH. NHS FT COMM. SERV,-1.358666,53.434741
305.26,GOVIND HEALTH CENTRE,-1.532784,52.400277
330.56,WILLIAM HARVEY SURGERY,0.597963,51.593347
345.78,TRI-LINKS MEDICAL PRACTICE,-1.664038,52.634849
2,OLDHAM 7 DAY ACCESS HUB3 OOH,-2.156747,53.509855
528.27,THE SURGERY FODEN STREET,-2.188242,52.997045
413.52,MAYTREES MEDICAL PRACTICE,-2.563371,51.470243
549.06,APPLEBY MEDICAL PRACTICE,-2.492993,54.578082
1497.47,CENTRAL GATESHEAD MEDICAL GROUP,-1.604307,54.956479
813,TORRIDON ROAD MEDICAL PRACTICE,-0.002112,51.44011
370.14,THE WHITE HOUSE SURGERY,0.088164,51.534004
818.7,BIRCHES HEAD MEDICAL CTR.,-2.154096,53.035667
4614.57,HAXBY GROUP PRACTICE,-1.081866,54.019329
444.89,VALE DRIVE MEDICAL PRACTICE,-0.194727,51.648828
1575.67,THE ERIC MOORE PARTNERSHIP,-2.59716,53.393404
551.16,DR DP SHAH'S PRACTICE,0.160037,51.545122
551.05,PRESCOTT SURGERY,-2.852689,52.784345
1411.71,DR AHMAD & PTNRS,-2.595925,53.522279
427.65,HORNE STREET SURGERY,-1.871717,53.725678
1134.9,CHISLEHURST MEDICAL PRACTICE,0.066938,51.419678
1226.48,THE REDWELL MEDICAL CENTRE,-0.701555,52.314792
1487.52,THE ALDERGATE MED.PRACT.,-1.695644,52.639079
2538.85,POCKLINGTON GROUP PRACTICE,-0.781336,53.924503
1218.19,LOCKFIELD SURGERY,-2.057135,52.585445
151.47,DR SOOD'S PRACTICE,-0.382386,51.483967
1645.82,MOUNT FARM SURGERY,0.742641,52.245214
1435.67,VALENTINE HEALTH PARTNERSHIP,0.061519,51.49221
697.81,DR AHMED & PARTNERS,-1.782551,53.655615
615.39,NORTH CHELMSFORD NHS HCC,0.510815,51.750584
710.66,THE OAKWOOD SURGERY,-1.073937,53.506609
2324.66,CENTRE PRACTICE,-1.17634,50.853776
857.04,MORETON HEALTH CLINIC,-3.112556,53.400453
729.02,JUBILEE STREET PRACTICE,-0.050552,51.513595
877.41,HIGH STREET MEDICAL CENTRE,-2.595495,53.47988
557.18,DERWENT MEDICAL CENTRE,-1.480751,52.929325
5.83,BARDOC GP OOH,-2.427769,53.590447
813.31,SHEEPCOT MEDICAL CENTRE,-0.412898,51.695192
936.05,DEER PARK FAMILY MEDICAL PRACTICE,-1.230829,52.949242
1627.19,THE MEDICAL CENTRE  DRIFFIELD,-0.439676,54.006257
165.9,THE NEW SURGERY,-0.235578,51.506058
517.21,LAMBETH WALK GROUP PRACTICE,-0.112591,51.495609
699.53,LEANDER ROAD SURGERY,-0.117457,51.399457
977.71,CHELSFIELD SURGERY,0.104017,51.355726
1735.59,CANFORD HEATH GROUP PRACT,-1.964765,50.741327
1841.86,YAXLEY GROUP PRACTICE,-0.251101,52.516866
560.21,BOLTON MEDICAL CENTRE,-2.431399,53.56543
17.78,CORNWALL 111 OOH,-5.097984,50.265937
781.64,TEMPLE HOUSE PRACTICE,-2.498229,51.409833
318.86,THE CRANE,0.535827,51.09887
4.37,EAST HULL FAMILY PRACTICE,-0.268619,53.77908
1892.63,MANOR HOUSE LANE SURGERY,-1.802707,52.461306
835.12,BRIDGE STREET SURGERY,-0.495121,53.551684
342.78,MELROSE SURGERY,-1.287301,54.609397
390.28,MEDICAL CENTRE CAMELFORD (DR GARROD),-4.676789,50.624027
1505.27,MACKLIN STREET SURGERY,-1.481767,52.92115
1299.96,POLDEN MEDICAL PRACTICE,-2.87579,51.150216
34.61,RUNCORN GP EXTRA,-2.727045,53.331865
1239.38,LIMES MEDICAL CENTRE,-1.387885,53.098493
3.51,BCH HEART FAILURE SERVICE,-2.55823,51.482972
1695.2,ABBEY MEADS MEDICAL PRACT,-1.792794,51.597826
1602.32,CHEVIOT ROAD SURGERY,-1.455974,50.921365
1225.98,ST NEOTS SURGERY,-4.160899,50.387979
288.34,SHEERWATER HEALTH CENTRE,-0.530722,51.334156
1455.32,LIQUORPOND SURGERY,-0.025925,52.9735
622.8,FORDINGTON SURGERY,-2.42746,50.713004
2719.63,SHAFTESBURY MEDICAL CTR.,-1.497858,53.800234
713.88,BURNSIDE SURGERY,-2.424635,53.592518
560.4,HIGHGROVE SURGERY,0.098727,51.538564
773.35,MEDICENTRE,-2.643055,53.494018
671.2,MARKET OVERTON & SOMERBY SURGERIES,-0.684769,52.739345
440.1,RICHMOND MEDICAL CENTRE,-2.384874,53.752328
934.64,TWIN OAKS MEDICAL CENTRE,-1.737739,50.781308
972.61,STONELEIGH SURGERY,-2.770704,54.227277
1104.73,WESTMINSTER MEDICAL CENTRE,-2.97836,53.44083
518.81,DESFORD MEDICAL CENTRE,-1.296116,52.627473
979.76,WILMSLOW HEALTH CENTRE,-2.237324,53.322922
1133.1,MANOR FARM MEDICAL CENTRE,0.690513,52.648544
2139.61,RAVENSWOOD MEDICAL PRACTICE,1.199377,52.030367
509.62,CHESSINGTON PARK SURGERY,-0.312059,51.359148
0.53,ASHTON  LEIGH & WIGAN OOH,-2.614585,53.534922
1011.07,DR SINHA & PARTNERS,0.100204,53.030138
649.69,ROSEWORTH SURGERY,-1.61867,55.001366
736.83,THORPE HESLEY SURGERY,-1.432602,53.458647
428.46,BANK HOUSE SURGERY,0.069949,51.359218
872.48,STATION ROAD SURGERY,0.102029,51.431445
1239.88,ADDISON HOUSE - HAQUE PRACTICE,0.088979,51.770891
471.86,CALDBECK SURGERY,-3.050622,54.749864
1217.61,AWBURN HOUSE MEDICAL PRACTICE,-2.011,53.458105
1.83,IC24-ASHFORD CCG-OOH,0.891514,51.129106
594.66,DR COLLINS AND CARRAGHER,-0.311771,52.006602
1510.5,MOUNT CHAMBERS MEDICAL PRACTICE,0.552722,51.879812
24.43,DR A K JHA (SH),-2.164492,53.856587
516.18,HOWELL SURGERY,0.398895,51.150874
28.87,SOUTHAMPTON PRIMARY CARE HUBS,-1.317099,50.913217
2,EDGWARE WIC,-0.271242,51.606493
855.53,THE MUSWELL HILL PRACTICE,-0.141215,51.59225
708.98,THE BARKANTINE PRACTICE,-0.025725,51.500806
1253.55,ABBEY ROAD SURGERY,-3.224778,54.109942
721.84,MANOR PRIMARY CARE,-2.764643,53.549695
12,7 DAY ACCESS MIDDLETON HC,-2.172588,53.54895
1559.47,CONSTABLE COUNTRY RURAL MEDICAL PRACTICE,1.026191,51.977179
1508.92,BEECH HOUSE MEDICAL PRACT,-2.118146,53.379406
1554.92,COQUET MEDICAL GROUP,-1.580504,55.332599
1645.13,WARLINGHAM GREEN MED PRAC,-0.057218,51.312278
1428.38,THE MANOR HOUSE SURGERY,-1.159231,54.557403
689.05,THE SURGERY - 48 MULGRAVE ROAD,-0.196293,51.358332
424.7,WEST TOWN SURGERY,-0.443862,53.685751
286.73,HOLLINGTON SURGERY,0.872487,51.151423
538.94,WAKE GREEN SURGERY,-1.883357,52.446103
29.4,CROYDON SOUTH & CENTRAL EXTENDED ACCESS,-0.114466,51.34074
527.26,MEDICAL CENTRE CAMELFORD (DR NASH),-4.676789,50.624027
954.97,FALLODON WAY MEDICAL CENTRE,-2.609541,51.483068
1064.3,HIGHCROFT SURGERY,-1.12882,53.00411
472.15,RIVERSIDE FAMILY PRACTICE,-2.238948,53.791326
831.2,DALTON SURGERY,-1.751038,53.644598
633.05,HOUNSLOW MEDICAL CENTRE,-0.37684,51.469395
1188.43,THE CEDARS SURGERY,0.173742,51.395873
205.5,KINCORA DOCTORS SURGERY,-0.412216,51.511666
1186.27,LARKSFIELD SURGERY MEDICAL PARTNERSHIP,-0.235113,52.017132
938.64,SPRING TERRACE HEALTH CENTRE,-1.450673,55.010941
12,MIAMI CLINIC - ST LAWRENCE SURGERY,-0.390026,50.823979
781.92,NORTHGATE VILLAGE SURGERY,-2.892972,53.195093
407.95,CROSLAND MOOR SURGERY,-1.809637,53.63841
1698.76,HARCOURT MEDICAL CENTRE,-1.800762,51.067489
3640.93,PEMBROKE MEDICAL GROUP,-3.560246,50.445527
510.94,HORNDON-ON-THE-HILL SURGERY,0.405746,51.523749
853.63,AELFGAR SURGERY,-1.937701,52.763581
1094.68,ORCHARD MEDICAL CENTRE,-2.510659,51.462087
899.17,WEST END SURGERY,-1.327291,50.928501
707.46,LAKESIDE,-2.203683,52.595468
430.79,CHURCH END MEDICAL CENTRE,-0.253241,51.54757
992.56,WILLIAM FISHER MED.CTR.,0.826913,51.662819
761.34,GREAT BRIDGE P/SHIP FOR HEALTH,-2.032577,52.528908
7.27,TORBAY NMP SPECIALIST,-3.552785,50.48778
622.74,THE REYNARD SURGERY,0.484029,52.302685
5.76,MYDDLETON ROAD SURGERY,-0.115662,51.606554
1107.62,ENDERLEY ROAD MEDICAL CENTRE,-0.340469,51.601872
1913.11,THE GRANGE GROUP PRACTICE,-1.781351,53.662292
470.23,ELIZABETH AVENUE GROUP PRACTICE,-0.091905,51.539023
557.11,ECCLES GATEWAY MEDICAL CENTRE,-2.339314,53.48253
13.86,NORTHVILLE FAMILY PRACTICE,-2.570103,51.50079
1146.25,HALESOWEN MEDICAL PRACTICE,-2.059137,52.444056
1117.38,HIGHERLAND SURGERY,-2.232632,53.009021
1548.39,FAILSWORTH GROUP PRACTICE,-2.156747,53.509855
1372.59,FELDON LANE PRACTICE,-2.028271,52.467325
533.36,DRS CHALMERS & MEIER,-0.066189,53.557292
903.77,PRICES MILL SURGERY,-2.224938,51.693801
3.71,PELC REDBRIDGE OOH,0.066648,51.55684
371.12,SAXENA L,-2.668958,53.521291
343.29,CRADLEY SURGERY,-2.402119,52.118284
2139.11,LORDSWOOD HOUSE GROUP MEDICAL PRACTICE,-1.961221,52.459054
1956.81,STOCKTON HEATH MED.CENTRE,-2.582161,53.37195
942.43,CENTRAL SURGERY,-2.74261,53.456686
572.23,CROSBY HOUSE SURGERY,-0.599437,51.517962
140.91,GLOUCESTER ROAD SURGERY,-0.183052,51.647272
1457.45,THREE VILLAGES MEDICAL PRACTICE,-2.146398,52.465406
23.19,MEDICUS HEALTH PARTNERS-MOORFIELD ROAD,-0.047082,51.660296
913.77,SWANSWELL MEDICAL CENTRE,-1.816529,52.432515
341.05,TOOTING SOUTH MEDICAL CENTRE,-0.161461,51.421738
1524.33,STAPENHILL MEDICAL CENTRE,-1.624908,52.785524
1231.38,DENMEAD HEALTH CENTRE,-1.067347,50.904386
363.98,SOUTH PARK MEDICAL PRACTICE,0.189702,51.270005
2324.74,AW SURGERIES,-2.122432,52.482313
476.1,WAYSIDE MEDICAL PRACTICE,-0.165912,51.173238
1219.61,COTSWOLD MEDICAL PRACTICE,-1.75678,51.886317
1083.4,MOUNT PLEASANT MED CENTRE,-1.637294,53.707036
268.88,THE LORDSHIP LANE SURGERY,-0.073221,51.448369
1476.54,NEASHAM ROAD SURGERY,-1.542648,54.517256
1487.21,SWINESHEAD SURGERY,-0.158921,52.940616
1556.41,KING GEORGE SURGERY,-0.206096,51.907416
515.87,MAWBEY GROUP PRACTICE,-0.125232,51.479283
735.97,THE KAKOTY PRACTICE,-1.473444,53.5464
1681.26,NEW SOUTHGATE SURGERY,-1.50415,53.692762
826.94,HALDON HOUSE SURGERY,-3.416301,50.619764
1100.07,MARKFIELD MEDICAL CENTRE,-1.272985,52.685255
1430.39,THE ROCKWELL AND WROSE PRACTICE,-1.744408,53.822997
760.35,ASHLEY SURGERY,-2.355514,52.925782
87.25,ROSSLYN HILL SURGERY,-0.170852,51.554201
327.12,CHILDS (THAMESIDE),-0.326599,51.427449
910.84,THE GROUP PRACTICE ALFRED SQUIRE ROAD,-2.080754,52.599417
648.25,DR M ASLAM'S PRACTICE,0.510532,51.57811
81.98,ACE,0.921589,51.923793
848.38,NORTHLANDS WOOD SURGERY,-0.081209,50.996531
558.62,BROOK HOUSE SURGERY,-1.445882,50.921794
1627.26,WEST ROAD SURGERY,0.70187,51.544989
4630.11,WHITSTABLE MEDICAL PRACTICE,1.012662,51.340885
955.8,EARLS BARTON MEDICAL CENTRE,-0.758162,52.264648
367.2,GREAT HOLLANDS PRACTICE,-0.770726,51.398661
1745.68,VEOR SURGERY,-5.299615,50.209958
251.11,HEATHWAY MEDICAL CENTRE,0.152111,51.535187
423.75,BIRTLE VIEW MEDICAL PRACTICE,-2.2277,53.595186
572.73,RIVER PLACE HEALTH CENTRE,-0.09656,51.540513
443.31,MILLBROOK SURGERY  CASTLE CARY,-2.51716,51.087618
1134.6,BLACKETTS MEDICAL PRACTICE,-1.559007,54.527221
268.21,AL-SHIFA MEDICAL CENTRE,-2.229695,53.433705
878.5,SUN LANE,1.087469,51.071536
1.18,TORBAY AND SOUTHERN DHCT,-3.552785,50.48778
601.41,KINGSWOOD SURGERY,-1.517051,53.991495
1555.3,CROFT MEDICAL CENTRE,-1.727743,52.477876
562.02,KNIGHTWICK SURGERY,-2.394831,52.200399
796.86,ST ANDREWS MEDICAL PRACTICE.,-0.17238,51.630138
664.94,CHAPEL ROW SURGERY,-1.17086,51.425877
1006.12,BELMONT & SHERBURN MEDICAL GROUP,-1.52816,54.786148
555.7,UEA MEDICAL CENTRE,1.241391,52.622369
963.75,STAUNTON GROUP PRACTICE,-0.112926,51.599388
431.33,MODALITY DARLASTON PRACTICE,-2.036323,52.56617
659.7,BROCKHURST MEDICAL CENTRE,-1.15337,50.808243
575.92,HADEN VALE SURGERY,-2.073333,52.466347
1445.48,KESTON MEDICAL PRACTICE,-0.114466,51.34074
875.63,HEATHCOTE MEDICAL CENTRE,-0.228084,51.294799
1546.07,THE AVENUE MEDICAL CENTRE,-2.211676,53.533178
304.67,DR CURRAN & PARTNERS,-0.136034,51.465148
1257.3,HAPPY HOUSE SURGERY,-1.422785,54.885012
1280.08,PRIORY FIELDS SURGERY,-0.179856,52.332272
463.47,SOUTHEND MEDICAL CENTRE,0.708516,51.540069
1714.79,BLACKWATER MEDICAL CENTRE,0.68095,51.728379
17.29,WHITTINGTON HEALTH (ISLINGTON),-0.139066,51.566482
6.24,HOMERTON NMP'S,-0.046099,51.550634
2.37,HARROGATE OOH,-1.517573,53.993807
1045.18,TUDOR MEDICAL CENTRE,-2.136002,52.594673
1114.02,MARTONSIDE MEDICAL CENTRE,-1.220329,54.553175
382.41,THE MOORINGS MEDICAL PRACTICE,-0.095892,51.322229
1507.51,BRADSHAW MEDICAL CENTRE,-2.688594,53.537889
2095.27,COLLEGE SURGERY PARTNERSHIP,-3.392716,50.864169
1105.03,ELMS MEDICAL PRACTICE,-0.352007,51.818895
1819.23,THE RED HOUSE GROUP,-0.317147,51.68273
1139.64,MILL BANK,-2.118627,52.80489
757.91,ST JOHNS MEDICAL CENTRE,-0.0222,51.467393
184.58,THE CIVIC MEDICAL CENTRE,-0.337497,51.587155
283.41,ISLIP MANOR MEDICAL CENTRE,-0.372994,51.547315
2395.73,LOVEMEAD GROUP PRACTICE,-2.202601,51.31857
1594.26,CROUCH OAK FAMILY PRACTICE,-0.490757,51.371507
1519.93,NORTH THORESBY SURGERY,-0.056751,53.46502
855.13,KINGSFIELD MEDICAL CENTRE,-1.89301,52.427278
419.73,PARLIAMENT HILL SURGERY,-0.145468,51.555169
1480.4,PARKFIELD MEDICAL CENTRE,-0.179588,51.695129
387.78,THE PINE MEDICAL CENTRE,-0.416838,51.527591
841.01,BURDWOOD SURGERY,-1.244202,51.396133
243.91,MEDIC HOUSE,0.362131,51.462932
4.18,WIGAN & LEIGH RECOVERY TEAM,-2.512253,53.504428
716.4,BELMONT MEDICAL CENTRE,-2.739476,52.041288
369.32,ARDEN MEDICAL CENTRE,-1.744762,52.379799
1991.74,CASTLE PARTNERSHIP,1.298303,52.633973
0.9,COMMUNITY COPD CLINIC,-1.435213,53.333016
191.59,NEW ROAD MEDICAL CENTRE,-1.939238,52.648704
6,SUSSEX DOWN AND WEALD SPECIAL SCHEME,0.294614,50.773566
994.67,SANDY LANE SURGERY,-1.937103,52.75674
449.11,CHOLMLEY GARDENS SURGERY,-0.195423,51.552261
389.24,MITCHLEY AVENUE SURGERY,-0.092485,51.32998
321.05,GATEACRE MEDICAL CENTRE,-2.85753,53.385435
2551.77,BEACON HEALTH GROUP-DANBURY MEDICAL CTR,0.587566,51.716669
848.11,THE SUMMERHILL SURGERY,-2.171615,52.496514
263.23,SCHOOL LANE PMS PRACTICE,0.749246,52.412444
467.42,BELLINGHAM GREEN SURGERY,-0.02426,51.430378
1495.74,BOUNDARY HOUSE MEDICAL CENTRE,-2.288936,53.415635
607.34,HILL LANE SURGERY,-1.41571,50.915802
140.96,AVENUE MEDICAL PRACTICE,-1.603419,54.988036
778.07,SPRING HALL GROUP PRACTICE,-1.892899,53.721064
440.79,KINGSHOLM SURGERY,-2.239023,51.868028
2113.56,SILVERDALE MEDICAL CENTRE,-2.267264,53.015627
1695.6,ARLINGTON ROAD SURGERY,0.277559,50.768189
698.51,THE SHREWSBURY CENTRE,0.043312,51.540929
1329.34,LEEN VIEW SURGERY,-1.196589,52.998051
1778.48,HEATHERVIEW MEDICAL CTR.,-1.913033,50.739773
6.91,GP EXTENDED ACCESS - HARROGATE,-1.529793,53.996354
433.47,CONNAUGHT SQUARE PRACTICE,-0.164264,51.513974
622.68,ABERCROMBY FAMILY PRACTICE,-2.961744,53.399032
934.95,BRIDGE HOUSE MEDICAL CENTRE,-1.709788,52.190536
712.23,CAVERSHAM GROUP PRACTICE,-0.138116,51.550467
1101.66,COUNTESTHORPE HEALTH CENTRE,-1.136767,52.554536
101.19,THE GOLBORNE MEDICAL CENTRE,-0.206303,51.524023
131.1,BLESSING MEDICAL CENTRE,-0.205742,51.533041
811.47,CHARNOCK HEALTH PRIMARY CARE CENTRE,-1.420724,53.342996
801.7,PARKFIELDS SURGERY,-1.432388,52.898298
2.44,THE HEATON MEDICAL PRACTICE,-1.808133,53.81642
210.34,CHAPELTOWN FAMILY SURGERY,-1.526199,53.811432
270.09,DR VASANTH,-2.500811,53.527489
274.94,DR GI JONES' PRACTICE,-1.471058,53.166526
668.73,RIVERBANK MEDICAL SERVICES,-1.152629,53.207243
336.85,HARDEN HEALTH CENTRE,-1.985958,52.608552
557.29,HARSTON SURGERY,0.073806,52.138364
525.47,HOYLAND HOUSE,-2.194177,51.790995
344.78,HATCH END MEDICAL CENTRE,-0.377077,51.606242
1578.11,WIBSEY & QUEENSBURY MED P,-1.779715,53.767225
1710.65,JORVIK GILLYGATE PRACTICE,-1.077772,53.959168
298.56,VALLEY ROAD SURGERY,-0.119424,51.428616
1034.21,CHATSWORTH ROAD MEDICAL CENTRE,-1.467337,53.231374
1139.32,PRESTON GROVE MEDICAL CENTRE  YEOVIL,-2.644279,50.94185
2514.34,NORTH CLACTON MEDICAL PRACTICE,1.162631,51.818131
1039.94,FINCHAMPSTEAD PRACTICE,-0.858066,51.375104
932.2,SHERBURN GROUP PRACTICE,-1.253519,53.798594
503.51,BOURN SURGERY,-0.063404,52.193155
714.35,DR BHATE SURGERY,-1.37324,54.905516
2751.74,OSMASTON SURGERY,-1.467954,52.911084
1569.79,BISHOPS WALTHAM SURGERY,-1.212149,50.95528
1550.96,BROOK SQUARE SURGERY,-0.409328,54.281789
0.91,DCHS BEDS WITH CARE,-1.441882,53.221288
357.51,BORSTAL VILLAGE SURGERY,0.482446,51.372102
574.48,BROOK MEDICAL CENTRE,-0.803796,52.255823
434.88,THE MARSHSIDE SURGERY,-2.963125,53.671433
427.06,CITY OF COVENTRY HEALTH CENTRE,-1.508005,52.413401
437.3,ULLAH M,-2.595925,53.522279
758.6,ST.MARY'S MEDICAL CENTRE,0.497526,51.397836
313.08,WALSALL WOOD HEALTH CENTRE,-1.927755,52.629621
1010.47,MADELEY PRACTICE,-2.345126,52.999856
682.38,SHADBOLT PARK HOUSE SURG,-0.252507,51.376451
1801.62,HILDENBOROUGH MEDICAL GROUP,0.243873,51.215118
120.44,THE MATTHEWMAN PRACTICE,-0.149281,51.545823
331.23,CHURCH LANE - KHAN,-1.793962,52.487056
1199.05,DEVON SQUARE SURGERY,-3.60508,50.529985
394.56,UPWELL STREET SURGERY,-1.434724,53.406424
2558.75,EAST LINDSEY MEDICAL GROUP,0.002264,53.362241
899.91,MATTISHALL SURGERY,1.034195,52.658795
2681.58,ASHFORD MEDICAL PARTNERSHIP,0.898839,51.136741
1587.01,LOW MOOR SURGERY,-1.769897,53.75385
508.07,ST ELIZABETH'S MEDICAL CENTRE (JA WOOD),-1.061189,52.648257
698.4,PENNINE DRIVE PRACTICE,-0.208882,51.568477
715.11,THE CEDARS SURGERY,-0.72004,51.52561
1568.23,LONGTON HEALTH CENTRE,-2.780194,53.727756
817.37,OWLTHORPE MEDICAL CENTRE,-1.375862,53.33869
483.41,ST ANDREWS HEALTH CENTRE,-0.014302,51.523949
1162.99,WONERSH SURGERY,-0.545609,51.197393
48.43,RAINBOW HEALTH CENTRE,-0.109304,51.395046
6,WEST CAMHS - KIRKSTALL,-1.599694,53.817164
871.43,HOLLIES MEDICAL CENTRE,-1.494834,53.363179
1634.15,GALLERIES MEDICAL PRACTICE,-1.531242,54.898814
0.21,SUFFOLK GP FEDERATION OOH,1.164244,52.044508
473.44,GLEN ROAD MEDICAL CENTRE,0.03253,51.522221
633.28,THE WOLDS VIEW PRIMARY CARE CENTRE,-0.215754,54.086552
784.94,COMMUNITY HEALTH CENTRE (ZS OSAMA),-1.113421,52.632387
1375.88,CHURCHILL MEDICAL CENTRE,-0.018466,51.618226
904.7,NAVENBY CLIFF VILLAGES SURGERY,-0.526297,53.103518
576.65,PRINCE OF WALES GROUP SURGERY,-0.147117,51.546913
830.5,WEST POINT MEDICAL CENTRE,-2.197586,53.445978
1605.56,DURNFORD MEDICAL CENTRE,-2.197033,53.554038
720.6,TRINITY MEDICAL CENTRE,-0.158437,51.437554
2.36,HOMELESS AND VIOLENT PATIENT SERVICE,-2.238316,51.866796
1352.34,THE DICCONSON GROUP PRACTICE,-2.644891,53.549467
2396.52,TALBOT MEDICAL CENTRE,-1.908934,50.748888
46.11,CAMDEN HEALTH IMPROVEMENT PRACTICE,-0.138243,51.528275
701.34,WHITLEY ROAD MEDICAL CENTRE,-2.2227,53.49493
1736.89,AVISFORD MEDICAL GROUP,-0.61388,50.822687
1821.63,ASHVILLE MEDICAL CENTRE PMS PRACTICE,-1.4569,53.543072
144.04,CARRFIELD MEDICAL CENTRE,-1.465061,53.358636
513.45,WALNUT TREE PRACTICE,-2.357425,51.68003
4,URGENT CARE CENTRE NORTHWICK PARK HOSP,-0.322037,51.575407
222.68,SIBFORD SURGERY,-1.479244,52.037614
1077.24,THE GAINSBOROUGH PRACTICE,-0.73138,51.426252
1934.85,PORTISHEAD MEDICAL GROUP,-2.767318,51.482805
560.65,HONOR OAK GROUP PRACTICE,-0.041114,51.458097
468.58,FEATHERSTONE,-2.089566,52.645773
2304.25,STUBBINGTON MEDICAL PRACTICE,-1.215422,50.825008
19.9,GP CARE WAKEFIELD OOH,-1.494838,53.679942
1441.7,FISHER MEDICAL CENTRE,-2.021408,53.96167
937.65,HORNDEAN SURGERY,-0.991298,50.914995
1151.61,MARKET STREET MEDICAL PRACTICE,-2.145635,53.478959
3575.05,LIBRARY HOUSE SURGERY,-2.633893,53.650664
654.66,GOSSOPS GREEN MEDICAL CTR,-0.21648,51.107248
689.49,STROUD PRACTICE,-2.024533,52.58916
1671.89,CASTLEFIELDS HEALTH CENTRE,-2.691794,53.338807
1356.6,BLACK COUNTRY FAMILY PRACTICE,-2.071182,52.528846
1060.52,MARK STREET SURGERY,-2.144639,53.62423
485.4,LAUNCESTON CLOSE SURGERY,-2.542488,53.183101
1973.33,CARITAS GENERAL PRACTICE PARTNERSHIP,-2.134599,53.395928
661.69,COLNE ROAD SURGERY,-2.236848,53.801226
1161.05,CASTLE GARDENS SURGERY,-4.140046,50.951639
862.83,WATERSIDE MEDICAL CENTRE,-1.529997,52.283202
2734.69,THREE CHEQUERS MEDICAL PRACTICE,-1.794625,51.071924
807.41,GANTS HILL MEDICAL CENTRE,0.064452,51.577157
969.95,SOUTH WIGHT MEDICAL PRACTICE,-1.287022,50.587616
747.76,HOPWOOD MEDICAL CENTRE,-2.212052,53.587143
207.57,THORNTREE SURGERY,-1.18346,54.565208
1231.68,AIR BALLOON SURGERY,-2.531438,51.459
665.03,MINET GREEN HEALTH PRACTICE,-0.105204,51.475715
1427.8,KINGSNORTH MEDICAL PRACTICE,0.859919,51.1207
393.38,27 BEAUMONT STREET,-1.26216,51.755081
1367,LANE END MEDICAL GROUP,-0.274866,51.615287
1691.83,LAUREL HOUSE SURGERY,-1.692825,52.636563
415.88,RADFORD MEDICAL PRACTICE (KAUR),-1.167635,52.956339
844.28,MCKENZIE GROUP PRACTICE,-1.239266,54.660465
1720.93,BLUE DYKES SURGERY,-1.414353,53.167483
3251.39,ASPEN MEDICAL PRACTICE,-2.225797,51.865969
649.43,REDFERN HEALTH CENTRE,-3.769118,50.238912
6.66,HAVERING CCG,0.179796,51.579247
3988.33,BEACHES MEDICAL CENTRE,1.727734,52.577124
563.76,WOOTTON VALE HEALTHY LIVING CENTRE,-0.527951,52.093688
427.12,HILLSIDE HOUSE SURGERY,-2.842807,53.419526
928.53,CHURCHFIELDS MEDICAL PRACTICE,-1.180398,52.978865
753.4,ST LAWRENCE ROAD SURGERY,-1.387829,53.180152
318.42,MILL ROAD SURGERY,0.150585,52.197163
860.67,POTTERELLS MEDICAL CENTRE,-0.208602,51.726922
2,NEWCASTLE GP IN A&E SERVICE,-1.618869,54.98022
53,CAMDEN EXTENDED ACCESS SERVICE,-0.130607,51.529916
815.1,HORTON PARK MEDICAL PRACTICE,-1.772791,53.785161
5246.81,ST AUSTELL HEALTH GROUP,-4.760416,50.344296
1917.5,WHITBY GROUP PRACTICE,-0.62317,54.485919
162.93,FELTON SURGERY,-1.7113,55.298652
739.11,SWARLAND AVENUE SURGERY,-1.578629,55.006365
802.23,CLAY LANE MEDICAL PRACTICE,-1.482836,52.412774
176.32,MARILLAC HOSPITAL,0.307264,51.621757
2125.21,WHICKHAM COTTAGE MEDICAL CENTRE,-1.677226,54.94538
943.38,POVEREST MEDICAL CENTRE,0.101265,51.39001
379.86,INGLETON AVENUE SURGERY,0.104087,51.454007
362.71,STUART CRESCENT HEALTH CENTRE,-0.110172,51.600434
579.21,WAYFIELD ROAD SURGERY,0.530781,51.359826
280.82,MATCHING GREEN SURGERY,0.481244,51.582852
174.08,ZAIN MEDICAL CENTRE,-0.271242,51.606493
900.48,MITCHELDEAN SURGERY,-2.488369,51.865935
808.16,WATERS EDGE MEDICAL CENTRE,-2.443972,53.192336
696.77,BROWNLOW AT MARYBONE,-2.987806,53.411269
558.65,NORTH LEVERTON SURGERY,-0.822245,53.332038
1051.85,WELTON FAMILY HEALTH CENTRE,-0.484843,53.306584
727.81,ORRELL PARK MEDICAL CENTRE,-2.962942,53.462025
11.08,ST ELIZABETHS CENTRE,0.089303,51.830298
963.01,TINKERS LANE SURGERY,-1.900604,51.543578
364.73,FAMILY DOCTORS,-1.440964,53.798248
714.93,BRACONDALE MEDICAL CENTRE,-2.147089,53.393998
955.24,DENTON PARK MEDICAL GROUP,-1.698725,54.993108
1244.32,BURTON CROFT SURGERY,-1.57692,53.820807
327.63,NORHEADS LANE SURGERY,0.026739,51.314542
1167.55,THE SPINNEY MEDICAL CTR.,-2.757627,53.442443
0.91,T&G EXTENSIVIST SERVICE,-2.089243,53.488929
1548.55,HUNGERFORD MEDICAL CENTRE,-2.427003,53.09787
1200.68,CHURCH STREET PRACTICE,-0.459783,51.37345
753.04,OMBERSLEY MEDICAL CENTRE,-2.229023,52.276554
969,MONKFIELD MEDICAL PRACTICE,-0.065978,52.218778
681.86,IMEARY STREET PRACTICE,-1.424863,54.98753
3,WIGAN ASSESSMENT TEAM,-2.614585,53.534922
798.44,THE OLD SCHOOL MEDICAL PRACTICE,-1.142404,53.916163
1065.22,SALTERS MEDICAL PRACTICE,-2.153493,52.266877
1066.9,NEWBURN SURGERY,-1.743614,54.985644
253.71,WARLEY ROAD SURGERY,-1.993726,52.490193
341.46,ROSEHEATH SURGERY,-2.82558,53.359024
143.15,THE SURGERY (BROOKE ROAD),-0.070755,51.560052
1364.41,BLAKEWATER HEALTH CENTRE,-2.473916,53.76497
475.46,ST.PAUL'S WAY MEDICAL CTR,-0.024483,51.517862
529.06,GREAT BARFORD SURGERY,-0.351406,52.156171
938.99,ST.AGNES SURGERY,-5.202589,50.310768
1051.5,THE WHITFIELD PRACTICE,-1.526509,53.779894
741.81,ST MELOR HOUSE SURGERY,-1.777291,51.171219
1689.4,MEDLOCK VALE MEDICAL PRACTICE,-2.142502,53.479062
755.08,BEDMINSTER FAMILY PRACTICE,-2.594216,51.444159
272.83,ABBEYSLADE PMS (DR CHAND),0.107443,51.487796
3536.24,BOROUGHBURY MEDICAL CENTRE,-0.245486,52.577858
523.1,THE NAYAR PRACTICE,-1.193379,53.480824
943.08,QUAYSIDE MEDICAL PRACTICE,-2.156747,53.509855
1834.97,FARNHAM ROAD PRACTICE,-0.617796,51.530427
1250.75,THE ELMS MEDICAL CENTRE,-2.892972,53.195093
2734.85,WELLWAY MEDICAL GROUP,-1.689718,55.169477
364.71,WESTBURY MEDICAL CENTRE,-2.955353,52.67874
992.12,ARTHUR MEDICAL CENTRE,-1.422636,53.001503
1403.64,IRIDIUM MEDICAL PRACTICE  RICHMOND PCC,-1.817518,52.478024
380.23,SPRING GROVE MEDICAL PRACTICE,-0.345443,51.474432
192.77,HILL TOP PRACTICE,-2.011775,52.537791
506.15,THE BLITHEHALE MED.CTR.,-0.065196,51.523775
1817.94,THE KIRTON LINDSEY AND SCOTTER SURGERY,-0.594073,53.474089
620.17,UNITY HEALTH,-1.029922,53.950316
1242.81,WALLACE HOUSE,-0.081701,51.796317
262.47,MONMOUTH SURGERY,-2.367579,51.383191
1117.29,WHITTINGTON MOOR SURGERY,-1.431065,53.260996
887.01,ARUNDEL SURGERY,-0.567268,50.852881
211.38,CLAPHAM JUNCTION MEDICAL PRACTICE,-0.173908,51.465969
854.13,FOWNHOPE MEDICAL CENTRE,-2.594618,52.007664
252.81,DR JEHANGIR (SH),-2.21885,53.838042
1821.85,RIVERBANK MEDICAL CENTRE,-0.735087,50.993474
739.18,ST HILARY GROUP PRACTICE,-3.06136,53.422188
1088.75,WYCHALL LANE SURGERY,-1.935566,52.409967
224.5,ROWLANDS ROAD SURGERY,-1.806157,52.463271
4.88,DIABETES COMMUNITY SERVICE,-1.735746,51.554535
1039.66,DOWNING STREET GROUP PRACTICE,-0.798901,51.212905
1529.55,THE SALTSCAR SURGERY,-1.073638,54.616282
1190.19,CEDAR MEDICAL PRACTICE,-0.655287,53.570914
2019.42,PULBOROUGH MEDICAL GROUP,-0.509104,50.961138
783.47,MARKET QUARTER MEDICAL PRACTICE,-1.252936,52.377534
729.89,WHITCHURCH SURGERY,-1.340372,51.230256
246.78,PIKE MEDICAL PRACTICE,-2.045643,53.517861
387.24,FALMOUTH ROAD GROUP PRACTICE,-0.093122,51.496427
1084.35,LOCKSTOWN PRACTICE,-2.057135,52.585445
608.36,SIMMONDLEY MEDICAL PRACTICE,-1.969041,53.43954
2202.72,THE PEARTREE PRACTICE,-1.339341,50.900324
266.98,DR SP TALPAHEWA,-0.260303,51.616115
3157.19,TROWBRIDGE HEALTH CENTRE,-2.206779,51.325271
1263.54,THE WHITELEY SURGERY,-1.266072,50.88262
1779.56,CUMBERLAND HOUSE SURGERY,-2.12262,53.257964
661.73,SONNING COMMON HEALTH CTR,-0.982114,51.515603
19.9,7 DAY GP SERVICE,-3.011356,53.629265
803.36,GARSWOOD SURGERY,-2.681273,53.496386
453.76,DR N SADDIQ'S PRACTICE,-1.605537,53.744776
356.19,CLOVER HEALTH CENTRE,0.068593,51.490359
591.77,DEMONTFORT MEDICAL CENTRE,-1.938869,52.09226
428.98,CASSIO SURGERY,-0.401058,51.656689
850.17,LATCHFORD MEDICAL CENTRE,-2.561658,53.381001
6.85,WEALD CLUSTER,0.277462,51.194717
1052.58,LONGROVE SURGERY,-0.204664,51.654244
998.81,STONEBRIDGE SURGERY,-2.608242,53.827609
868.39,PROSPECT SURGERY,-1.583343,53.681523
1638.94,FORDINGBRIDGE SURGERY,-1.793531,50.928159
276.39,DR MAHMOOD & PARTNERS,-1.661589,53.677829
1898.78,THE PENDLE MEDICAL PARTNERSHIP,-2.144307,53.915882
881.91,THE PHOENIX PRACTICE,-0.223569,51.587311
1237.26,OAKESWELL HEALTH CENTRE,-2.013776,52.5542
409.11,CHARLTON HOUSE MEDICAL CENTRE,-0.069309,51.595299
634.72,SUTTON VALENCE GROUP PRACTICE,0.59403,51.211195
1258.33,KINGSWOOD SURGERY,-1.754341,51.556256
771.48,CARNON DOWNS SURGERY,-5.091905,50.22345
447.61,LONGVIEW MEDICAL CENTRE,-2.825032,53.415399
1818.89,LAVANT ROAD SURGERY,-0.781051,50.853385
2135.84,TANFIELD VIEW MEDICAL GROUP,-1.701373,54.869939
693.81,BRIDGE LANE GROUP PRACTICE,-0.167394,51.474142
560.22,WINTON HEALTH CENTRE,-1.876372,50.739605
383.93,BHF LUNDWOOD SURGERY,-1.438538,53.557711
0.23,IC24 LTD (HORSHAM & MID SUSSEX OOH),0.891514,51.129106
949.07,PADGATE MEDICAL CENTRE,-2.556188,53.406509
214.21,THE BEDFORD PARK SURGERY,-0.262302,51.49598
13.97,SOUTH YORK HEART FAILURE NURSES,-1.082907,53.951837
165.32,GARRETTS GREEN LANE SURGERY,-1.788691,52.468447
289.38,PARK HOUSE MEDICAL CENTRE,-0.20665,51.53452
1092.29,SUTHERLAND LODGE SURGERY,0.482571,51.725662
3026.88,EASTGATE MEDICAL GROUP  HORNSEA,-0.16825,53.915277
956.02,WESTBOURNE MEDICAL GROUP,-1.495464,54.866868
679.4,THE HOLLIES FAMILY SURGERY,-3.061442,53.55525
2796.71,MIRIAM PRIMARY CARE GROUP,-3.04649,53.398246
484.32,HUNTLEY MOUNT MEDICAL CENTRE,-2.27859,53.600201
563.09,THE ORCHARD PRACTICE,-0.303542,51.369116
814.54,LAKENHAM SURGERY,1.296577,52.6183
75.87,SPECIALIST SERVICES,-1.441882,53.221288
563.08,THE ACORN & GAUMONT HOUSE SURGERY,-0.06645,51.474157
4880.28,THE ADAM PRACTICE,-2.07822,50.757881
1342.68,NEWTOWN MEDICAL PRACTICE,-2.669697,53.538479
1590.07,MATHER AVENUE SURGERY,-2.892382,53.365377
153.9,WESTCOTES GP SURGERY (TWO),-1.15115,52.628609
1294.37,MARSH MEDICAL PRACTICE,0.143689,53.445069
0.71,HMP HEWELL,-1.986589,52.324784
374.11,PALMERSTON ROAD SURGERY,0.044819,51.626871
2265.21,BIRTLEY MEDICAL GROUP,-1.576441,54.891881
1217.35,TOWNHILL MEDICAL PRACTICE,-0.102825,51.290561
916.9,DORRIDGE SURGERY,-1.752074,52.372757
847.97,THE CORINTHIAN SURGERY,-2.0815,51.906706
132.28,BROMLEY GP ALLIANCE,-0.033209,51.405232
1072.92,RYE MEDICAL CENTRE,0.730363,50.961944
1243.09,OAKLANDS HEALTH CENTRE,-1.784282,53.577106
1534.87,HIGH STREET SURGERY,1.756043,52.482123
707.49,FAIRMORE MEDICAL PRACTICE,-2.280663,53.70081
340.18,DR VICTORIA MUIR'S PRACTICE,-0.151358,51.490651
2122.79,LINDEN AVENUE MEDICAL CENTRE,-0.716133,52.397046
338.83,ALPHA MEDICAL PRACTICE,-1.856091,52.490749
4.29,NORTH TYNESIDE COMMUNITY SERVICE,-1.508192,55.020469
1047.34,THE STREET LANE PRACTICE,-1.513393,53.843234
1032.21,VINE HOUSE HEALTH CENTRE,-0.41878,51.70477
1206.5,NEWBURY GREEN MEDICAL PRACTICE,-2.26047,53.506995
1751.75,TAUNTON ROAD MEDICAL CENTRE,-3.001634,51.124679
1179.47,CHARNWOOD MEDICAL GROUP,-1.22117,52.774303
1411.62,DONNINGTON MEDICAL PRACTICE,-2.437109,52.715179
15.46,WEST KENT GROUP,1.118942,51.075872
1074.54,MANOR DRIVE MEDICAL CENTRE,-0.248366,51.380785
598.34,DR NASAH & PARTNERS,0.505558,51.567734
405.52,LINKS MEDICAL PRACTICE,-2.079024,52.487973
1107.15,PARK MEDICAL PRACTICE,-2.327843,53.401899
350.8,OLD TRAFFORD MEDICAL PRACTICE,-2.275745,53.458074
4,CATERHAM DENE RAC,-0.085202,51.283627
2.67,HEART FAILURE SERVICE,-2.629091,53.55774
853.88,HAVEN HEALTH,1.327039,51.96536
1200.21,CASTLE MEDICAL GROUP PRACTICE,-0.415501,51.875588
1393.42,SACRISTON MEDICAL CENTRE,-1.628413,54.819683
762.02,SOUTHAM SURGERY,-1.385752,52.251212
730.12,NORVIC FAMILY PRACTICE,-1.960133,52.489728
1776.78,WINTERTON MEDICAL PRACTICE,-0.606876,53.652511
761.23,STONEHAM LANE SURGERY,-1.378468,50.939305
754.14,LILFORD PARK SURGERY,-2.511455,53.503236
2406.76,LINTONVILLE MEDICAL GROUP,-1.570274,55.183776
223.74,BLUEBELL SURGERY,0.921899,51.916473
841.53,MANOR HOUSE SURGERY,-0.161227,51.916084
855.29,NEW ISLINGTON MEDICAL CENTRE,-2.219472,53.4829
1016.76,SEFTON PARK MEDICAL CENTRE,-2.934843,53.393088
431.94,LATHOM ROAD MEDICAL CENTRE,0.052675,51.538066
1450.63,THE CAXTON SURGERY,-3.051276,52.861431
189.89,TOTTENHAM HALE MEDICAL PRACTICE,-0.058714,51.589477
1885.67,SALTERS MEADOW HEALTH CTR,-1.933023,52.68216
598.73,SURREY LODGE PRACTICE,-2.218728,53.458264
510.44,PLEASLEY SURGERY,-1.250873,53.175809
1733.75,LYTHAM ROAD SURGERY,-2.710575,53.77784
322.06,MILLENNIUM FAMILY PRACTICE,-1.603663,54.962972
959.01,PURTON SURGERY,-1.878078,51.585483
895.95,BARRINGTON MEDICAL CENTRE,-2.352158,53.38672
271.47,HEDNESFORD MEDICAL PRACTICE,-2.000697,52.71233
1995.05,WALDERSLADE SURGERY,-1.43772,53.499821
404.45,ABRIDGE SURGERY,0.12458,51.653631
6.84,GRANTHAM EXTENDED ACCESS K2,-0.639825,52.910073
787.09,ARTHINGTON MEDICAL CENTRE,-1.532912,53.77216
958.06,SHIFNAL & PRIORSLEE MEDICAL PRACTICE,-2.376009,52.667675
1604.09,ASHWORTH STREET SURGERY,-2.165652,53.619565
1775.44,THE LIGHTHOUSE GROUP PRACTICE,-1.080505,50.796551
1648.03,TESTVALE SURGERY,-1.489898,50.919405
1795.44,THE DOVE VALLEY PMS PRACTICE,-1.46034,53.529021
42.45,PRIMARY CARE SEVEN DAY SERVICE,-0.059836,51.623784
1181.43,MILL ROAD SURGERY,0.896057,51.912436
880.32,TONG MEDICAL PRACTICE,-1.716795,53.77049
1109.43,GODIVA GROUP PRACTICE,-1.482836,52.412774
1125.04,KINGSBRIDGE MEDICAL CENTRE,-2.226198,52.9927
2.4,THE ROYAL MEWS SURGERY,-0.145223,51.498764
425.57,DR VARDHAN'S SURGERY,-2.447913,53.500769
674.84,WELLS PARK PRACTICE,-0.063327,51.430508
376.57,THE DOC'S SURGERY,-2.238064,53.476932
1770.14,HADLEIGH BOXFORD GROUP PRACTICE,0.953136,52.043021
2834.67,EAST NORFOLK MEDICAL PRACTICE,1.725527,52.619127
29.7,SCARBOROUGH EXTENDED ACCESS HUB,-0.416116,54.282229
352.22,HANCOCKS ME,-0.412964,53.782123
1426.15,THE MILTON SURGERY,-2.949198,51.352664
464.59,BAKERSFIELD MEDICAL CENTRE,-1.104957,52.960219
576.33,RAINFORD HEALTH CENTRE,-2.781746,53.500694
1214.82,MARCHAM RD FAMILY HEALTH CENTRE,-1.302953,51.66958
1046.11,THE LAURELS SURGERY,0.544165,51.758518
2467.24,THE CAMBRIDGE PRACTICE,-0.76565,51.254364
549.29,ROCKLEIGH COURT SURGERY,0.326872,51.63026
1040.18,IFIELD MEDICAL PRACTICE,-0.211874,51.121108
1.82,BRIMPTON HOUSE,0.699534,51.835776
633.47,ST.STEPHENS HEALTH CENTRE,-0.031163,51.532455
422.78,PARK ROAD MEDICAL CENTRE,-0.150952,51.363489
427.46,MANCHESTER MEDICAL,-2.23745,53.45875
1601.47,POUND HILL MEDICAL GROUP,-0.156409,51.118813
856.85,SANDY LANE SURGERY,-1.182896,53.147091
1681.92,LANGWORTHY MEDICAL PRACTICE,-2.294771,53.489371
861.04,THE GOODINGE GROUP PRACTICE,-0.125442,51.54825
0.52,NEMS CBS MID NOTTS OOH,-1.233579,53.134573
1922.79,ROLLE MEDICAL PARTNERSHIP,-3.401499,50.621139
251.35,RILLWOOD MEDICAL CENTRE,-0.835728,52.263295
640.09,THE MANSELL ROAD PRACTICE,-0.358969,51.525654
1201.06,FORESTSIDE MEDICAL PRACTICE,-1.416173,50.851823
266.5,TRINITY SURGERY,-1.650877,52.617569
1454.93,NORTHWOOD MEDICAL CENTRE,-1.932971,52.415485
685.7,AUGHTON SURGERY,-2.902089,53.543684
495.21,CHATHAM STREET SURGERY,-0.981895,51.455924
134.98,SLAIDBURN HEALTH CENTRE,-2.444001,53.967313
10.29,PETERLEE PRIMARY CARE SERVICES,-1.335627,54.758287
2089.25,FEARNHEAD CROSS MED.CTR.,-2.559106,53.411071
116.91,GREENFIELD MEDICAL CENTRE,-1.855764,52.491684
137.04,THE PROJECT SURGERY,0.020636,51.532273
288.09,THE VALE SURGERY,-0.251817,51.506454
1805.4,HAVELOCK GRANGE PRACTICE,-1.214164,54.682342
277.66,ST. LUKE'S SURGERY,-1.167635,52.956339
1588.41,CRICH MEDICAL PRACTICE,-1.482573,53.084327
1591.62,CHURCH STREET PRACTICE,-2.153433,51.99229
717.25,GUTTERIDGE MEDICAL CENTRE,-2.691248,53.769881
1675.15,KIRKHAM HEALTH CENTRE,-2.878541,53.781939
4.28,EXTENDED ACCESS PCD CONISBROUGH GROUP,-1.237653,53.482282
533.47,DR N NAGPAL'S PRACTICE,-2.467033,53.746299
2229.64,AINTREE PARK GROUP PRACTICE,-2.967297,53.462799
1570,THE RYAN MEDICAL CENTRE,-2.663635,53.730399
500.65,CAREPOINT PRACTICE,-0.411552,51.604465
2229.27,FLANSHAM PARK HEALTH CENTRE,-0.629205,50.794855
100,MOHANTY PRACTICE,-2.130534,53.53731
4.88,THE LEGER CLINIC,-1.124029,53.525476
626.43,CHORLEYWOOD HEALTH CENTRE,-0.520415,51.654714
2529.07,THE SWAN PRACTICE,-0.985664,52.001593
671.51,KENSINGTON ROAD SURGERY,-1.532401,52.40257
1018.97,TONGE FOLD HEALTH CENTRE,-2.405772,53.579119
1369.13,GUISELEY AND YEADON MEDICAL PRACTICE,-1.684131,53.865295
212.16,HAROLD STREET MEDICAL CENTRE,-1.492871,53.393121
2091.88,SHERWOOD MEDICAL PARTNERSHIP,-1.137878,53.157488
1590.55,CASTLE PRACTICE,-1.617531,51.256028
846.05,CARDEN SURGERY,-0.126631,50.862197
193.02,LANCELOT MEDICAL CENTRE,-0.299498,51.552907
2681.9,ELLERGREEN MEDICAL CENTRE,-2.919309,53.445416
1208.98,KIDDROW MEDICAL PRACTICE,-2.288626,53.795175
984.09,THE VINE MEDICAL CENTRE,0.514909,51.270888
1140.88,THE SYMONS MEDICAL CENTRE,-0.73892,51.522782
1718.51,HARESFIELD HOUSE SURGERY,-2.202996,52.194829
1007.21,CENTRAL SURGERY,0.147747,51.812546
809.52,QUEENHILL MEDICAL PRACTICE,-0.066791,51.34499
1261.53,GATEACRE BROW SURGERY,-2.8632,53.383291
985.54,RED HOUSE SURGERY,0.129161,52.214906
571.39,RUSH HILL SURGERY,-2.393951,51.365379
6,OUT OF HOURS CENTRE,-1.842798,54.869081
461.38,DR S PHILLIPS AND DR M PATEL PRACTICE,-0.027903,51.569142
1821.82,ST GEORGES MEDICAL CENTRE,0.762412,51.436183
639.94,THE CHESSER SURGERY,-0.177303,51.374927
665.72,ASHURST PRIMARY CARE,-2.772723,53.563208
499.89,TOWN HALL SURGERY,-2.092973,53.478374
1035.56,WHITE CLIFFS MEDICAL CENTRE,1.301586,51.12422
3.21,IPU3-8 SOUTH WARKS  WARK OP,-1.521648,52.285309
20.1,PARTNERSHIP SOUTH,-2.109085,52.810605
4,ST ANDREWS EXTENDED ACCESS HUB,-0.013843,51.523897
966.5,NORTH BEVERLEY MEDICAL CENTRE,-0.439008,53.857996
650.18,KILLICK STREET HEALTH CENTRE,-0.119068,51.534237
700.52,THE LILYVILLE SURGERY,-0.199155,51.47377
1153.97,BURNBRAE MEDICAL PRACTICE,-0.303885,53.760383
1391.82,TOPSHAM SURGERY,-3.462097,50.683825
192.54,FITZMAURICE (KEW),-0.283117,51.475875
582.06,ST PETER'S SURGERY,1.41893,51.362936
1018.12,THE COURTYARD SURGERY,-0.328342,51.065411
0.53,BROOMFIELD DOCTOR IN ED,0.465993,51.774654
764.77,SHIFA SURGERY,-2.475999,53.757295
423.59,SHIPDHAM SURGERY,0.894462,52.628852
267.91,OLD PARSONAGE SURGERY,0.460418,51.112785
460.8,POPLAR PRIMARY CARE CENTRE,-1.890326,52.43631
669.67,SPITAL SURGERY,-3.003678,53.340977
749.79,GRAVESEND MEDICAL CENTRE,0.369986,51.443932
198.89,THE KILLINGHOLME SURGERY,-0.260335,53.629908
939.49,THEATRE ROYAL SURGERY,0.942383,52.683767
370.49,SOMERS TOWN MEDICAL CENTRE,-0.130607,51.529916
1455.33,THE SANDRINGHAM PRACTICE,-1.098266,53.533949
761.88,BRANSTON & HEIGHINGTON FAMILY PRACTICE,-0.467988,53.195831
803.25,THE BORCHARDT MEDICAL CENTRE,-2.237795,53.434307
532.07,THE VILLAGE MEDICAL CTRE,-2.871986,53.374777
526.24,DR GT HENDOW'S PRACTICE,-0.32136,53.787408
279.05,WEST BROM P'SHIPS FOR HEALTH,-2.000605,52.517891
1223.47,ANGEL LANE SURGERY,0.362574,51.871967
1411.56,BUNGAY MEDICAL CENTRE,1.442974,52.44971
456.58,ST MARY'S SURGERY,-2.000799,52.613174
201.28,BROOM ROAD MEDICAL PRACTICE,-0.030275,51.369778
189.14,ARDEN HEALTHCARE CENTRE,-1.508005,52.413401
699.02,KIRKBY COMMUNITY PRIMARY CARE CENTRE (3),-1.248741,53.10176
436.45,VICTORIA MEDICAL CENTRE,-1.52187,54.97385
727.07,THE RIGG-MILNER MEDICAL CENTRE,0.415644,51.48007
2.23,SHROPSHIRE WALK IN HEALTH CENTRE,-2.738044,52.707892
597.48,KIRKGATE SURGERY,-1.667625,53.732234
867.34,FRIERN BARNET MEDICAL CENTRE,-0.155988,51.613267
554.49,HOLLAND PARK SURGERY,-0.194435,51.501412
1476.02,WOODVILLE SURGERY,-1.536503,52.770685
1326.31,ELMHAM SURGERY,0.943019,52.752311
1027.72,CROWN SURGERY,-2.253515,52.859415
301.83,REGENT STREET SURGERY,-2.283616,51.744168
505.28,JUBILEE HEALTH CENTRE,-2.01963,52.551655
10.74,GTD HEALTHCARE PRESTON OOH,-2.706842,53.791521
1348.97,DALTON SURGERY,-3.179816,54.155917
273.55,MAIDSTONE RD CHATHAM SURGERY,0.516708,51.361226
1270.65,SKEGBY FAMILY MEDICAL CENTRE,-1.273344,53.142337
586.61,THE WRITTLE SURGERY,0.426548,51.73248
1328.3,PARKBURY HOUSE SURGERY,-0.334063,51.756766
425.08,BUCKFASTLEIGH MEDICAL CENTRE,-3.781989,50.480934
1943,CITY HEALTH PRACTICE LTD,-0.306816,53.756542
333.87,VALLEY VIEW SURGERY,-1.731903,53.806791
1.82,DIABETES CONSULTANTS SOUTH,-2.109085,52.810605
399.67,DR PCL KNIGHT,0.010023,51.541412
579.93,HORNSPIT MEDICAL CENTRE,-2.915341,53.436681
570.95,ARRAN MEDICAL CENTRE,-1.748679,52.503867
1694.03,THE MAPLES MEDICAL CENTRE,-2.286712,53.384846
334.02,MILTON SURGERY,0.162445,52.241924
1945.12,DR G LEES & PARTNERS,-1.593212,53.796407
1669.07,THE SHRUBBERY SURGERY,0.351088,51.433242
357.87,SHIP STREET SURGERY,-0.141753,50.821384
394.86,NORTON CANES SURGERY,-1.970246,52.673977
1565.33,ST. LAURENCE'S MEDICAL CENTRE,-2.882285,53.475161
1159.19,THE BRIMINGTON SURGERY,-1.395708,53.257173
1139.82,MAYLANDS HEALTHCARE,0.190596,51.552912
782.87,YORKLEIGH SURGERY(CT),-2.0847,51.900132
23.71,B&H EXTENDED HOURS SERVICE,-0.148293,50.838378
468.36,LANTERN HEALTH-CARPENTERS PRACTICE,-0.003474,51.537165
418.58,WALTHAM ROAD MEDICAL CENTRE,0.584106,51.373869
5.53,BURY OOH,-2.288591,53.59553
216.49,PARROCK STREET SURGERY,0.371171,51.441238
209.86,NEVILLE ROAD SURGERY,-0.443036,51.906419
8.87,CWP (WEST) PHYSICAL HEALTH,-2.897884,53.2088
467.11,CATER STREET SURGERY,-0.490495,52.119586
1211.06,WELLING MEDICAL PRACTICE,0.107972,51.460844
0.85,GP SERVICE ACCIDENT AND EMERGENCY,1.71798,52.561672
458.62,HILL BARTON SURGERY,-3.481689,50.723363
405.57,STACKYARD AND WOOLSTHORPE SURGERY,-0.7611,52.852515
855.27,HEALDS ROAD SURGERY,-1.651637,53.700113
327.61,BRADFORD MOOR PRACTICE,-1.721849,53.797834
2393.01,DR SPENCER & PARTNERS,-0.677325,52.359891
658.32,SMALLFIELD SURGERY,-0.118564,51.171722
1160.27,CHURCH STREET PRACTICE,-1.425847,51.598763
919.17,HUMBER ROAD SURGERY,0.48396,51.747558
34.43,PAT HMR COMMUNITY SERVICE,-2.229502,53.517882
1350.14,BALSALL COMMON & MERIDEN GROUP PRACTICE,-1.643862,52.394956
0.26,PALLIATIVE CARE,-2.974618,53.633552
1995.85,CHELMER MEDICAL PARTNERSHIP,0.459513,51.749313
9.9,URGENT CARE CENTRE DARLINGTON OOH,-1.563733,54.530374
400.31,DR RC RAUTRAY'S PRACTICE,-2.475521,53.752542
1151.99,CLARENDON LODGE MEDICAL CENTRE,-1.531715,52.294043
2053.58,ORCHARD 2000 GROUP,-0.370022,53.786372
12,WESTCLIFFE HEALTH INNOVATIONS ENT,-1.712131,53.823092
1602.1,GOSPORT MEDICAL CENTRE,-1.147265,50.79354
156.92,LANGTHORNE SHARMA FAMILY PRACTICE,0.0021,51.555415
1068.55,FARMHOUSE SURGERY,-1.7595,50.736437
12.18,UHSM COMMUNITY SERVICES,-2.25528,53.390625
90.83,AR-RAZI MEDICAL CENTRE,-1.101204,52.623926
599.33,TAMWORTH HOUSE MEDICAL CENTRE.,-0.146254,51.40122
852.39,MANSFIELD MEDICAL CENTRE,-1.484577,52.405976
543.47,BELMONT MEDICAL CENTRE,-0.385203,51.500848
819.06,FAIRHILL MEDICAL PRACTICE,-0.282871,51.417069
820.6,HENLEY GREEN MEDICAL CENTRE,-1.454284,52.428369
279.24,ADDINGTON MEDICAL PRACTICE,-0.018557,51.344382
595.67,EDEN PARK SURGERY,-0.041426,51.399335
2259.1,CASTLE PLACE PRACTICE,-3.492865,50.908884
548.81,CROOKES PRACTICE,-1.502259,53.38366
1379.21,THE SIMPSON CENTRE,-0.651318,51.610791
491.34,UPTON LANE MEDICAL CENTRE,0.026394,51.5431
2279.28,MAYWOOD HEALTH CARE CENTRE,-0.693582,50.786664
893.99,ASKERN MEDICAL PRACTICE,-1.148909,53.615496
1119.06,CAPTAIN FRENCH SURGERY,-2.748562,54.323429
371.81,THE NEW SURGERY,-0.660492,51.794471
973.33,DENTON TURRET MEDICAL CENTRE,-1.686387,54.983928
589.38,THE EUXTON MEDICAL CENTRE,-2.676836,53.669016
1239.63,FALMOUTH HEALTH CENTRE,-5.08602,50.156398
3477.22,MILLGATE HEALTHCARE PARTNERSHIP,-2.118464,53.455602
28.45,LUTHER STREET MEDICAL PRACTICE,-1.258255,51.747356
382.03,SOUTHFIELD WAY SURGERY,-2.018733,52.658391
855.66,NEW COURT SURGERY,-2.30878,52.113538
845.22,WINDRUSH SURGERY,-1.343294,52.058899
1302.11,DR GC CHAJED'S PRACTICE,0.465396,51.564483
24.53,STAR SCHEME EXTENDED,-1.068807,54.599299
688.33,NORTH SHOEBURY SURGERY,0.784481,51.542211
1787.85,SPRINGS HEALTH CENTRE,-1.265531,53.27774
82.75,VERITAS HEALTH CENTRE,-1.481026,53.354257
1000.59,HEATH LANE MEDICAL CENTRE,-2.86384,53.188961
1071.14,CAMPINGLAND SURGERY,0.690978,52.645997
693.89,PARK VIEW SURGERY,-2.77111,54.227652
311.11,AYLESTONE HEALTH CENTRE,-1.152678,52.605677
5.55,LCHS NMP,-0.52415,53.226467
469.09,CHARMOUTH MEDICAL PRACTICE,-2.903858,50.738665
331.65,THE CRESCENT MEDICAL CTR.,-0.876393,52.250449
4,DERMATOLOGY SERVICES E&N,-0.222882,51.827958
364.87,NORTON CANES HEALTH CENTRE,-1.970246,52.673977
976,VILLAGE SURGERY,-1.896468,50.741178
235.74,UNIVERSITY HEALTH CENTRE,-0.548748,53.229537
933.88,GORDON HOUSE SURGERY,-0.31522,51.509944
1172.62,FULLWELL CROSS MED. CTR.,0.083782,51.594621
1461.99,VISTA ROAD SURGERY,-2.645459,53.457808
550.39,SANDS END HEALTH CLINIC,-0.191391,51.473128
276.37,WELLINGTON HEALTH CENTRE,-0.171284,51.532275
1738.4,BALL TREE SURGERY,-0.338832,50.831767
2344.28,KINGFISHER FAMILY PRACTICE,-0.950634,53.325451
1059.48,ABBEY ROAD SURGERY,-0.030102,51.684417
1551.32,LONDON LANE CLINIC,0.008653,51.415223
2036.8,IVY COURT SURGERY,0.690221,51.068039
746.05,THE SURGERY,-2.605295,53.024859
274.21,DR SHARMA & PARTNERS,0.447593,51.588181
1014.54,THE OAKS MEDICAL CENTRE,-1.215186,52.928031
1985.18,THE PARK MEDICAL PRACTICE,-2.739045,53.77018
208.97,WARRIOR SQUARE SURGERY,0.716503,51.539534
1320.86,CHOBHAM & WEST END MEDICAL PRACTICE,-0.602516,51.34981
4.92,HP NMP'S N & S CCG,-1.143101,53.130244
676,NENE VALLEY SURGERY,-0.537451,52.399796
403.98,AILSWORTH MEDICAL CENTRE,-0.352472,52.577435
2885.31,BLOOMFIELD MEDICAL CENTRE,-3.043644,53.804417
333.11,KINGS ROAD MEDICAL CENTRE,-0.184768,51.480355
2236.59,SEVERN VALLEY MEDICAL PRACTICE,-2.235045,52.190415
960.59,HOCKLEY FARM MED PRACT (A NANA),-1.183899,52.630898
166.14,EAST ENFIELD PRACTICE,-0.046596,51.649065
462.11,THE AZAD PRACTICE,0.044868,51.531234
1014.4,MELBOURNE PARK MEDICAL CENTRE,-1.192728,52.975767
1275.64,THORPEWOOD MEDICAL GROUP,1.341071,52.641956
1070.62,ST.HELENS MEDICAL CENTRE,-1.109209,50.698751
628.79,EDEN SURGERY,-1.30159,52.962668
241.57,THE HOXTON SURGERY,-0.086829,51.533527
360.87,DR MARKS PRACTICE,0.192379,51.572553
257.2,BRENTFORD FAMILY PRACTICE,-0.310054,51.48676
1155.25,MANOR AND PARK GROUP PRACTICE,-1.42716,53.373705
827.14,BIRD-IN-EYE SURGERY,0.105639,50.96595
795.29,LONGFIELD MEDICAL PRACTICE,-2.28357,53.533828
314.79,THE HALING PARK PARTNERSHIP,-0.098109,51.357113
266.5,DR RB KUMAR PRACTICE,0.800566,51.327757
1437.16,HANDSWORTH MEDICAL PRACTICE,-1.383405,53.371708
727.41,MOSBOROUGH HEALTH CENTRE,-1.364873,53.325238
358.43,CRABBS CROSS SURGERY,-1.943704,52.281407
6.23,I HEART BARNSLEY,-1.506899,53.547954
7598.27,MIDLANDS MEDICAL PARTNERSHIP,-1.81313,52.519802
419.67,THE HEALTH CARE SURGERY,-1.487911,53.42172
672.07,HYTHE MEDICAL CENTRE SURGERY,-0.526274,51.429608
368.74,THE LEIGH SURGERY,0.656153,51.555504
1284.63,WILLOW BANK SURGERY,-2.102853,52.97847
1610.52,PARK MEDICAL CENTRE,-2.873099,53.202665
2.6,COMMUNITY SERVICES NURSE PRESCRIBERS,-0.487256,51.892609
1434.98,THE NEW CONINGSBY SURGERY,-0.173849,53.105092
505.22,THE STATHAM GROVE SURGERY,-0.08946,51.557463
1621.23,CROWN HOUSE SURGERY,-0.950634,53.325451
801.28,BARN SURGERY,-0.447347,50.813953
70.7,PRIMARY CARE MANCHESTER LIMITED,-2.214292,53.489633
433.48,CRICKLADE SURGERY,-1.85646,51.640614
359.32,WOODGATE VALLEY HEALTH CENTRE,-1.991423,52.442663
1.74,HMP PRESTON,-2.689365,53.761461
704.48,CROSS ROAD SURGERY,-2.464849,50.602187
381.26,ST PETER'S MED CENTRE (MANSINGH & MEHRA),-1.119092,52.631036
415.54,JRB HEALTHCARE BEECHDALE SURGERY,-1.198142,52.961504
818.88,CHEETHAM HILL PRIMARY CARE CENTRE,-2.23526,53.501162
244.31,CROSSWAYS PRACTICE,-3.023992,53.484655
486.16,HOUNSFIELD SURGERY,-0.811033,53.183702
944.65,HADDENHAM MEDICAL CENTRE,-0.921732,51.777822
1181.58,LISTER HOUSE SURGERY,-0.227126,51.764574
1573.87,NETTLEHAM MEDICAL PRACTICE,-0.476253,53.262865
465.75,CUMBERLAND MEDICAL CENTRE,0.026047,51.519716
5399.61,THE RIDINGS MEDICAL GROUP,-0.622066,53.765218
1139.9,STANMORE HOUSE SURGERY,-2.231468,52.391138
440.83,DR BK JAISWAL'S PRACTICE,0.125595,51.538934
2283.83,THE OVER-WYRE MED.CTR.,-2.976492,53.928203
2717.59,DOCTOR LANE HEALTH CENTRE,-1.696722,53.675715
2523.06,NEWPORT PAGNELL MED.CTR.,-0.725298,52.086465
2627.56,TRAFALGAR MEDICAL GROUP PRACTICE,-1.092485,50.785331
1611.18,LONDON ROAD SURGERY,0.519034,51.613356
1478.23,LEEDS CITY MEDICAL PRACTICE,-1.555879,53.778323
660.53,NORTHGATE SURGERY,-1.866567,52.899272
1190.58,AMWELL SURGERY,-0.013312,51.759904
1642.91,THE VILLAGE PRACTICE,-3.014553,53.876825
263.1,240 WEXHAM ROAD,-0.57838,51.516902
422.93,THE JUBILEE PRACTICE,-1.003945,53.013557
0.91,TENBURY COMMUNITY HOSPITAL WARD,-2.589551,52.315401
1012.81,LONG LANE,-2.925005,53.456024
1218.92,GREYSTOKE SURGERY,-1.683424,55.171694
465.33,KINGSTON HEALTH CENTRE,-0.304894,51.414188
1112.69,NORTH TRAFFORD GROUP PRACTICE,-2.299481,53.453882
189.24,SMS MEDICAL PRACTICE,-0.306785,51.549713
1530.85,STRATTON MEDICAL CENTRE,-4.516205,50.830225
1439.36,PARK FARM MEDICAL CENTRE,-1.495809,52.94407
1518.61,42 KINGSWAY,-3.020167,53.481011
1716.32,HELSTON MEDICAL CENTRE,-5.270081,50.099592
315.42,BURSLEDON SURGERY,-1.317111,50.890052
529.07,WYRESDALE ROAD SURGERY,-2.452196,53.581577
692.53,THE MEDICAL CENTRE,-0.476068,51.50442
2315.8,THE GLENFIELD SURGERY,-1.196305,52.655381
1436.69,TRENTSIDE MEDICAL GROUP,-1.074629,52.964659
787.29,THE NEW FOLLY SURGERY,0.384799,51.669624
0.12,WHITBY GP OOH,-1.112167,53.976819
1846.63,SWANSCOMBE HEALTH CENTRE,0.28731,51.424657
345.1,UPPER HALLIFORD MEDICAL CENTRE,-0.43115,51.411378
1037.5,NESTON MEDICAL CENTRE,-3.064349,53.291818
507.83,DROYLSDEN MEDICAL PRACTICE,-2.145664,53.487166
560.18,CEDARS MEDICAL GROUP,-1.740442,54.90557
0.89,WOKING ALEXANDRA WARD,-0.556304,51.315132
333.22,DR VM PATEL,0.228776,51.561113
420.09,UNITY SURGERY,-1.103411,52.980422
1083.19,FOREST PRACTICE,0.075235,51.654789
1496.76,HOLTS HEALTH CENTRE,-2.406966,51.931555
53.98,CAMHS,-4.112782,50.37838
451.19,GUN LANE MEDICAL CENTRE,0.493189,51.397398
5.79,URGENT CARE CENTRE (ERITH),0.166643,51.477113
221.75,WESTFIELD MEDICAL CENTRE,-1.531703,53.817673
247.24,GOLDINGTON ROAD SURGERY,-0.456174,52.140172
164.95,PRESTON MEDICAL CENTRE,-0.292579,51.564335
818.1,WOODHALL SPA NEW SURGERY,-0.207041,53.153263
1237.95,THE NEW SURGERY,1.181851,51.089152
378.25,GLENDALE MEDICAL CENTRE,-0.434503,51.490429
2701.77,FRIARSGATE PRACTICE,-1.336797,51.074249
230.24,VESTA ROAD SURGERY,-0.040618,51.468737
1164.39,GRAVEL HILL SURGERY,-2.185723,52.534052
9.97,SHROPDOC OUT OF HOURS,-2.732712,52.740396
1100.65,LEACROFT MEDICAL PRACTICE,-0.196029,51.126566
1064.84,PEEL HALL MEDICAL CENTRE,-2.265017,53.379925
1011,TILEHURST VILLAGE SURGERY,-1.042269,51.461233
950.46,BUDSHEAD MEDICAL PRACTICE,-4.150289,50.417443
416.5,SOUTH SAXON HOUSE SURGERY,0.526723,50.868702
427.81,ELTHAM PALACE PMS,0.053714,51.449946
1104.09,RIVERPORT MEDICAL PRACTICE,-0.075654,52.343316
1342.28,DR KK CHAN & PARTNERS,-2.489022,53.524185
367.59,ROTTON PARK MEDICAL CENTRE,-1.947079,52.482162
1477.16,AYLMER LODGE COOKLEY PARTNERSHIP,-2.261095,52.38419
1359.74,FRAMLINGHAM SURGERY,1.334192,52.227216
125.44,LANCASTER GATE MEDICAL CENTRE,-0.183362,51.511753
439.48,PENNINE SURGERY,-2.103349,53.642995
1666.16,MARLBOROUGH SURGERY,-1.33549,54.835804
903.23,DR INGRAM & PTRS,-1.526892,54.136451
818.17,MOULTON MEDICAL CENTRE,-0.062945,52.79766
2.94,COMMUNITY NURSING (H&R),-1.438367,54.350666
706.11,RAJ MEDICAL CENTRE,-0.113968,53.550655
798.73,LINDEN ROAD SURGERY,-0.479248,52.14361
1241.05,DAWLEY MEDICAL PRACTICE,-2.466781,52.664322
43.01,CHCP - URGENT CARE OOH,-0.373324,53.729806
632.62,ST SAVIOURS SURGERY,-2.308488,52.130324
413.07,THE GLEBE FAMILY PRACTICE,0.544473,51.383164
490.98,WESTFIELD SURGERY,-2.458993,51.284957
1749.33,HILLSIDE PRACTICE,-0.981124,54.56313
916.69,EAST PARK MEDICAL CENTRE,-1.514944,53.793168
3.83,READING WALK-IN HTH CTR OOH,-0.975896,51.454809
469.69,OAK GLEN SURGERY,-1.816352,53.854799
0.85,HUC WEST ESSEX OOH,-0.191727,51.782567
1466.86,ROSEGARTH SURGERY,-1.871551,53.714895
483.79,THE HOLLIES SURGERY,0.374326,52.603925
1478.92,ONGAR HEALTH CENTRE,0.246278,51.716938
824.43,SUMMERTOWN HEALTH CENTRE,-1.26328,51.774383
630,STANHOPE PARADE HEALTH CENTRE,-1.431179,54.984988
1936.76,BURLEIGH MEDICAL CENTRE,-1.477568,53.549879
1141.45,THE BOULEVARD MEDICAL PRACTICE,-1.86759,53.716715
356.95,BROADHURST ST MED PRACT (KS MORJARIA),-1.118671,52.653472
173.3,THE ACTON HEALTH CENTRE,-0.270199,51.506214
1562.87,SEVERN FIELDS MEDICAL PRACTICE,-2.721619,52.728047
268.5,KUDRA (WOODLAWN),-0.366673,51.444444
344.51,GRAINGER & SCOTSWOOD MEDICAL PRACTICES,-1.640452,54.969316
211.51,GEORGE ELIOT MEDICAL CENTRE,-1.506534,52.419528
962.69,ANFIELD GROUP PRACTICE,-2.945317,53.429436
1044.52,COLLIERY COURT MEDICAL GROUP,-1.460703,54.949762
351.05,GREENBANK DRIVE SURGERY,-2.930424,53.38977
1142.26,NEWTONS PRACTICE,-0.103899,51.000679
561.27,I J HEALTHCARE,-1.531354,54.88104
263.45,SCOTS GAP MEDICAL GROUP,-1.940563,55.172746
4.29,LD PSYCHIATRY SERVICE,-1.742225,52.474944
1077.36,MORETON CROSS GROUP PRACTICE,-3.111975,53.403551
1380.43,SHERINGHAM MEDICAL PRACTICE,1.214777,52.939688
302.4,GRANVILLE MEDICAL CENTRE,0.07096,51.563158
1508.62,JAMES WIGG PRACTICE,-0.139955,51.546404
879.11,THE WELLSPRING SURGERY,-1.136804,52.962324
10568.78,OCTAGON MEDICAL PRACTICE,-0.103578,52.622001
881.17,LITTLEBURY MEDICAL CENTRE,0.01909,52.801863
399.27,GROVE VILLAGE MEDICAL CENTRE,-0.43095,51.449161
2.6,BRIGHTON STATION WALK-IN,-0.141323,50.827937
2693.63,COWPLAIN FAMILY PRACTICE,-1.017682,50.894248
10.15,THE JUNCTION HC - UNREGISTERED PATIENTS,-0.170756,51.465228
1013.05,BOSWORTH MEDICAL CENTRE,-1.753633,52.480569
606.52,THE HERON PRACTICE,-0.093757,51.568531
1611.05,WESTWAY MEDICAL CENTRE,-2.943932,53.515597
233.89,AL-WAQAS MEDICAL CENTRE,-1.108413,52.62906
1906.54,UPWELL HEALTH CENTRE,0.224238,52.59997
755.92,RAMSEY HEALTH CENTRE,-0.108107,52.448482
1683.09,FAIRBROOK MEDICAL CENTRE,-0.272179,51.659777
329.97,PARTNERSHIP PRIMARY CARE CENTRE,-0.120993,51.554717
1347.02,PWE HEALTHCARE PENDLE,-2.21885,53.838042
489.05,HIGHGREEN PRACTICE (KHAN),-1.171945,52.964495
531.98,GREEN PRACTICE,-0.371755,51.468263
470.52,AVHAC REGISTERED PATIENTS,-2.366921,53.759584
392.76,EAST END MEDICAL CENTRE,0.025228,51.537311
119.18,PRINGLE STREET SURGERY,-2.467594,53.742039
1520.25,THE LANGTON MEDICAL GROUP,-1.837644,52.696405
2,URGENT CARE CENTRE BISHOP AUCKLAND,-1.678547,54.655848
247.2,SOUTHGLADE MEDICAL PRACTICE,-1.17363,52.99873
1632.39,GEORGE CLARE SURGERY,0.051852,52.457422
1896.3,ROWDEN SURGERY,-2.125101,51.453853
2541.71,THE LIGHTHOUSE MEDICAL PRACTICE,0.281363,50.765632
1577.28,STOKESLEY SURGERY,-1.194366,54.470898
12.13,RICHARDSON COMMUNITY HOSPITAL,-1.916153,54.545708
567.23,BALLIOL ROAD SURGERY,-1.471449,52.415924
1028.78,HORSMAN'S PLACE SURGERY,0.214952,51.442468
1034.78,THE VILLAGE SURGERIES GROUP,-2.771265,53.124246
0.46,COMMUNITY MEDICAL TEAM - EAST ELMBRIDGE,-0.357957,51.397382
865.3,THAXTED SURGERY,0.343457,51.95519
10.81,EAST BERKS PRIMARY CARE OOH(WAM),-0.763252,51.415712
725.21,SANDMERE PRACTICE,-0.127558,51.462594
1037.84,THE GABLES MEDICENTRE,-1.508288,52.440912
2073.66,THE CASTLE MEDICAL GROUP,-2.3932,53.873954
704.59,THE RIVERSIDE HEALTH CTR,1.060732,51.945725
608.85,RYALLS PARK MEDICAL CENTRE  YEOVIL,-2.640872,50.951832
278.02,LIMBRICK WOOD SURGERY,-1.578558,52.406833
275.65,DARLASTON HEALTH CENTRE-KHAN,-2.036323,52.56617
574.38,WOLSTON SURGERY,-1.392727,52.376806
627.99,JAUNTY SPRINGS HEALTH CENTRE,-1.417896,53.347684
637.57,THE PRACTICE HEART OF HOUNSLOW,-0.371755,51.468263
829.15,NETHERTON HEALTH CENTRE,-2.079024,52.487973
1421.16,FOREST HOUSE SURGERY,-1.287289,52.766681
1484.21,NEWBOLD SURGERY,-1.450706,53.256108
1181.71,LONGSHORE SURGERIES,1.717841,52.420772
491.23,BARBARA CASTLE HEALTH CENTRE,0.073795,51.748894
1159.14,THORNBURY HEALTH CENTRE - BURNEY,-2.517723,51.612861
1904.04,CHARTER MEDICAL CENTRE,-0.156741,50.831254
3616.24,VINE MEDICAL GROUP,-1.035063,50.878251
1002.85,PRIORY ROAD MEDICAL CENTRE,-1.747812,51.552763
304.42,DR JO ARAYOMI'S PRACTICE,0.505558,51.567734
1798.64,GRAFTON MEDICAL PARTNERS,-0.171386,51.424951
533.21,LABURNUM SURGERY,-1.56822,55.182043
2688.66,GLENROYD MEDICAL CENTRE,-3.033503,53.849555
1493.68,WATERLOO HOUSE SURGERY,-3.268021,54.20894
654.92,ELM LANE SURGERY,-1.460525,53.421626
513.18,LISSON GROVE HEALTH CENTRE,-0.169323,51.524736
241.62,HAMMERSMITH & FULHAM CENTRES FOR HEALTH,-0.234721,51.51742
1045.57,MANOR SURGERY,-1.215037,51.761474
302.62,COCKHEDGE MEDICAL CENTRE,-2.589833,53.390932
1570.72,SEASIDE MEDICAL CENTRE,0.294614,50.773566
1031.42,GLEADLESS MEDICAL CENTRE,-1.451325,53.356551
386.59,BROOKSIDE SURGERY,-1.399088,52.35048
834.04,LUNESDALE SURGERY,-2.602213,54.200573
726.64,HAZELDENE MEDICAL CENTRE,-0.275394,51.547592
17.66,GREENWICH COMMUNITY HEALTH SERVICES,0.174741,51.434795
1331.87,GUDGEHEATH LANE SURGERY,-1.205575,50.859752
1039.79,ST GEORGE'S MEDICAL CENTRE PMS PRACTICE,-1.482825,53.57906
2850.72,PARK SURGERY,-0.327381,51.064354
1040.58,LILLIPUT SURGERY,-1.954229,50.711523
574.75,PEDMORE MEDICAL PRACTICE,-2.118211,52.457029
756.11,DISHLEY GRANGE MEDICAL PRACTICE,-1.240459,52.779192
86.7,ST. KATHERINE'S DOCK PRACTICE,-0.068285,51.506983
1796.16,CHAPELTHORPE,-1.507287,53.644526
10.69,BADGER GROUP OOH,-1.877826,52.477589
409.84,RAYMOND ROAD SURGERY,-1.419748,50.91941
0.85,JULIAN HOUSE HEALTHCARE SERVICE,-2.356708,51.378725
514.05,2/IRLAM MEDICAL PRACTICE,-2.432258,53.437925
3240.33,BEDWORTH HEALTH CENTRE,-1.472657,52.478626
819.22,LIGHTWATER SURGERY,-0.664016,51.351903
508.5,SUNRISE MEDICAL CENTRE,-0.382255,51.51087
960.32,NEWPORT SURGERY,0.208995,51.982816
1198.26,THE GLEBE PRACTICE,-0.670912,53.270911
910.15,BRICKFIELDS SURGERY,0.605168,51.653143
1476.01,LANGPORT SURGERY,-2.827561,51.037993
256.5,BARNSLEY ROAD SURGERY,-1.45693,53.425089
472.28,LISTER HOUSE SURGERY,-0.4515,51.89192
1494.38,GRAHAM ROAD SURGERY,-2.97439,51.34467
803.96,HILL TOP SURGERY,-2.100756,53.52011
801.48,GRANGEWOOD SURGERY,-1.498711,54.866414
1212.31,STABLE FOLD SURGERY,-2.52343,53.552405
290.19,CITY ROAD MEDICAL CENTRE,-0.091116,51.527895
995.41,CONISTON MEDICAL PRACTICE,-2.584043,51.538567
814.15,PARKFIELD MED CTR,-3.00005,53.363076
892.62,GRANGE ROAD SURGERY,-2.61945,51.413052
1324.73,THE HAWTHORNS SURGERY,-1.825965,52.538746
539.15,DR RAHIL'S SURGERY,-2.693285,53.464803
841.13,CASTLEFIELDS,-2.129518,52.801013
771.93,SHEET STREET SURGERY,-0.605507,51.479648
801.73,GLOUCESTER HOUSE MEDICAL CENTRE,-2.352599,53.447337
5035.25,HEREFORD MEDICAL GROUP,-2.720274,52.058534
1700.97,CLAYPATH & UNIVERSITY MEDICAL GROUP,-1.56716,54.7787
782.04,HEATH HAYES HEALTH CENTRE,-1.988284,52.69062
182.43,SHAKESPEARE HEALTH CENTRE,-0.437018,51.498422
862.13,OXFORD STREET SURGERY,-3.550576,54.64373
371.57,HOLMLANDS MED CTR,-3.060475,53.37273
1943.86,LONGFIELD MEDICAL CENTRE,0.678834,51.729336
435.95,NORTON CANES PRACTICE,-1.970246,52.673977
899.35,THE ENDEAVOUR PRACTICE,-1.235397,54.575047
518.02,COWGILL SURGERY,-1.814543,53.781952
486.6,DR MB GHAFOOR & PARTNERS,-2.154239,53.611617
603.72,BLYTH ROAD MEDICAL CENTRE,-1.20365,53.422231
199.63,KADIM PRIMECARE MEDICAL CENTRE,0.330602,51.479903
394.11,THE MOUNTFIELD SURGERY,-0.19422,51.595001
1008.89,WOOLTON HOUSE MEDICAL CTR,-2.867143,53.375388
1112.56,THE CENTRAL SURGERY,-1.082204,52.598976
865.42,ELLIS PRACTICE,-0.276552,51.563894
1726.65,PRIORY MEDICAL GROUP,-1.450123,55.010031
665.12,THE CHESTNUTS & HALLGATE SURGERY,-0.403621,53.778985
404.17,RUSSELL STREET SURGERY,-0.982888,51.452326
385.87,RUGBY ROAD SURGERY,-1.419352,52.476714
935.48,TADCASTER MEDICAL CENTRE,-1.25824,53.885494
1112.88,CLARENDON MEDICAL PRACTICE,-2.284742,53.488361
1690.31,WARDERS MEDICAL CENTRE,0.279212,51.19741
795.02,RIVERSIDE PARTNERSHIP,-0.893061,51.043814
123.44,PLUMBRIDGE MEDICAL CENTRE,-0.013986,51.473207
399.9,BERINSFIELD HEALTH CENTRE,-1.176774,51.663989
1035.5,ELLIOTT HALL MEDICAL CTR.,-0.362526,51.608476
653.15,ROYTON MEDICAL CENTRE,-2.12386,53.565731
1015.01,LUDLOW - PORTCULLIS,-2.715958,52.368905
227.77,ESTUARY MEDICAL PRACTICE,-3.183089,53.373492
695.11,COLNEY HATCH LANE SURGERY,-0.147555,51.600731
0.85,NHS ENGLAND THAMES VALLEY AREA VPS,-1.207764,51.72912
1339.26,NORWOOD SURGERY,-2.97819,53.650008
506.7,BINBROOK SURGERY,-0.178896,53.42766
2020.83,CHEADLE MEDICAL PRACTICE,-2.213539,53.393745
1717.95,CUMBERLAND HOUSE SURGERY,-2.990437,53.638743
1446.92,WOLSELEY MEDICAL CENTRE,-0.355069,53.746195
749.36,THE ARGYLE SURGERY,-0.322592,51.520337
1452.22,PROSPECT MEDICAL CENTRE,-1.646189,54.974185
1212.61,THORNDIKE SURGERY,0.502879,51.380805
897.93,MOORE STREET MEDICAL CENTRE,-3.002523,53.458715
699.48,CHURCH WALK SURGERY,-0.39973,53.13783
296.45,DR GUPTA,0.164714,51.582916
1557.4,HUCKNALL ROAD MEDICAL CENTRE,-1.168398,52.990092
1183.21,HARTSHILL MEDICAL CENTRE,-2.210624,53.009925
1024.46,THE CROFT MEDICAL CENTRE,-1.068661,52.5939
1067.01,YELVERTON SURGERY,-4.082824,50.491344
4.95,PC EXT ACCESS CHILTERN VALE HEALTH,-0.525854,51.884638
821.13,THE BILLESDON SURGERY,-0.93947,52.618174
411.45,BATTERSEA FIELDS PRACTICE,-0.154867,51.473666
542.87,STIRLING MEDICAL CENTRE (MATHEWS),-0.05904,53.573513
714.79,TODDINGTON MEDICAL CENTRE,-0.530482,51.945856
918.73,THE GREENS HEALTH CENTRE,-2.099175,52.529005
650.38,HOPE HOUSE SURGERY,-2.447646,51.291794
830.24,THE SURGERY,-1.367146,52.726986
801.61,ABBEY MEDICAL CENTRE,-0.185132,51.537921
1114.21,WINSCOMBE SURGERY,-2.830537,51.315196
1363.4,LANGLEY HEALTH CENTRE,-0.541284,51.495313
2635.81,CROWN HEIGHTS MEDICAL CENTRE,-1.086312,51.267188
1385.41,MERTON LODGE SURGERY,0.173148,53.259654
1532.17,THE WATERLOO PRACTICE,-1.737438,53.645186
889.55,MARTLESHAM SURGERY,1.272068,52.061314
462.11,WARWICK GATES FAM.HTH.CTR,-1.53869,52.268666
1423.95,MIDDLEWAY SURGERY,-4.713217,50.356439
832.53,SWINGBRIDGE SURGERY,-0.662707,52.901355
4360.34,NEWGATE MEDICAL GROUP,-1.123405,53.301065
1588.3,NORTHFIELD SURGERY,-0.966348,53.613648
1033.43,HEALD GREEN HEALTH CENTRE 1,-2.229276,53.369878
537.35,HOWARD STREET MEDICAL PRACTICE,-1.94969,53.445062
305.16,QUINCY RISE SURGERY,-2.129544,52.467436
1861.06,ALVASTON MEDICAL CENTRE,-1.429622,52.893808
304.21,GILLMOSS MEDICAL CENTRE,-2.897849,53.459458
746.41,ST EDWARDS MEDICAL CENTRE,0.181741,51.580341
1172.87,PRACTICE TWO,-0.201064,54.084715
1470.9,3/SPRINGFIELD HOUSE MEDICAL PRACTICE,-2.362019,53.480252
426.51,MILLBANK MEDICAL CENTRE,-0.130231,51.49403
1345.55,PARKLANDS MEDICAL PRACTICE,-1.781051,53.761106
53.4,GRANGE MEDICARE - NEW CROSS SURGERY,-1.485011,53.747069
2153.07,WELLINGTON ROAD SURGERY,-2.3789,52.764241
1512.24,PARK LANE SURGERY,-2.12262,53.257964
905.78,THE LENNARD SURGERY,-2.613084,51.425915
419.79,DR SEABROOK,-2.632499,53.55143
384.88,MILDMAY MEDICAL PRACTICE,-0.085731,51.552474
1141.29,STILLMOOR HOUSE MEDICAL PRACTICE,-4.720038,50.471929
86.7,NT&H COMM CARDIAC N,-1.227837,54.702398
688.47,ALLERTON MEDICAL CENTRE,-1.533879,53.826921
177.24,CLIFFORD HOUSE MEDICAL CENTRE,-0.406678,51.447323
325.56,FOUNTAINS MEDICAL PRACTICE,-2.892972,53.195093
1841.91,ORCHARD CROFT,-1.54984,53.660001
705.52,CROWN STREET SURGERY,-0.2738,51.507391
19.96,ST HELENS ROTA OOH,-2.750335,53.45324
1270.65,COLNE VALLEY GROUP PRACTICE,-1.928213,53.602096
2114.69,SOUTH PARK SURGERY,-2.12262,53.257964
425.86,BERE REGIS SURGERY,-2.219824,50.752538
316.8,SHIRLAND ROAD MEDICAL CENTRE,-0.203904,51.5292
951.94,THE ISLAND SURGERY,0.591014,51.520226
822.99,FAMILY PRACTICE,-2.216357,53.554714
46.65,GPSI CARDIOLOGY - WESTCLIFFE,-1.781103,53.830481
1001.91,CHURCHILL MEDICAL CENTRE,-0.288192,51.413388
0.42,WARWICKSHIRE GP OOH,-1.478439,52.51258
818.55,THE WINDMILL PRACTICE,-1.13475,52.951951
615.86,HOLLY BANK SURGERY,-2.724149,53.454211
1751.8,HALL GROVE GROUP PRACTICE,-0.181801,51.78932
396.13,RUTLAND HOUSE SURGERY,-0.14424,51.594563
832.67,PEMBROKE ROAD SURGERY,-2.618518,51.464336
936.68,OLD TOWN SURGERY,-1.796355,51.550429
3.91,PUTNOE MEDICAL CENTRE WALK IN CENTRE,-0.438308,52.147939
155.54,MEDICUS HEALTH PARTNERS-RILEY HOUSE,-0.043984,51.664416
328.59,ANDOVER MEDICAL CENTRE,-0.116461,51.561766
895.13,CHURCH STRETTON MEDICAL CENTRE,-2.806169,52.537286
822.67,BARLBOROUGH MEDICAL PRACTICE,-1.284471,53.289528
288.96,HOSSAIN PRACTICE,-2.156747,53.509855
221.16,DR P & S POOLOGANATHAN,0.175968,51.560718
14.19,PRIMARY HEALTHCARE DARLINGTON,-1.561958,54.528141
1195.97,NEW COLLEGIATE MEDICAL CENTRE,-2.236077,53.504378
525.48,MANCHESTER ROAD SURGERY,-1.521086,53.380573
558.58,FRESSINGFIELD MEDICAL CENTRE,1.310808,52.347219
1902.98,THE CROFT SURGERY,-0.657769,50.841375
1259.14,WEST TIMPERLEY MEDICAL CENTRE,-2.353117,53.402699
469.46,QUEENS AVENUE PRACTICE,-0.147916,51.591852
2064.45,NORTHUMBERLAND HOUSE SURGERY,-2.261095,52.38419
1460.86,OXTED HEALTH CENTRE,9.9e-05,51.257686
1242.91,MUCH WENLOCK & CRESSAGE MEDICAL PRACTICE,-2.559942,52.595605
216.13,BURMA HILL PRACTICE,-0.824887,51.417902
125.44,THE MANOR PARK PRACTICE,0.057339,51.55393
1489.36,KNOWLE HOUSE SURGERY,-4.134098,50.40863
254.56,DR A PATEL,0.140105,51.573716
885.41,FRIENDS ROAD MEDICAL PRACTICE,-0.094795,51.371276
272.23,DR A ARIF,0.115343,51.551395
545.16,BEAUMONT LODGE MEDICAL PRACTICE,-1.160488,52.658279
584.7,DR SOORIAKUMARAN,0.698888,51.557721
750.64,ST. JOHN'S STREET SURGERY,-0.499539,52.115134
9.47,HERTS URGENT CARE W/H OOH,-0.191727,51.782567
944.49,HEALD GREEN HEALTH CENTRE 2,-2.229276,53.369878
17.4,THE HEALTH XCHANGE,-1.899156,52.48606
1648.02,ABINGTON MEDICAL CENTRE,-0.865891,52.253262
360.59,BIGHAM ROAD MEDICAL CENTRE,-2.945994,53.413783
362.16,KINGSBURY HEALTH AND WELLBEING,-0.265508,51.591733
278.14,SUNRAY SURGERY,-0.274833,51.382645
720.36,BUCKLANDS END LANE SURGERY,-1.799863,52.497809
1165.59,TILBURY HEALTH CENTRE,0.36622,51.460987
465.23,SPA MEDICAL CENTRE,-1.525278,52.284514
588.3,EVINGTON MEDICAL CENTRE (C KUMAR),-1.106775,52.624264
313.18,CHEPSTOW GARDENS MEDICAL CENTRE,-0.37514,51.517624
778.18,THE MARGARET THOMPSON MED CENTRE,-2.821738,53.345974
636.19,THE DOCTORS HOUSE,0.094191,51.565389
1770.35,NORTH WOOD GROUP PRACTICE,-0.098493,51.42273
389.03,MALVERN ROAD SURGERY,0.557404,51.373817
934.62,PRIORY VIEW MEDICAL CENTRE,-1.575149,53.791635
1859.02,JUBILEE MEDICAL GROUP,-1.580232,54.629667
289.51,DR DHITAL PRACTICE,-0.003074,51.587786
1067.17,EASTFIELD HOUSE SURGERY,-1.323251,51.395555
1573.39,WILSON PRACTICE,-0.966958,51.153736
373.44,DR AKHTAR R,-1.932225,52.547439
735.97,EAST BARNWELL HEALTH CENTRE,0.16722,52.213952
1.69,AIREBOROUGH COMMUNITY CARE,-1.684881,53.866663
783.37,CHIPPING SURGERY,-2.353843,51.636056
2,PERINATAL PSYCHIATRY,-2.217086,52.192053
474.26,STREAMSIDE SURGERY,-2.517723,51.612861
2301.58,NEW MEDICAL CENTRE,-1.388927,53.93028
1778.57,BILLINGE MEDICAL PRACTICE,-2.706951,53.497666
521.37,CORNERSTONE SURGERY,-2.724149,53.454211
1259.12,GROVE MEDICAL CENTRE,-0.545643,51.43119
612.8,THE DEVONSHIRE LODGE PRACTICE,-0.397406,51.579266
480.16,EDGWICK MEDICAL CENTRE,-1.498333,52.432142
2855.21,AUDLEY MILLS SURGERY,0.607129,51.584978
1367.78,WHEATFIELD SURGERY,-0.495144,51.904445
159.56,DR GWD BHIMA,-2.154239,53.611617
2008.87,THE CEDARS SURGERY,-2.925678,51.357753
991.56,BOGNOR MEDICAL CENTRE,-0.67724,50.783629
433.94,WEST HALLAM MEDICAL CTR,-1.359163,52.966624
464.93,KNOTTY ASH MEDICAL CENTRE,-2.88707,53.419961
602.31,ISLINGTON HOUSE MEDICAL CENTRE,-2.964605,53.415791
283.81,HAWTHORN MC,-2.204544,53.443216
728.17,TOWNSIDE SURGERY,-2.29898,53.59031
40.28,CAMBRIDGE ACCESS SURGERY,0.138701,52.20875
432.18,THE LYNDHURST SURGERY,-0.003869,51.571964
1665.18,YARM MEDICAL PRACTICE,-1.355519,54.505305
1463.25,BUCKSHAW VILLAGE HEALTH CENTRE,-2.658003,53.678415
492.37,CHATFIELD MEDICAL CENTRE,-0.182133,51.465863
2030.59,SOVEREIGN PRACTICE,0.302876,50.781493
636.13,CATSHILL VILLAGE SURGERY,-2.054442,52.366603
182.27,LEICESTER ROAD SURGERY,-1.473177,52.483106
1310.36,MEANWOOD HEALTH CENTRE,-1.565811,53.827167
1274.31,ALTON STREET SURGERY,-2.582971,51.911934
234.07,THORNTON LODGE SURGERY,-1.796027,53.637798
1655.74,THE PEEL MEDICAL PRACTICE,-1.697308,52.634794
428.55,THE HEADLAND MEDICAL CENTRE,-1.183105,54.696641
20.91,GP EXTENDED ACCESS HUB SERVICE,-0.306785,51.549713
894.65,MEADOWS SURGERY,-0.151765,50.962136
332.47,THE RISE GROUP PRACTICE,-0.125007,51.571444
90.58,4/LOWER BROUGHTON MEDICAL PRACTICE,-2.258808,53.49359
865.75,ASHCROFT SURGERY,-1.712131,53.823092
1137.62,SHOTFIELD MEDICAL PRACTICE,-0.150861,51.357264
1404.16,KILMENY GROUP MEDICAL PRACTICE,-1.921061,53.855716
675.13,PICKHURST SURGERY,0.010516,51.378032
627.84,UNIVERSITY MEDICAL CENTRE,1.062127,51.296198
515.56,BINCOTE SURGERY,-0.109238,51.653049
1869.82,GROVE SURGERY,0.751477,52.415441
297.69,DR S MORCOS,-0.406024,51.380924
1337.52,CHURCH LANE SURGERY,0.557812,51.889826
1683.41,CHORLTON FAMILY PRACTICE,-2.279717,53.443773
466.4,OXSHOTT MEDICAL PRACTICE,-0.360843,51.333099
1790.58,THE ELIZABETH COURTAULD SURGERY,0.638128,51.941426
457.85,SUNVALLEY MEDICAL PRACTICE,-2.095095,53.537786
1282.48,PROBUS SURGERY,-4.948542,50.290121
748.05,THE AVENUE SURGERY,-0.113425,50.844357
436.4,WILMSLOW ROAD SURGERY,-2.222822,53.452153
2046.28,SCARBOROUGH MEDICAL GROUP,-0.441541,54.297615
702.2,THE HEDGES MEDICAL CENTRE (SA BAILEY),-1.146741,52.591287
1112.53,POOLE ROAD MEDICAL CENTRE,-1.892613,50.72043
1477.99,REEPHAM & AYLSHAM MEDICAL PRACTICE,1.250346,52.793962
3.36,MK HEALTH EXTRA,-0.73576,52.026384
2014.78,BRAMHALL HEALTH CENTRE,-2.162929,53.36001
799.93,KINGSWOOD SURGERY,0.276363,51.132029
2039.91,STOWHEALTH,0.990419,52.194685
1347.37,FOUR ACRE HEALTH CENTRE,-2.723398,53.418906
639.33,PARKGATE SURGERY,-1.548606,54.523273
413.74,FIGGES MARSH SURGERY,-0.16199,51.410694
372.58,BRISET CORNER SURGERY,0.04372,51.458205
378.1,THE STONEBRIDGE PRACTICE,-0.263604,51.542472
803.32,HAIGH HALL MEDICAL PRACTICE,-1.715247,53.831119
1283.15,ALBANY SURGERY,-3.607771,50.528674
1813.93,BEACON PRIMARY CARE,-2.806747,53.550182
240.8,BLACKFRIARS MEDICAL PRACTICE,-0.105775,51.505364
908.03,HALLGARTH SURGERY,-1.643638,54.634883
445.28,DR A GUPTA BENIM MEDICAL CENTRE,-2.947804,53.419395
1998.73,THE BOSMERE MEDICAL PRACTICE,-0.990581,50.850232
1192.03,MOSELEY AVENUE SURGERY,-1.525425,52.419893
833.62,ELIZABETH STREET SURGERY,-3.043658,53.820839
839.9,BENFIELD VALLEY HEALTHCARE HUB,-0.210215,50.838103
1934.21,CHEAM GP CENTRE,-0.225239,51.368621
756.46,MAYBURY SURGERY,-0.53899,51.325599
2958.07,THORNABY & BARWICK MEDICAL GROUP,-1.292128,54.538149
1603.09,MANDALAY MEDICAL CENTRE,-2.432114,53.610583
362.05,CHURCH ROAD,1.088833,51.129481
471.08,HEADY HILL SURGERY,-2.241622,53.593657
492.89,GOLDEN VALLEY PRACTICE,-2.891851,51.952661
543.51,SELLY PARK SURGERY,-1.916435,52.444045
1043.91,COLEFORD FAMILY DOCTORS,-2.615344,51.79146
691.8,GREEN STREET GREEN MED CT,0.089996,51.354366
776.8,TORRINGTON HEALTH CENTRE,-4.140076,50.952056
2214.24,GREAT NORTH MEDICAL GROUP,-1.186019,53.583324
523.94,CROUCH HALL ROAD SURGERY,-0.127301,51.579178
880.9,MEREPARK MEDICAL CENTRE,-2.300747,53.093285
1682.33,SHIREHAMPTON GROUP PRACTICE,-2.67671,51.489093
6.65,ENHANCED GP SERVICE,-0.001361,51.609384
715.26,WEST MOORS GROUP PRACTICE,-1.889688,50.826154
830.2,THE ROTHBURY PRACTICE,-1.91181,55.309091
1181.45,PRACTICE ONE,-0.201064,54.084715
237.76,4 SEASONS MEDICAL CENTRE,-2.588307,53.404594
3986.7,DANEBRIDGE MEDICAL CENTRE,-2.512184,53.258203
888.39,DUNSVILLE MEDICAL CENTRE,-1.02783,53.562539
268.99,DR C OLA'S PRACTICE,0.16367,51.542357
295.19,WALM LANE SURGERY,-0.219557,51.550346
304.17,FEATHERSTONE ROAD HEALTH CENTRE,-0.385214,51.502575
1029.8,SUMMERCROFT SURGERY,0.063057,51.365356
314.89,HIGHGATE MEDICAL CENTRE,-1.88746,52.464365
732.83,NORWICH PRACTICES HEALTH CENTRE,1.298746,52.626316
428.57,DR KHAN'S PRACTICE,-2.184157,53.484308
484.04,MELTHAM GROUP PRACTICE,-1.849419,53.594302
2014.88,AMBROSE AVENUE GROUP PRACTICE,0.862797,51.88063
666.69,VINE MEDICAL CENTRE,-0.358117,51.402141
900.27,HIGH STREET SURGERY,-1.344029,53.459623
1266.35,HOWARD HOUSE SURGERY,1.349626,51.96149
192.98,HELIOS MEDICAL CENTRE,-2.631024,51.475527
1354.33,NORWOOD MEDICAL CENTRE,-1.46987,53.413102
686.51,ALBION SURGERY,-2.964605,53.415791
315.8,SOMERSET BRIDGE MEDICAL CENTRE,-2.995883,51.115105
682.57,DERRY DOWNS SURGERY,0.116651,51.385174
1766.54,THE PINES SURGERY,-0.90249,52.272686
344.89,THE GLENDALE SURGERY,-2.01842,55.546525
854.08,188 THE PRACTICE,-0.204669,51.576422
2316.18,MIDDLETON LODGE PRACTICE,-1.006833,53.20697
1111.96,BEXLEY GROUP PRACTICE,0.109656,51.465832
3.51,HAVEN COURT,-1.428468,54.971208
588.66,WESTON FAVELL MEDICAL CENTRE,-0.841253,52.26834
265.8,BRAMPTON HEALTH CENTRE,-0.277386,51.586099
297.26,ACRE SURGERY,-0.411552,51.604465
1089.45,UNION BRAE & NORHAM PRAC,-2.011778,55.766713
1558.84,OLD BRIDGE SURGERY,-4.455308,50.356813
2686.75,CHEVIN MEDICAL PRACTICE,-1.693762,53.906876
1522.07,THE OAKS PARTNERSHIP,0.17414,51.395165
1077.17,CHURCH LANE HEALTH CENTRE,0.941162,50.984187
2870.43,SOUTH LEICESTERSHIRE MEDICAL PARTNERSHIP,-0.997348,52.535941
110.1,WORKING AGE ADULTS - LECKHAMPTON LODGE,-2.073674,51.881059
972.88,EAST HILL SURGERY,0.909325,51.890029
1683,OXFORD TCE & RAWLING RD MEDICAL GROUP,-1.60628,54.954302
1048.02,TAVERHAM PARTNERSHIP,1.196182,52.681489
1114.27,PINFOLD MEDICAL PRACTICE,-1.203159,52.771542
844.12,WATERINGBURY,0.4255,51.255633
1141.08,QUEENSWOOD MEDICAL PRACTICE,-0.13076,51.583541
930.33,ST. ANDREWS SURGERY,0.010984,50.871814
1919.24,DARWIN MEDICAL CENTRE,-1.831505,52.694061
686.36,MORETON MEDICAL CENTRE,-3.110005,53.39886
312.73,CRABBS CROSS MEDICAL CENTRE,-1.943704,52.281407
2265.24,IRWELL MEDICAL PRACTICE,-2.198274,53.699744
1414.17,THE ORCHARD PARTNERSHIP,-1.865867,51.077878
565.97,STONECROFT MEDICAL CENTRE,-1.425314,53.345562
2863.86,COMBE COASTAL PRACTICE,-4.126847,51.203741
769.27,ALMA ROAD SURGERY,-1.40037,50.921777
1195.76,CHAPEL LANE SURGERY,-3.061428,53.557075
1708.03,ROBOROUGH SURGERY,-4.115078,50.42747
1341.59,GARDEN LANE MEDICAL CTR.,-2.896359,53.195274
1182.33,WIDEOPEN MEDICAL CENTRE,-1.624517,55.048256
544.79,THE ABINGDON HEALTH CENTRE,-0.197138,51.496085
1340.75,SOUTH MOLTON MEDICAL CENTRE,-3.832514,51.018277
1862.55,THE SNAITH AND RAWCLIFFE MEDICAL GROUP,-1.024414,53.689286
856.84,RAMSBURY SURGERY,-1.593915,51.446259
512.96,SOHO ROAD PRIMARY CARE CENTRE,-1.934945,52.503094
516.66,THE NIGHTINGALE PRACTICE,-0.062434,51.558261
4124.05,THE ROXTON PRACTICE,-0.205351,53.618722
290.17,EASTMOOR HEALTH CENTRE,-1.476864,53.690004
1064.92,RAYDOCS NEWTOWN,-1.904505,52.497976
1298.11,SANDGATE ROAD,1.159013,51.076576
