total_cost,name,longitude,latitude
827.05,COLVILLE HEALTH CENTRE,-0.206231,51.515837
746.12,RICHMOND MEDICAL GROUP,-0.267239,51.465848
281.22,ARCHWAY MEDICAL CENTRE,-0.126124,51.562541
362.47,ATHENA MEDICAL CENTRE,-0.053257,51.554943
2136.05,LAKE ROAD PRACTICE,-1.078356,50.804825
914.53,ROUNDWELL MEDICAL CENTRE,1.203795,52.648844
2675.8,ST.JAMES SURGERY,1.147433,51.787326
680.05,THE MAYFLOWER MEDICAL PRACTICE,-1.01945,53.431872
573.95,HYLTON MEDICAL GROUP,-1.414195,54.908604
1091.28,EDENFIELD ROAD SURGERY,-2.188671,53.622297
255.2,THE EXMOOR SURGERY,-0.217218,51.522362
1643.97,CLEVEDON MEDICAL CENTRE,-2.84572,51.437228
440.45,ST ALBANS SURGERY,0.133341,51.537112
647.6,COLLINGWOOD FAMILY PRACTICE,-1.903405,52.55667
755.68,POPLAR HOUSE SURGERY,-3.03076,53.754721
866,MARTON MEDICAL PRACTICE,-3.034524,53.812843
742.24,OAKRIDGE PARK MEDICAL CENTRE,-0.777853,52.068655
729.79,THE TUDOR HOUSE MEDICAL CENTRE,-0.266689,51.564495
800.3,GRANGE STREET SURGERY,-0.335878,51.757298
929.38,THE PARK SURGERY,1.729276,52.606218
1269.34,BIDDULPH VALLEY SURGERY,-2.178498,53.116111
230.61,THE BALAJI SURGERY  THE SPARKBROOK CHC,-1.871333,52.462659
357.2,HARLEY GROVE MEDICAL CTR.,-0.027752,51.527964
593.62,STREATFIELD HEALTH CENTRE,-0.30812,51.593812
577.82,THE LIMES SURGERY MEDICAL CENTRE,-2.114052,52.456884
401.75,STAVERTON SURGERY,-0.22584,51.544182
446.4,SPRINGWELL MEDICAL GROUP,-1.422181,54.890239
824.77,DR WS RIDDELL'S PRACTICE,-1.223723,53.260141
805.15,VIOLET LANE MEDICAL PRACTICE,-0.107972,51.360366
870.24,PARKSIDE GROUP PRACTICE,-0.098549,51.350645
593.08,BEDFORD HILL FAMILY PRACTICE,-0.149067,51.44085
890.07,KINGS MEDICAL CENTRE,-1.216402,54.571717
948.66,SILVERDALE PRACTICE,-0.121708,50.952843
1407.12,PENNY'S HILL PRACTICE,-1.894499,50.801788
482.49,APPLEBY SURGERY,-1.456596,55.011193
545.07,ASHWELL MEDICAL CENTRE,-1.778612,53.803786
143.4,BARTON SURGERY,-4.088247,50.359085
471.89,AVON VALLEY PRACTICE,-1.812104,51.294105
2092.42,THE ARMADA FAMILY PRACTICE,-2.571861,51.413438
622.59,WOODVIEW MEDICAL CENTRE,-0.841889,52.268682
1624.31,PRINCES GARDENS SURGERY,-0.766458,51.250407
3.48,COMMUNITY NURSING,-2.372621,51.358169
1259.53,WELLFIELD HEALTH CENTRE,-2.147479,53.606581
383.02,BRAITHWAITE RD SURGERY,-2.574985,53.477412
1003.97,SEDLESCOMBE & WESTFIELD SURGERIES,0.534725,50.934129
0.14,PDS MEDICAL OOH,-3.023363,53.797158
612.41,RIVERSIDE SURGERY,0.180773,51.479567
1006.89,RIDGEWAY VIEW FAMILY PRACTICE,-1.791571,51.524175
1515.43,SCHOPWICK SURGERY,-0.299293,51.645362
649.82,THE WOOTTONS SURGERY,0.437136,52.790343
245.62,THE WILLOWS MEDICAL PRACTICE,-2.309137,53.485461
470.47,STRATFORD VILLAGE SURGERY,0.006461,51.542096
324.69,MIRFIELD SURGERY,-1.776956,52.469072
856.19,COMMONWEALTH HEALTH CENTRE,0.36308,51.463166
695.69,HENDON WAY SURGERY,-0.241873,51.579182
508.01,JUBILEE HEALTHCARE,-1.518884,52.403423
1913.12,THE ELMS MEDICAL CENTRE,0.557729,51.4201
566.18,WIGMORE MEDICAL CENTRE,0.588765,51.352272
1143.55,VICTORIA ROAD SURGERY,1.716498,52.471024
3.5,INTEGRATED CARE 24 LTD (CWSX OOH),0.891514,51.129106
689.39,CHURCH HILL SURGERY,1.229008,52.428527
701.59,E HARLING & KENNINGHALL MEDICAL PRACTICE,0.932279,52.43909
1394.15,WATLING MEDICAL CENTRE,-0.262021,51.603291
230.02,OXFORD ROAD MEDICAL PRACTICE,-1.603365,54.699579
123.94,DR SURYANI,-2.070174,52.552984
2417.67,CARN TO COAST HEALTH CENTRES,-5.268154,50.226222
746.33,OLD HARLOW HEALTH CENTRE,0.134039,51.784038
1606.07,NORTHAM SURGERY,-4.215465,51.038082
266.91,KIRKDALE MEDICAL CENTRE,-2.973842,53.433523
1479.39,WEAVERS MEDICAL,-0.733538,52.401531
1199.57,LITTLEWICK MEDICAL CENTRE,-1.304838,52.966452
911.47,ST JAMES' MEDICAL CENTRE,-2.289474,53.708959
417.4,REVEL SURGERY,-1.361421,52.41228
306.78,RUDGWICK MEDICAL CENTRE,-0.450643,51.090073
594.91,COACHMANS MEDICAL PRACTICE,-0.203875,51.096335
950.52,BISHOPS CLOSE MEDICAL PRACTICE,-1.599142,54.699817
267.34,DR YADAVA N PRACTICE,0.334586,51.476703
716.23,LONG CLAWSON MEDICAL PRACTICE,-0.923909,52.839215
874.14,ABBEY MEDICAL PRACTICE,-1.951015,52.091043
403.49,REDBURN PARK MEDICAL CENTRE,-1.474775,55.00092
429.69,THE DENSHAM SURGERY,-1.318986,54.561625
410.58,ROSERTON STREET SURGERY,-0.010049,51.498482
835.24,DR FIRTH AND PARTNERS,-0.608263,51.713308
0.33,ENFIELD COMMUNITY SERVICES,-0.084383,51.662127
1756.17,QUEENSWAY  MEDICAL CENTRE,0.714012,51.541786
544.46,BRUCE GROVE PRIMARY HEALTH CARE CTR,-0.070141,51.592004
904.26,KEATS GROVE SURGERY,-2.099546,52.614561
427.28,CRICK MEDICAL PRACTICE,-1.135861,52.343212
166.36,SILTON SURGERY,-2.315694,51.074742
608.49,FISHERGATE HILL SURGERY,-2.714363,53.754455
0.1,WWL NURSES,-2.629091,53.55774
919.86,APPLETREE MEDICAL PRACTICE,-1.486919,52.985104
1138.44,SOUTH LEWISHAM GROUP PRACTICE,-0.013043,51.430269
37.14,NAYAR JK,-0.368366,53.768793
163.17,SPEKE HC - DR SINGH & DR BICHA,-2.838793,53.340911
38.74,BRADFORD STUDENT HEALTH SERVICE,-1.768359,53.785323
2487.28,STANMORE MEDICAL GROUP,-0.204612,51.913274
419.18,HARTLAND SURGERY,-4.482549,50.992721
384.88,KIRPAL MEDICAL PRACTICE,-1.934945,52.503094
2,RICHMOND GP ALLIANCE,-0.313083,51.415592
1004.6,FARNHAM DENE MEDICAL PRACTICE,-0.777405,51.200549
148.66,THE ADDERLANE SURGERY,-1.845745,54.962605
601.58,DR BAKER & PARTNERS,0.548167,51.570733
711.68,THE PANTON PRACTICE,-1.862595,50.72093
1431.13,CLEVELEYS GROUP PRACTICE,-3.042545,53.875111
279.07,BRAMLEY AVENUE SURGERY,-0.141707,51.323235
821.09,THE WEARDALE PRACTICE,-2.002656,54.746005
624.79,LEA ROAD MEDICAL PRACTICE,-2.140864,52.575971
370.37,THE ROBINS SURGERY  HAROLD HILL HEALTH C,0.224895,51.606266
283.07,THE CEDAR PRACTICE,-0.093757,51.568531
262.44,BOLEYN ROAD PRACTICE,0.031124,51.538882
1356.38,DMC ST MARYS ISLAND SURGERY,0.538105,51.406776
2002.32,TAMAR VALLEY HEALTH,-4.320073,50.503476
517.82,THE ROEHAMPTON SURGERY,-0.242431,51.451154
486.06,ROYAL CRESCENT,-2.078966,51.900098
728.67,CHURCHWOOD MEDICAL PRACTICE,0.539934,50.878228
628.96,AKSYR MEDICAL PRACTICE,-0.263604,51.542472
480.11,NEWNHAM WALK SURGERY,0.110503,52.199281
682.8,MARKET SURGERY,1.253177,52.791348
696.07,THE MEDICAL CENTRE BUNTINGFORD,-0.02183,51.949019
1517.76,PARK LANE SURGERY,-0.021245,51.746514
313.44,COVENT GARDEN MEDICAL CENTRE,-0.123689,51.515564
0.15,NEAS NORTH TYNESIDE CCG,-1.712365,54.969713
197.08,WINDSOR MEDICAL CENTRE,-1.622157,53.693875
709.81,THE VILLAGE MEDICAL CENTRE,-0.647436,51.51295
333.47,WHITBURN SURGERY,-1.364667,54.952795
1309.72,ABBEY SURGERY,-4.150401,50.546904
0.79,URGENT CARE CENTRE (NELFT),0.002638,51.578831
631.81,HAMPSTEAD GROUP PRACTICE,-0.163076,51.553171
2.96,EAST LANCS MEDICAL SERVICE OOH,-2.442698,53.747769
1097.39,NEW FOREST MEDICAL GROUP,-1.576665,50.81471
385.67,DISTINGTON SURGERY,-3.541351,54.595305
1130.02,ROSEDALE SURGERY,1.705996,52.457187
472.73,DRS RAJCHOLAN & GEORGE,-2.057836,52.613672
274.59,GREEN LANE  GOODMAYES MEDICAL PRACTICE,0.113559,51.563316
981.9,NORTHBROOK HEALTH CENTRE,-1.821273,52.419657
1029.09,GORTON MEDICAL CENTRE,-2.171985,53.463168
495.13,YEADING MEDICAL CENTRE,-0.397019,51.533634
486.19,BEESTON VILLAGE SURGERY,-1.569152,53.772415
138.71,MATLOCK ROAD SURGERY,-0.157915,50.843638
0.23,CBS OOH,-1.233579,53.134573
1046.06,WATERFRONT AND SOLENT SURGERY,-1.403379,50.870013
247.13,GARSTON FAMILY HEALTH CENTRE,-2.89683,53.353909
458,NORTHERN MOOR MEDICAL PRACTICE,-2.285109,53.408049
864.34,EMERSONS GREEN MEDICAL CENTRE,-2.477023,51.492762
1428.71,THE GREEN HOUSE SURGERY,-1.068807,54.599299
269.16,BATTERSEA RISE GROUP PRACTICE,-0.163474,51.460833
1575.59,DRAYTON MEDICAL PRACTICE,1.226086,52.679249
179.51,HAVERFIELD SURGERY,-0.449803,51.711933
375.09,GLOUCESTER HEALTH ACCESS CENTRE,-2.239997,51.862659
1223.47,ST STEPHENS GATE MEDICAL PARTNERSHIP,1.286835,52.623967
1540.03,MARKET CROSS SURGERY,0.510146,52.343506
1721.33,STOCKPORT MEDICAL GROUP,-2.177788,53.402873
588.73,EMPINGHAM MEDICAL CENTRE,-0.593784,52.667718
637.2,FOSSE MEDICAL CENTRE (GK SHARMA),-1.152153,52.636707
710.55,FARROW MEDICAL CENTRE,-1.74312,53.802511
1663.56,THE HAYMARKET HEALTH CTR,-2.211781,53.060343
105.09,CHARLOTTE STREET SURGERY,-2.424635,53.592518
623.42,SHERBOURNE MEDICAL CENTRE,-1.532618,52.29289
729.86,CHURCH LANGLEY MEDICAL PRACTICE,0.132734,51.767477
371.83,ELGIN CLINIC,-0.198468,51.524818
1722.04,COWES MEDICAL CENTRE,-1.302115,50.75145
1026.63,THE BRIDGE GROUP PRACTICE,-0.375759,53.787555
5.17,DUDLEY URGENT CARE CENTRE OOH,-2.118518,52.502944
717.48,PADDOCK AND LONGWOOD FAMILY PRACTICE,-1.80546,53.642119
979.84,DYKES HALL MEDICAL CENTRE,-1.506024,53.40514
210.25,ALBION STREET SURGERY,-0.133965,50.827627
1001.22,WIVENHOE SURGERY,0.961234,51.856059
919.76,BRIGSTOCK & SOUTH NORWOOD PARTNERSHIP,-0.109304,51.395046
195.8,BROOKFIELD PARK SURGERY,-0.142656,51.563724
1182.12,ALBION PLACE MEDICAL PRACTICE,0.529542,51.274206
120.4,BROADMEAD MEDICAL CENTRE,-2.58948,51.457392
162.02,DR SJC CLAY'S PRACTICE,-1.216618,52.72642
729.47,WEOBLEY & STAUNTON ON WYE SURGERIES,-2.87187,52.159258
697.56,THORNTON & VALLEY PARK SURGERY,-0.120709,51.388871
996.49,LITTLE LONDON SURGERY,-1.979284,52.574984
533.81,MULBERRY HOUSE SURGERY,-1.402391,50.931652
1255.3,BEDLINGTONSHIRE MED.GROUP,-1.598682,55.1322
737.33,MILLVIEW SURGERY,-1.203958,53.144123
303.74,COURT THORN SURGERY,-2.826247,54.801828
1606.15,COASTAL VILLAGES PRACTICE,1.685649,52.674686
453.47,CROSTON MEDICAL CENTRE,-2.773743,53.666146
444.28,PARK VIEW SURGERY,-0.435833,53.72979
11.2,COMMUNITY INTERMEDIATE CARE SERVICE,-2.455551,53.733223
826.55,CORNERWAYS MEDICAL CENTRE,-2.85592,53.422901
641.59,BRENTFIELD MEDICAL CENTRE,-0.260251,51.550588
0.75,SUCCESS CENTRE - MOREDON,-1.807069,51.582197
663.33,ASHFIELD HOUSE (ANNESLEY),-1.256047,53.07651
259.32,EASTHAMPSTEAD SURGERY,-0.753965,51.405543
128.25,ACTON TOWN MEDICAL CENTRE,-0.28217,51.50246
1656.64,ST MARY'S SURGERY,0.258109,52.398364
546.88,SOUTHVIEW MEDICAL PRACTICE,-0.559823,51.313647
529.43,SMA MEDICAL PRACTICE,-0.008594,51.571154
885.08,HUMBERSTONE MEDICAL CENTRE (IP JONES),-1.089641,52.645126
452.64,CHACEWATER HEALTH CENTRE,-5.155777,50.25596
1006.25,DR MAASSARANI & PARTNERS,-2.88656,53.495201
470.08,UPMINSTER BRIDGE SURGERY,0.235279,51.558957
387.75,DR DEVARAJA VC PRACTICE,0.44359,51.520015
856.16,HENFIELD MEDICAL CENTRE,-0.275597,50.936107
858.58,CHEDDAR MEDICAL CENTRE,-2.775544,51.274669
578.33,BEACONSFIELD MEDICAL PRACTICE,-0.148293,50.838378
541.31,QUEENS ROAD MEDICAL CENTRE,-0.02047,51.579799
120.73,RDASH FT COMMUNITY NURSING,-1.146558,53.497488
2.15,HP NMP'S NW CCG,-1.143101,53.130244
842.8,STENNACK SURGERY,-5.484395,50.210854
284.76,ROCHESTER ROAD SURGERY,0.390394,51.435136
105.73,MINSTER MEDICAL CENTRE,0.793061,51.415409
309.83,BROOKLANDS HEALTH CENTRE,-0.675657,52.044408
360.45,WIDDRINGTON SURGERY,-1.62051,55.240248
817.42,HARBURY SURGERY,-1.458027,52.236759
438.39,THE ALLENDALE ROAD SURGERY,-0.319827,51.551186
188.58,BEGG PRACTICE,-0.179391,51.459968
774.6,PARKGATE SURGERY,-2.882743,53.564772
0.93,FRIMLEY PRIMARY CARE OOH,-0.742029,51.319666
405.36,ALL SAINTS SURGERY,-1.644121,52.794285
359.81,KNOCKIN MEDICAL CENTRE,-2.993042,52.79343
495.24,LIME GROVE MEDICAL CENTRE,-1.55303,53.139004
392.8,DEVONSHIRE GREEN MEDICAL CENTRE,-1.477593,53.379509
793.61,3/LOWER BROUGHTON MEDICAL PRACTICE,-2.258808,53.49359
449.71,DR NAVIN KUMAR,0.70187,51.544989
498.47,THE MEADOWS SURGERY,-0.53774,52.399512
205.39,MAYFAIR MEDICAL CENTRE,-0.150172,51.513536
807.22,ST LEONARDS PRACTICE,-3.522731,50.723743
739.78,HELSBY STREET MED/CTR,-2.576324,53.39498
1488.28,BISHOPGATE MEDICAL CENTRE,-1.676211,54.659158
1915.5,WOKINGHAM MEDICAL CENTRE,-0.831068,51.411661
890.23,HOLYCROFT SURGERY,-1.914477,53.863828
214.52,HOLBORN MEDICAL CENTRE,-0.118539,51.522233
192.12,ALVERTHORPE,-1.518486,53.685476
309.15,ROMAN ROAD HEALTH CENTRE,-2.472202,53.728431
1061.57,IVRY STREET MEDICAL PRACTICE,1.148624,52.064021
675.43,ASHLEY CENTRE SURGERY,-0.270061,51.33244
354.4,DOCTORS' SURGERY,-2.187672,53.55683
1203.58,DUNCHURCH SURGERY,-1.290193,52.337874
49.61,THE GREENHOUSE WALK-IN,-0.055343,51.538827
877.88,HANDFORTH HEALTH CENTRE,-2.214647,53.347874
623.71,ENDERBY MEDICAL CENTRE,-1.211488,52.587061
92.74,ABBEY MEDICAL CENTRE,-0.982406,51.453949
13.18,HOSPITAL AT HOME,-0.831575,51.410524
1068.28,THE GRANGE MEDICAL CENTRE,-1.458215,52.526837
678.39,BIRCHWOOD MEDICAL PRACTICE,-0.605376,53.215749
494.08,THE GABLES MEDICAL GROUP,-1.564429,55.140811
1682.5,THE HAMILTON PRACTICE,0.114548,51.757005
1343.07,GRAYSHOTT SURGERY,-0.745626,51.110093
575.17,LITTLEBOROUGH GROUP PRACTICE,-2.103349,53.642995
374.92,BROWNLOW HEALTH  @ PRINCES PARK,-2.95165,53.391535
1.07,PATHFINDER GP,-2.512253,53.504428
3,ASHLEY INTERMEDIATE CARE CTR,-2.044846,51.883772
1271.02,CENTRAL UXBRIDGE SURGERY,-0.475739,51.546229
3.45,MEDICUS HEALTH PARTNERS-GREEN STREET,-0.044502,51.657069
913.72,PENKRIDGE MEDICAL PRACTICE,-2.118352,52.725728
1939.01,BECCLES MEDICAL CENTRE,1.562886,52.453288
469.49,ST JAMES MEDICAL PRACTICE2,-2.097323,52.514234
1.58,THE HAMBLEDEN CLINIC,-0.089556,51.463601
233.74,GLADSTONE ROAD SURGERY,-0.608263,51.713308
975.59,KEYWORTH MEDICAL PRACTICE,-1.093411,52.871477
150.04,KEELE PRACTICE,-2.273581,53.003262
1617.54,BRIDGNORTH MEDICAL PRACTICE,-2.422947,52.537874
999.72,BENHILL & BELMONT PRACTICE,-0.19029,51.366603
659.46,DATCHET HEALTH CENTRE,-0.576314,51.482057
163.51,ROOD END MEDICAL PRACTICE,-1.999691,52.494094
3.03,NEMS OOH,-1.146156,52.947802
1.98,BUCKS UTC & OOH,-0.771127,51.633345
333.97,TUDOR HOUSE MEDICAL PRACTICE,-1.149856,52.990599
1228.34,THE ROBERT DARBISHIRE PRACTICE,-2.226177,53.454626
1027.16,WENTWORTH MEDICAL PRACTICE.,-0.187898,51.607748
215.68,DOWNSFIELD MEDICAL CENTRE,-1.77969,52.466938
1977.77,MARYPORT HEALTH SERVICES,-3.494531,54.706432
392.34,HOPWOOD HOUSE MEDICAL PRACTICE,-2.095467,53.542109
663.98,LANE ENDS SURGERY,-2.727014,53.770173
881.05,TEMPLE FORTUNE MEDICAL GROUP,-0.197845,51.581101
495.67,LYDDEN SURGERY,1.23991,51.163193
453.24,DMC CHADWICK ROAD,-0.074257,51.467864
545.6,MILLSTREAM MEDICAL CENTRE,-1.797547,51.071683
923.54,HELSBY HEALTH CENTRE,-2.770522,53.270467
295.02,DR AP KUMAR,-0.05904,53.573513
456.12,COMMONFIELD RD SURGERY,-3.086369,53.370187
178.31,STATION SURGERY,-2.690615,53.698033
1267.22,APPLETON VILLAGE SURGERY,-2.729552,53.371391
603.54,CALOW AND BRIMINGTON PRACTICE,-1.396121,53.257848
766.9,FIRTH PARK SURGERY,-1.445847,53.417523
342.51,BOTOLPH BRIDGE COMMUNITY HEALTH CENTRE,-0.261557,52.562595
332.07,SPRINGFIELD MEDICAL PRACT,-1.859629,52.444953
428.54,ROCK COURT SURGERY,-2.916187,53.411597
92.61,BRIGHTON STATION HEALTH CENTRE,-0.141323,50.827937
544.95,VILLAGE SURGERY,-0.350376,51.023691
611.71,STUBLEY MEDICAL CENTRE,-1.488541,53.304986
692.66,NEWTON HEATH MEDICAL CENTRE,-2.181199,53.500995
530.22,NORTHWAY MEDICAL CENTRE,-2.130997,52.548105
458.72,SHREEJI MEDICAL CENTRE,-0.606689,51.518363
321.66,KIYANI MEDICAL PRACTICE,0.0021,51.555415
1326.52,TONBRIDGE MEDICAL GROUP,0.275507,51.185826
325.78,DERBYSHIRE ROAD SOUTH SURGERY,-2.310144,53.416957
716.15,RITCHIE STREET GROUP PRACTICE,-0.107858,51.53474
790.05,CENTRAL SURGERY - SOUTHCHURCH BLVD,0.739537,51.54219
1461.34,FOREST MEDICAL,-1.205754,53.14969
408.9,CATHERINE HOUSE SURGERY,-3.683479,50.429832
1189.74,EAST LEAKE MEDICAL GROUP,-1.177129,52.83403
897.81,PENDLE VIEW MEDICAL CTRE,-2.232263,53.826018
213.73,GREYSTONES MEDICAL CENTRE,-1.510002,53.363853
1034.72,KING EDWARD ROAD SURGERY,-0.866422,52.242766
558.54,BOUNDARY COURT SURGERY,-0.059836,51.623784
5.65,THANET INTEGRATED ACUTE RESPONSE,1.387926,51.377178
92.79,BLAYDON GP LED PRACTICE,-1.696266,54.958098
496.17,SHEERNESS HEALTH CENTRE,0.766639,51.436119
1193.15,ALCONBURY SURGERY,-0.256797,52.371699
908.88,ORCHARD SURGERY MELBOURN,0.020092,52.080651
1233.94,NUNWELL SURGERY,-2.507177,52.187931
130.11,SOMERSET FHP O,-0.369034,51.523141
1519.57,DR L FREEMAN & PARTNERS,-1.449442,53.752493
620.83,THE BASSINGHAM SURGERY,-0.636987,53.126641
674.61,LONGLEVENS SURGERY,-2.212032,51.875911
617.31,NANTWICH HEALTH CENTRE,-2.518506,53.068155
417.79,ESTOVER SURGERY,-4.0952,50.411271
1343.57,SUNNY MEED SURGERY,-0.551243,51.315439
1.25,THOMAS LINACRE SPECIALIST,-2.629091,53.55774
1710.72,SEA MILLS SURGERY,-2.649928,51.484587
230.48,THE SYMONDS GREEN HEALTH CENTRE,-0.22159,51.91302
898.14,RIDGE GREEN MEDICAL PRACTICE,-1.836242,51.567683
306.18,BALMORAL GARDENS,0.547786,51.385637
1695.23,STONYHILL MEDICAL PRACTICE,-3.047383,53.781401
1463.17,FURLONG MEDICAL CENTRE,-2.208139,53.063325
323.89,THE SURGERY (BARRETTS GROVE),-0.078285,51.5522
432.32,STILLINGTON SURGERY,-1.108927,54.103615
1171.81,BARNARD CASTLE SURGERY,-1.916153,54.545708
578.17,CROSSROADS MEDICAL PRACTICE,-0.587134,53.183432
463.03,PRINCES MEDICAL CENTRE,-0.359925,53.753343
1017.13,TWYFORD SURGERY,-0.862762,51.481804
241.59,HIGHTOWN VILLAGE SURGERY,-3.058369,53.530081
1841.54,BURNLEY GROUP PRACTICE,-2.238948,53.791326
1240.69,BARBOURNE HEALTH CENTRE,-2.224952,52.208752
2.37,NHS SOUTH CHESHIRE CCG NMP'S,-2.45397,53.098813
662.3,SUDBURY & ALPERTON MEDICAL CENTRE,-0.298046,51.536916
444.15,THORNS ROAD SURGERY,-2.109345,52.472042
325.43,ALDERSBROOK MEDICAL CENTRE,0.038356,51.560671
540.23,QUARRY BANK MEDICAL CENTRE,-2.102402,52.471845
6.09,NORTHUMBERLAND COMMUNITY SERVICE,-1.508192,55.020469
335.17,OLD SCHOOL SURGERY,0.535827,51.09887
230.47,GROBY SURGERY,-1.225017,52.661865
755.06,HIGH STREET MEDICAL CENTRE,-2.282777,51.747097
498.72,MEVAGISSEY SURGERY,-4.788601,50.270644
6.91,BRISDOC HEALTHCARE SERVICES OOH,-2.596274,51.428746
323.61,REGENCY SURGERY,-0.136165,50.82196
626.31,THE SLIEVE SURGERY,-1.927168,52.520008
1343.53,KING'S MEDICAL PRACTICE,-1.419613,53.700643
2228.63,EASTWOOD PRIMARY CARE CENTRE,-1.307753,53.016064
1572.71,TODMORDEN GROUP PRACTICE,-2.092159,53.713651
681.74,THE ALMONDBURY SURGERY,-1.751311,53.631868
0.27,ST CHARLES UCC CENTRE WIC,-0.217218,51.522362
923.81,MARPLE BRIDGE SURGERY,-2.053323,53.400594
1766.59,STRAND MEDICAL GROUP,-0.41094,50.818463
823.32,THORNTON MEDICAL CENTRE,-1.576209,53.791908
333.43,CHEVELEY PARK MEDICAL CTR,-1.525818,54.7856
657.24,THE RED PRACTICE WALTON,-0.406024,51.380924
519.02,HIGH STREET SURGERY,-0.037483,51.708474
204.86,THE INGHAM SURGERY,-0.57717,53.336945
556.04,SADDLERS HEALTH CENTRE,-1.979464,52.587684
1.07,NSC BOSWORTH HUB,-1.753633,52.480569
620.85,THE GLEN MEDICAL GROUP,-1.52187,54.97385
494.55,HILLINGDON HEALTH CENTRE,-0.448053,51.551621
829.99,BROCKWORTH SURGERY,-2.156696,51.844575
0.75,DMC SHEPPEY-W.I. CLINIC,0.793061,51.415409
304.26,GRANGE ROAD MEDICAL PRACTICE,-1.763413,54.972384
1010.53,WESTERHOPE MEDICAL GROUP,-1.686811,54.997777
387.64,BROUGHTON HOUSE SURGERY,-1.636312,53.713801
549.75,WESTCROFT HEALTH CENTRE,-0.795699,52.006367
1005.45,THE WALL HOUSE SURGERY,-0.208192,51.241304
859.65,THE DUNSTAN PARTNERSHIP,-2.384279,53.582354
996.46,ODIHAM HEALTH CENTRE,-0.94103,51.254544
8.47,SHAKESPEARE WIC,-1.525196,53.802098
5,EPSOM DAY SURGERY UNIT,-0.255324,51.334461
301.17,CENTRAL CLINIC,-2.075775,52.507977
818.78,ROYAL ARSENAL MEDICAL CENTRE,0.073476,51.493492
1261.26,HEACHAM GROUP PRACTICE,0.491184,52.90988
1381.42,OLD ROAD WEST SURGERY,0.367195,51.433655
1074.18,LONG CATLIS ROAD SURGERY,0.595579,51.348325
1574.41,THE GRANGE MEDICAL CENTRE,-1.354248,53.611836
585.24,CHASE CROSS MEDICAL CENTRE,0.164796,51.600118
4490.62,PRIORY MEDICAL GROUP,-1.129435,53.949388
10.05,DODDINGTON LUCS,0.058102,52.497587
808.91,BEECHWOOD SURGERY,0.292731,51.608567
658.2,ST GEORGE'S MEDICAL CENTRE,-2.189031,53.509666
390.26,YORK ROAD SURGERY,-1.348576,53.435091
1560.74,SOUTH GRANGE MEDICAL GROUP PRACTICE,-1.166506,54.569955
270.7,ASHCROFT SURGERY,-0.71666,51.898041
1709.47,WESTBOURNE MEDICAL CENTRE,-1.90343,50.723515
1416.35,EAST BARNET HEALTH CENTRE,-0.166424,51.646339
1536.41,LITCHDON MEDICAL CENTRE,-4.041711,51.069586
33.59,OPEN DOOR,-0.068703,53.572249
1092.1,SALFORD PRIMARY CARE TOGETHER,-2.423902,53.529872
397.07,GROVE HILL MEDICAL CENTRE,-0.457357,51.772315
186.1,HOUNSLOW FAMILY PRACTICE,-0.366799,51.471773
671.7,HILLTOP MEDICAL PRACTICE,-0.263604,51.542472
900.86,FRIARY HOUSE SURGERY,-4.128292,50.37266
1278.66,MYTHE MEDICAL PRACTICE,-2.153433,51.99229
1804.48,WILLIAM BROWN CENTRE,-1.33142,54.757994
9.68,UNIVERSITY HEALTH SERVICE HEALTH CENTRE,-1.482709,53.380323
675.25,HT PRACTICE,-2.110496,53.478305
330.84,BARNT GREEN SURGERY,-1.991028,52.35999
989.13,NEASDEN MEDICAL CENTRE,-0.247382,51.559667
573.27,LANGLEY MEDICAL PRACTICE,-0.299929,51.390825
1215.13,BILLINGSHURST SURGERY,-0.445798,51.024981
529.27,DROYLSDEN RD FAMILY PRACTICE,-2.175662,53.499916
1241.35,GADE SURGERY,-0.481406,51.636736
580.47,FERRY ROAD HEALTH CENTRE,0.728076,50.951404
646.59,SPRING HOUSE SURGERY,-2.463553,53.588374
1105.67,WELL CLOSE MEDICAL GROUP,-2.006127,55.772458
517.4,PROSPECT SURGERY,-1.235397,54.575047
0.92,ST HELENS OUT OF HOSPITAL SERVICE,-2.723398,53.418906
614.97,THE TOLLERFORD PRACTICE,-2.571586,50.778924
672.4,DENMARK ROAD MEDICAL CENTRE,-1.876102,50.747031
294.2,WEST GREEN ROAD SURGERY,-0.092209,51.58587
1221.42,SPINNEY BROOK MEDICAL CENTRE,-0.614041,52.32438
1015.19,EVERSLEY MEDICAL CENTRE,-0.111913,51.388514
574.51,LANGSTONE WAY SURGERY,-0.210815,51.606981
1246.64,BEECH HILL MEDICAL PRACTICE,-2.644352,53.555654
818.74,BELLEVUE MEDICAL CENTRE,-1.900852,52.465393
383.24,ILKESTON HEALTH CENTRE,-1.308041,52.968251
218.76,ALEXANDRA MEDICAL CENTRE,-2.063026,52.454036
2517.74,THE ARNEWOOD PRACTICE MILTON MEDICAL CEN,-1.657992,50.756444
419.05,KENNETH MACRAE MED CENTRE,-2.786435,53.49903
585.52,STANLEY CORNER MEDICAL CENTRE,-0.296619,51.544251
823.56,SOUTH NORWOOD HILL MEDICAL CENTRE,-0.080772,51.403169
303.2,GREENWICH PENINSULA,0.012038,51.493258
3.79,DCHS DERBY CITY,-1.441882,53.221288
2046.28,FROME MEDICAL CENTRE,-2.311568,51.237318
994.6,ROYAL MANOR HEALTH CARE,-2.437275,50.544008
1279.63,EXCEL PRIMARY CARE,-2.758901,53.538343
2248.25,BARTON SURGERY,-3.473818,50.579848
954.22,BAMPTON SURGERY,-1.55034,51.729032
261.1,SCOTT PARK SURGERY,0.669733,51.571078
953.26,WITTON MEDICAL CENTRE,-2.507553,53.740232
588.86,THE PRACTICE ALBERT ROAD,0.053108,51.501557
8.59,COMMUNITY CARDIOLOGY SERVICE,0.15356,51.455555
1102.11,CORNERSTONE PRACTICE,0.091322,52.548858
763.5,THE CHURCH VIEW PRACTICE,0.609995,51.363412
822.97,HAYDOCK MEDICAL CENTRE,-2.656554,53.468334
1.07,BRACKNELL URGENT CARE CENTRE WIC,-0.735982,51.413263
5.8,COMMUNITY MATRONS,-2.095555,52.599722
1137.06,THE OAKS MEDICAL CENTRE,-1.895827,52.552454
1521.47,EAST NORWICH MEDICAL PARTNERSHIP,1.337135,52.637255
2244.42,TOWER FAMILY HEALTHCARE,-2.341432,53.614725
377.3,THE MILLER PRACTICE,-0.092165,51.551419
704.46,DRUID GROUP,-1.942009,52.486277
712,FRONT STREET SURGERY,-1.126923,53.954403
89.54,FULHAM CROSS MEDICAL CENTRE,-0.214067,51.482774
50.39,GREAT HARWOOD SURGERY,-2.414211,53.768459
1095.2,CASTLECROFT MEDICAL PRACTICE,-2.189808,52.57877
827.43,BRIERCLIFFE SURGERY,-2.212859,53.810388
1348.72,THATCHAM HEALTH CENTRE,-1.262387,51.404018
844.72,WATLINGTON MEDICAL CENTRE,0.391163,52.666799
647.78,THE ROSEBERRY PRACTICE,-1.292215,54.611726
660.22,ASPULL SURGERY,-2.586036,53.569599
540.01,GRESLEYDALE HEALTHCARE CENTRE,-1.576841,52.760758
733.48,WINCOBANK MEDICAL CENTRE,-1.416316,53.419405
322.36,THE WRAGBY SURGERY,-0.301337,53.287948
536.53,ROYAL DOCKS MEDICAL PRACTICE,0.062932,51.50946
314.42,ALVELEY MEDICAL PRACTICE,-2.353309,52.454738
10.66,ST WERBURGH'S MEDICAL PRACTICE HOMELESS,-2.890684,53.194463
1413.81,LISTER MEDICAL CENTRE,0.090365,51.754515
1379.69,STURRY SURGERY,1.130308,51.304473
1323.1,PUTNOE MEDICAL CENTRE PARTNERSHIP,-0.438308,52.147939
748.53,BURVILL HOUSE SURGERY,-0.22721,51.761302
626.03,PRIORS FIELD SURGERY,0.124169,52.388951
1796.52,AXMINSTER MEDICAL PRACTICE,-2.999226,50.780899
813.44,CENTRAL PARK MEDICAL CENTRE,-3.045864,53.415672
289.87,MALTHOUSE MEADOWS SURGERY,-2.568038,50.668698
762.99,THE SPRINGFIELD SURGERY (BINGLEY),-1.827829,53.846937
393.3,HOOK SURGERY,-0.312059,51.359148
1037.34,BHARANI MEDICAL CENTRE,-0.647828,51.520652
683.57,DR LONGFIELD AND PARTNERS,-0.759425,52.997585
1.03,IC24-CANTERBURY CCG-OOH,0.891514,51.129106
1007.7,SANDY LANE SURGERY,-2.694715,53.689488
169.07,HATTON MEDICAL PRACTICE,-0.433285,51.457879
362.56,BECKETT HOUSE PRACTICE,-0.123521,51.469491
367.62,HINDON SURGERY,-2.130793,51.095814
1040.66,THE RANGE MEDICAL CENTRE,-2.257066,53.452309
441.41,MARSHALLS ROAD SURGERY,-0.539225,52.344743
442.8,ARDINGLY COURT SURGERY,-0.132888,50.82118
1039.37,HUNTINGDON ROAD SURGERY,0.11009,52.214035
1041.98,WICKHAM MARKET MEDICAL CENTRE,1.363674,52.151842
407.32,STRETTON MEDICAL CENTRE,-2.577017,53.339489
201.32,DR U AKBAR,-1.777945,53.803569
825.06,WIGTON GROUP MEDICAL PRACTICE,-3.159002,54.820303
87.49,YARDLEY MEDICAL CENTRE,-1.828397,52.463189
1075.31,PENN MANOR MEDICAL PRACTICE,-2.14981,52.559823
111.56,THE PRACTICE COLLEGE ROAD,-0.539824,51.322572
1199.48,MERIDIAN SURGERY,-0.000811,50.796102
545.12,HOMESTEAD,-1.518747,53.68227
206.02,ALLENBY CLINIC,-0.376261,51.531514
4.59,BSW IUC OOH,-2.122946,51.473348
1727.95,WELLINGTON MEDICAL PRACTICE,-2.514204,52.699878
159.59,NARBOROUGH ROAD SURGERY,-1.153521,52.624383
701.54,LAMBGATES HEALTH CENTRE,-1.970153,53.463477
27.58,CSS DERMATOLOGY SERVICE,-0.00105,51.620089
2468.12,THE DEEPINGS PRACTICE,-0.316194,52.683726
693.5,MIDWAY SURGERY,-0.355421,51.733852
405.51,SOOD (THE GREEN & FIR ROAD),-0.340635,51.443826
369.15,THE LINDLEY VILLAGE SURG.,-1.82571,53.661331
479.7,HIGH OAK SURGERY,-2.13113,52.500707
134.18,WESTWOOD PRIMARY CARE CENTRE,-1.110806,53.296468
4.28,NHS FYLDE & WYRE CCG,-2.881037,53.789498
820.51,POTTERIES MEDICAL CENTRE,-2.136838,53.020074
722.42,THE OLD COLE HOUSE PRACTICE,-1.475043,52.477262
537.33,SOUTHWAY SURGERY,-4.133237,50.427678
898.58,GUARDIAN STREET MED/CTR,-2.606297,53.391901
708.15,BRANDON STREET SURGERY,-1.122261,52.648042
0.27,M & A LTC PALLIATIVE CARE NURSE,-1.238124,52.98146
1562.74,HIGH PASTURES SURGERY,-2.946534,53.519395
738.61,PLANE TREES GROUP PRACTICE,-1.894437,53.730448
369.59,MICKLEOVER SURGERY,-1.53732,52.907481
1503.15,CROCUS MEDICAL PRACTICE,0.238729,52.025067
781.21,ASH SURGERY,1.27891,51.279887
359.27,DELTA HEALTHCARE,-0.292835,53.764281
906.5,SWANWOOD PARTNERSHIP,0.519034,51.613356
6.72,HOLYWELL AT LANGLEY HOUSE HCT,-0.391206,51.683651
759.97,BROOK GREEN MEDICAL CENTRE,-0.220945,51.495163
2.14,STORTHFIELD HOUSE,-1.332746,53.097559
1659.64,WHADDON MEDICAL CENTRE,-0.766276,52.000308
42.75,KINGS HEALTH & LINGS BROOK PRACTICE,-0.922279,52.256829
424.23,THE NEW BREWERY LANE SURG,-1.636835,53.67243
792.9,GROVE SURGERY,-0.01097,51.579197
545.56,CRESSEX HEALTH CENTRE,-0.778801,51.617114
618.69,DR SATHANANDANS PRACTICE,0.650261,51.555142
127.64,THE PRACTICE SURGERIES LTD,-0.099109,51.370492
1331.82,ST JOHNS MEDICAL CENTRE,-2.352158,53.38672
1081.88,UNDERCLIFFE SURGERY,-1.67818,53.707224
368.38,WHITBY GROUP PRACTICE SURGERY   (BLACK),-2.910629,53.26751
207.23,ST LUKE'S SURGERY,-0.0358,50.8023
1046.22,DR ARORA RK,-1.997982,52.516003
756.46,ODDFELLOWS HALL & ST CLEMENTS,0.327906,51.480703
884.17,SPINNEY SURGERY,-0.077762,52.33533
27.6,ACUTE GP REFERRAL SERVICE,-4.113684,50.41672
473.13,WARWICK ROAD SURGERY,-2.928541,54.893858
684.23,THE PETWORTH SURGERY,-0.607135,50.983365
659.94,SLEIGHTS AND SANDSEND MEDICAL PRACTICE,-0.659645,54.452005
522.06,WIDE WAY MEDICAL CENTRE,-0.134454,51.401824
1057.66,RIVER LODGE SURGERY,0.018818,50.874836
1303.68,CLOVER GROUP PRACTICE,-1.40885,53.384843
319.25,WOODBANK SURGERY,-2.308802,53.60507
817.26,CRUDDAS PARK SURGERY,-1.630965,54.968173
517.61,OAKHILL MEDICAL PRACTICE,-1.458311,53.305662
1317.73,PARK PRACTICE,0.277898,50.794441
1098.15,HAZELDENE HOUSE SURGERY,-2.004496,52.800688
680.8,DR. MASTERTON'S SURGERY,-0.130137,51.430487
797.69,KINGS NORTON SURGERY,-1.930753,52.404588
106.13,NASEBY MEDICAL CENTRE,-1.844953,52.489175
117.52,WEST LANCS HEART FAILURE SERVICE,-2.840112,53.602357
305.54,YEADING COURT SURGERY,-0.40009,51.528299
911.92,PRIME PRACTICE PARTNERSHIP,0.152111,51.535187
1.32,ADULT COMMUNITY NURSING,-0.086794,51.503466
289.67,HEADSTONE ROAD SURGERY,-0.340912,51.583768
409.66,OAKLANDS SURGERY,-2.617414,50.954243
192.67,BELSIZE PRIORY MEDICAL PRACTICE (GROUP),-0.188014,51.539773
223.89,DR SKS SWEDAN,0.024864,51.550554
1137.91,CASTLE HEALTHCARE PRACTICE,-1.144908,52.930476
121.22,MONTPELIER SURGERY,-0.149079,50.827148
3.2,SOUTH SEFTON GP EXTRA SERVICE,-3.002733,53.472727
15.07,THE TOWN SURGERY,-0.378104,51.512512
475.87,EVERGREEN OAK SURGERY,-1.958467,50.723629
919.45,DR JK MARSDEN'S PRACTICE,-0.436528,51.894968
616.06,CEDAR BROOK PRACTICE,-0.414132,51.534092
502.37,SOLWAY HEALTH SERVICES,-3.551342,54.642687
861.44,ALMA MEDICAL CENTRE,-1.317648,54.56949
897,COLLINGHAM CHURCH VIEW SURGERY,-1.408994,53.908099
122.58,INTRAHEALTH PLATT BRIDGE,-2.595925,53.522279
1.95,JOHN TAYLOR HOSPICE,-1.823564,52.527352
1502.21,MERCHISTON SURGERY,-1.749007,51.587527
224.58,THE BROOK SURGERY,-1.871333,52.462659
503.75,THE YELLOW PRACTICE,-0.406024,51.380924
349.71,BROKEN CROSS SURGERY,-2.12262,53.257964
1223.46,WARLEY MEDICAL CENTRE,-2.006757,52.468122
158.01,ROTH. NHS FT COMM. SERV,-1.358666,53.434741
166.56,GOVIND HEALTH CENTRE,-1.532784,52.400277
366.95,WILLIAM HARVEY SURGERY,0.597963,51.593347
319.68,TRI-LINKS MEDICAL PRACTICE,-1.664038,52.634849
455.65,THE SURGERY FODEN STREET,-2.188242,52.997045
397.51,MAYTREES MEDICAL PRACTICE,-2.563371,51.470243
368.53,APPLEBY MEDICAL PRACTICE,-2.492993,54.578082
877.01,CENTRAL GATESHEAD MEDICAL GROUP,-1.604307,54.956479
780.61,TORRIDON ROAD MEDICAL PRACTICE,-0.002112,51.44011
440.45,THE WHITE HOUSE SURGERY,0.088164,51.534004
827.49,BIRCHES HEAD MEDICAL CTR.,-2.154096,53.035667
3560.25,HAXBY GROUP PRACTICE,-1.081866,54.019329
432.22,VALE DRIVE MEDICAL PRACTICE,-0.194727,51.648828
822.11,THE ERIC MOORE PARTNERSHIP,-2.59716,53.393404
217.78,DR DP SHAH'S PRACTICE,0.160037,51.545122
547.82,PRESCOTT SURGERY,-2.852689,52.784345
408.56,DR AHMAD & PTNRS,-2.595925,53.522279
232.86,HORNE STREET SURGERY,-1.871717,53.725678
912.35,CHISLEHURST MEDICAL PRACTICE,0.066938,51.419678
1273.59,THE REDWELL MEDICAL CENTRE,-0.701555,52.314792
2.14,ST JOHNS HOSPICE,-1.149142,53.500048
1049.65,THE ALDERGATE MED.PRACT.,-1.695644,52.639079
2397.08,POCKLINGTON GROUP PRACTICE,-0.781336,53.924503
903.6,LOCKFIELD SURGERY,-2.057135,52.585445
65.63,DR SOOD'S PRACTICE,-0.382386,51.483967
1583.75,MOUNT FARM SURGERY,0.742641,52.245214
1234.63,VALENTINE HEALTH PARTNERSHIP,0.061519,51.49221
327.04,DR AHMED & PARTNERS,-1.782551,53.655615
298.45,NORTH CHELMSFORD NHS HCC,0.510815,51.750584
585.9,THE OAKWOOD SURGERY,-1.073937,53.506609
1859.86,CENTRE PRACTICE,-1.17634,50.853776
588.85,MORETON HEALTH CLINIC,-3.112556,53.400453
834.47,JUBILEE STREET PRACTICE,-0.050552,51.513595
537.38,HIGH STREET MEDICAL CENTRE,-2.595495,53.47988
189.07,DERWENT MEDICAL CENTRE,-1.480751,52.929325
0.31,BARDOC GP OOH,-2.427769,53.590447
761.44,SHEEPCOT MEDICAL CENTRE,-0.412898,51.695192
697.16,DEER PARK FAMILY MEDICAL PRACTICE,-1.230829,52.949242
1237.72,THE MEDICAL CENTRE  DRIFFIELD,-0.439676,54.006257
222.93,THE NEW SURGERY,-0.235578,51.506058
718.77,LAMBETH WALK GROUP PRACTICE,-0.112591,51.495609
1100.02,LEANDER ROAD SURGERY,-0.117457,51.399457
815.49,CHELSFIELD SURGERY,0.104017,51.355726
1041.01,CANFORD HEATH GROUP PRACT,-1.964765,50.741327
1168.59,YAXLEY GROUP PRACTICE,-0.251101,52.516866
225.78,BOLTON MEDICAL CENTRE,-2.431399,53.56543
5.3,CORNWALL 111 OOH,-5.097984,50.265937
866.78,TEMPLE HOUSE PRACTICE,-2.498229,51.409833
263.35,THE CRANE,0.535827,51.09887
17.54,EAST HULL FAMILY PRACTICE,-0.268619,53.77908
822.94,MANOR HOUSE LANE SURGERY,-1.802707,52.461306
833.85,BRIDGE STREET SURGERY,-0.495121,53.551684
196.54,MELROSE SURGERY,-1.287301,54.609397
426.28,MEDICAL CENTRE CAMELFORD (DR GARROD),-4.676789,50.624027
969.27,MACKLIN STREET SURGERY,-1.481767,52.92115
1154.61,POLDEN MEDICAL PRACTICE,-2.87579,51.150216
2.2,RUNCORN GP EXTRA,-2.727045,53.331865
815.41,LIMES MEDICAL CENTRE,-1.387885,53.098493
18.6,BCH HEART FAILURE SERVICE,-2.55823,51.482972
1322.31,ABBEY MEADS MEDICAL PRACT,-1.792794,51.597826
1407.93,CHEVIOT ROAD SURGERY,-1.455974,50.921365
831.58,ST NEOTS SURGERY,-4.160899,50.387979
1.46,NEWARK ACUTE HOME VISITING SERVICE,-1.238124,52.98146
306.91,SHEERWATER HEALTH CENTRE,-0.530722,51.334156
1479.74,LIQUORPOND SURGERY,-0.025925,52.9735
475.06,FORDINGTON SURGERY,-2.42746,50.713004
1794.95,SHAFTESBURY MEDICAL CTR.,-1.497858,53.800234
432.79,BURNSIDE SURGERY,-2.424635,53.592518
560.62,HIGHGROVE SURGERY,0.098727,51.538564
506.4,MEDICENTRE,-2.643055,53.494018
458.28,MARKET OVERTON & SOMERBY SURGERIES,-0.684769,52.739345
361.89,RICHMOND MEDICAL CENTRE,-2.384874,53.752328
590.7,TWIN OAKS MEDICAL CENTRE,-1.737739,50.781308
704.87,STONELEIGH SURGERY,-2.770704,54.227277
694.49,WESTMINSTER MEDICAL CENTRE,-2.97836,53.44083
359.65,DESFORD MEDICAL CENTRE,-1.296116,52.627473
672.21,WILMSLOW HEALTH CENTRE,-2.237324,53.322922
867.07,MANOR FARM MEDICAL CENTRE,0.690513,52.648544
1440.59,RAVENSWOOD MEDICAL PRACTICE,1.199377,52.030367
430.25,CHESSINGTON PARK SURGERY,-0.312059,51.359148
0.92,ASHTON  LEIGH & WIGAN OOH,-2.614585,53.534922
930.13,DR SINHA & PARTNERS,0.100204,53.030138
541.17,ROSEWORTH SURGERY,-1.61867,55.001366
503,THORPE HESLEY SURGERY,-1.432602,53.458647
376.44,BANK HOUSE SURGERY,0.069949,51.359218
789.16,STATION ROAD SURGERY,0.102029,51.431445
1063.17,ADDISON HOUSE - HAQUE PRACTICE,0.088979,51.770891
472.2,CALDBECK SURGERY,-3.050622,54.749864
584.02,AWBURN HOUSE MEDICAL PRACTICE,-2.011,53.458105
2.9,IC24-ASHFORD CCG-OOH,0.891514,51.129106
454.69,DR COLLINS AND CARRAGHER,-0.311771,52.006602
1426.33,MOUNT CHAMBERS MEDICAL PRACTICE,0.552722,51.879812
10.37,DR A K JHA (SH),-2.164492,53.856587
517.99,HOWELL SURGERY,0.398895,51.150874
3.82,SOUTHAMPTON PRIMARY CARE HUBS,-1.317099,50.913217
0.19,EDGWARE WIC,-0.271242,51.606493
946.49,THE MUSWELL HILL PRACTICE,-0.141215,51.59225
607.9,THE BARKANTINE PRACTICE,-0.025725,51.500806
671.7,ABBEY ROAD SURGERY,-3.224778,54.109942
304.72,MANOR PRIMARY CARE,-2.764643,53.549695
3.4,7 DAY ACCESS MIDDLETON HC,-2.172588,53.54895
998.5,CONSTABLE COUNTRY RURAL MEDICAL PRACTICE,1.026191,51.977179
934.41,BEECH HOUSE MEDICAL PRACT,-2.118146,53.379406
1315.8,COQUET MEDICAL GROUP,-1.580504,55.332599
1333.06,WARLINGHAM GREEN MED PRAC,-0.057218,51.312278
1289.16,THE MANOR HOUSE SURGERY,-1.159231,54.557403
597.08,THE SURGERY - 48 MULGRAVE ROAD,-0.196293,51.358332
198.6,WEST TOWN SURGERY,-0.443862,53.685751
342.82,HOLLINGTON SURGERY,0.872487,51.151423
363.16,WAKE GREEN SURGERY,-1.883357,52.446103
439.08,MEDICAL CENTRE CAMELFORD (DR NASH),-4.676789,50.624027
793.72,FALLODON WAY MEDICAL CENTRE,-2.609541,51.483068
850.31,HIGHCROFT SURGERY,-1.12882,53.00411
242.39,RIVERSIDE FAMILY PRACTICE,-2.238948,53.791326
650.3,DALTON SURGERY,-1.751038,53.644598
721.83,HOUNSLOW MEDICAL CENTRE,-0.37684,51.469395
1118.83,THE CEDARS SURGERY,0.173742,51.395873
212.38,KINCORA DOCTORS SURGERY,-0.412216,51.511666
686.05,LARKSFIELD SURGERY MEDICAL PARTNERSHIP,-0.235113,52.017132
604.63,SPRING TERRACE HEALTH CENTRE,-1.450673,55.010941
521.85,NORTHGATE VILLAGE SURGERY,-2.892972,53.195093
429.23,CROSLAND MOOR SURGERY,-1.809637,53.63841
1167.08,HARCOURT MEDICAL CENTRE,-1.800762,51.067489
2691.54,PEMBROKE MEDICAL GROUP,-3.560246,50.445527
327.27,HORNDON-ON-THE-HILL SURGERY,0.405746,51.523749
830.67,AELFGAR SURGERY,-1.937701,52.763581
1196.17,ORCHARD MEDICAL CENTRE,-2.510659,51.462087
982.6,WEST END SURGERY,-1.327291,50.928501
262.78,LAKESIDE,-2.203683,52.595468
594.04,CHURCH END MEDICAL CENTRE,-0.253241,51.54757
960.03,WILLIAM FISHER MED.CTR.,0.826913,51.662819
922.03,GREAT BRIDGE P/SHIP FOR HEALTH,-2.032577,52.528908
30.24,TORBAY NMP SPECIALIST,-3.552785,50.48778
940.5,THE REYNARD SURGERY,0.484029,52.302685
12.66,MYDDLETON ROAD SURGERY,-0.115662,51.606554
1006.01,ENDERLEY ROAD MEDICAL CENTRE,-0.340469,51.601872
1729.35,THE GRANGE GROUP PRACTICE,-1.781351,53.662292
346.95,ELIZABETH AVENUE GROUP PRACTICE,-0.091905,51.539023
125.6,ECCLES GATEWAY MEDICAL CENTRE,-2.339314,53.48253
1054.96,HALESOWEN MEDICAL PRACTICE,-2.059137,52.444056
397.02,HIGHERLAND SURGERY,-2.232632,53.009021
1240.47,FAILSWORTH GROUP PRACTICE,-2.156747,53.509855
944.34,FELDON LANE PRACTICE,-2.028271,52.467325
471.65,DRS CHALMERS & MEIER,-0.066189,53.557292
1127.52,PRICES MILL SURGERY,-2.224938,51.693801
10.73,PELC REDBRIDGE OOH,0.066648,51.55684
151.41,SAXENA L,-2.668958,53.521291
283.59,CRADLEY SURGERY,-2.402119,52.118284
2043.51,LORDSWOOD HOUSE GROUP MEDICAL PRACTICE,-1.961221,52.459054
1621.29,STOCKTON HEATH MED.CENTRE,-2.582161,53.37195
810.24,CENTRAL SURGERY,-2.74261,53.456686
684.75,CROSBY HOUSE SURGERY,-0.599437,51.517962
149.34,GLOUCESTER ROAD SURGERY,-0.183052,51.647272
790.39,THREE VILLAGES MEDICAL PRACTICE,-2.146398,52.465406
29.97,MEDICUS HEALTH PARTNERS-MOORFIELD ROAD,-0.047082,51.660296
780.83,SWANSWELL MEDICAL CENTRE,-1.816529,52.432515
638.09,TOOTING SOUTH MEDICAL CENTRE,-0.161461,51.421738
829.73,STAPENHILL MEDICAL CENTRE,-1.624908,52.785524
1526.65,DENMEAD HEALTH CENTRE,-1.067347,50.904386
312.62,SOUTH PARK MEDICAL PRACTICE,0.189702,51.270005
2176.49,AW SURGERIES,-2.122432,52.482313
452.36,WAYSIDE MEDICAL PRACTICE,-0.165912,51.173238
0.27,SOUTH HORNCHURCH WALK IN CENTRE,0.192085,51.533441
1406.07,COTSWOLD MEDICAL PRACTICE,-1.75678,51.886317
1078.07,MOUNT PLEASANT MED CENTRE,-1.637294,53.707036
407.09,THE LORDSHIP LANE SURGERY,-0.073221,51.448369
738.44,NEASHAM ROAD SURGERY,-1.542648,54.517256
918.55,SWINESHEAD SURGERY,-0.158921,52.940616
1067.12,KING GEORGE SURGERY,-0.206096,51.907416
418.94,MAWBEY GROUP PRACTICE,-0.125232,51.479283
432.21,THE KAKOTY PRACTICE,-1.473444,53.5464
1372.71,NEW SOUTHGATE SURGERY,-1.50415,53.692762
725.41,HALDON HOUSE SURGERY,-3.416301,50.619764
815.86,MARKFIELD MEDICAL CENTRE,-1.272985,52.685255
1032.28,THE ROCKWELL AND WROSE PRACTICE,-1.744408,53.822997
511.46,ASHLEY SURGERY,-2.355514,52.925782
41.96,ROSSLYN HILL SURGERY,-0.170852,51.554201
125.11,CHILDS (THAMESIDE),-0.326599,51.427449
1308.87,THE GROUP PRACTICE ALFRED SQUIRE ROAD,-2.080754,52.599417
567.57,DR M ASLAM'S PRACTICE,0.510532,51.57811
560.92,ACE,0.921589,51.923793
573.39,NORTHLANDS WOOD SURGERY,-0.081209,50.996531
526.46,BROOK HOUSE SURGERY,-1.445882,50.921794
1121.94,WEST ROAD SURGERY,0.70187,51.544989
4704.84,WHITSTABLE MEDICAL PRACTICE,1.012662,51.340885
676.44,EARLS BARTON MEDICAL CENTRE,-0.758162,52.264648
393.4,GREAT HOLLANDS PRACTICE,-0.770726,51.398661
994.11,VEOR SURGERY,-5.299615,50.209958
237.98,HEATHWAY MEDICAL CENTRE,0.152111,51.535187
161.13,BIRTLE VIEW MEDICAL PRACTICE,-2.2277,53.595186
537.99,RIVER PLACE HEALTH CENTRE,-0.09656,51.540513
644.3,MILLBROOK SURGERY  CASTLE CARY,-2.51716,51.087618
670.33,BLACKETTS MEDICAL PRACTICE,-1.559007,54.527221
96.62,AL-SHIFA MEDICAL CENTRE,-2.229695,53.433705
637.97,SUN LANE,1.087469,51.071536
372.64,KINGSWOOD SURGERY,-1.517051,53.991495
1009.23,CROFT MEDICAL CENTRE,-1.727743,52.477876
384.14,KNIGHTWICK SURGERY,-2.394831,52.200399
628.3,ST ANDREWS MEDICAL PRACTICE.,-0.17238,51.630138
479.53,CHAPEL ROW SURGERY,-1.17086,51.425877
616.91,BELMONT & SHERBURN MEDICAL GROUP,-1.52816,54.786148
92.55,UEA MEDICAL CENTRE,1.241391,52.622369
854.83,STAUNTON GROUP PRACTICE,-0.112926,51.599388
365.19,MODALITY DARLASTON PRACTICE,-2.036323,52.56617
1100.52,BROCKHURST MEDICAL CENTRE,-1.15337,50.808243
411.16,HADEN VALE SURGERY,-2.073333,52.466347
1181.92,KESTON MEDICAL PRACTICE,-0.114466,51.34074
921.71,HEATHCOTE MEDICAL CENTRE,-0.228084,51.294799
844.6,THE AVENUE MEDICAL CENTRE,-2.211676,53.533178
505.77,DR CURRAN & PARTNERS,-0.136034,51.465148
1.95,NCH&C COMMUNITY NURSES (WEST),0.410147,52.749129
465.91,HAPPY HOUSE SURGERY,-1.422785,54.885012
1446.32,PRIORY FIELDS SURGERY,-0.179856,52.332272
238.58,SOUTHEND MEDICAL CENTRE,0.708516,51.540069
4.34,EVMC DERMATOLOGY CLINIC,1.012662,51.340885
1769.1,BLACKWATER MEDICAL CENTRE,0.68095,51.728379
12.63,WHITTINGTON HEALTH (ISLINGTON),-0.139066,51.566482
6.24,HOMERTON NMP'S,-0.046099,51.550634
5.35,HARROGATE OOH,-1.517573,53.993807
1210.17,TUDOR MEDICAL CENTRE,-2.136002,52.594673
1206.32,MARTONSIDE MEDICAL CENTRE,-1.220329,54.553175
400.55,THE MOORINGS MEDICAL PRACTICE,-0.095892,51.322229
968.96,BRADSHAW MEDICAL CENTRE,-2.688594,53.537889
1619,COLLEGE SURGERY PARTNERSHIP,-3.392716,50.864169
729.64,ELMS MEDICAL PRACTICE,-0.352007,51.818895
1640.15,THE RED HOUSE GROUP,-0.317147,51.68273
1039.26,MILL BANK,-2.118627,52.80489
703.47,ST JOHNS MEDICAL CENTRE,-0.0222,51.467393
186.48,THE CIVIC MEDICAL CENTRE,-0.337497,51.587155
365.68,ISLIP MANOR MEDICAL CENTRE,-0.372994,51.547315
1666.17,LOVEMEAD GROUP PRACTICE,-2.202601,51.31857
1551.26,CROUCH OAK FAMILY PRACTICE,-0.490757,51.371507
961.47,NORTH THORESBY SURGERY,-0.056751,53.46502
702.91,KINGSFIELD MEDICAL CENTRE,-1.89301,52.427278
394.89,PARLIAMENT HILL SURGERY,-0.145468,51.555169
990.45,PARKFIELD MEDICAL CENTRE,-0.179588,51.695129
410.24,THE PINE MEDICAL CENTRE,-0.416838,51.527591
633,BURDWOOD SURGERY,-1.244202,51.396133
124.26,MEDIC HOUSE,0.362131,51.462932
749.99,BELMONT MEDICAL CENTRE,-2.739476,52.041288
273.04,ARDEN MEDICAL CENTRE,-1.744762,52.379799
1593.15,CASTLE PARTNERSHIP,1.298303,52.633973
140.52,NEW ROAD MEDICAL CENTRE,-1.939238,52.648704
2.32,SUSSEX DOWN AND WEALD SPECIAL SCHEME,0.294614,50.773566
1693.91,SANDY LANE SURGERY,-1.937103,52.75674
182.83,CHOLMLEY GARDENS SURGERY,-0.195423,51.552261
0.84,LOUGH OOH,-0.008582,53.37101
336.08,MITCHLEY AVENUE SURGERY,-0.092485,51.32998
218.26,GATEACRE MEDICAL CENTRE,-2.85753,53.385435
2657.6,BEACON HEALTH GROUP-DANBURY MEDICAL CTR,0.587566,51.716669
1209.42,THE SUMMERHILL SURGERY,-2.171615,52.496514
170.96,SCHOOL LANE PMS PRACTICE,0.749246,52.412444
632.17,BELLINGHAM GREEN SURGERY,-0.02426,51.430378
986.2,BOUNDARY HOUSE MEDICAL CENTRE,-2.288936,53.415635
684.9,HILL LANE SURGERY,-1.41571,50.915802
79.81,AVENUE MEDICAL PRACTICE,-1.603419,54.988036
573.36,SPRING HALL GROUP PRACTICE,-1.892899,53.721064
381.57,KINGSHOLM SURGERY,-2.239023,51.868028
1338.35,SILVERDALE MEDICAL CENTRE,-2.267264,53.015627
1236.86,ARLINGTON ROAD SURGERY,0.277559,50.768189
1429.5,THE SHREWSBURY CENTRE,0.043312,51.540929
1020.96,LEEN VIEW SURGERY,-1.196589,52.998051
1233.01,HEATHERVIEW MEDICAL CTR.,-1.913033,50.739773
5.3,GP EXTENDED ACCESS - HARROGATE,-1.529793,53.996354
357.1,CONNAUGHT SQUARE PRACTICE,-0.164264,51.513974
439.59,ABERCROMBY FAMILY PRACTICE,-2.961744,53.399032
1040.44,BRIDGE HOUSE MEDICAL CENTRE,-1.709788,52.190536
965.07,CAVERSHAM GROUP PRACTICE,-0.138116,51.550467
1573.32,COUNTESTHORPE HEALTH CENTRE,-1.136767,52.554536
138.97,THE GOLBORNE MEDICAL CENTRE,-0.206303,51.524023
126.1,BLESSING MEDICAL CENTRE,-0.205742,51.533041
884.62,CHARNOCK HEALTH PRIMARY CARE CENTRE,-1.420724,53.342996
489.53,PARKFIELDS SURGERY,-1.432388,52.898298
14.68,THE HEATON MEDICAL PRACTICE,-1.808133,53.81642
265.84,CHAPELTOWN FAMILY SURGERY,-1.526199,53.811432
675.39,DR VASANTH,-2.500811,53.527489
157.66,DR GI JONES' PRACTICE,-1.471058,53.166526
441.92,RIVERBANK MEDICAL SERVICES,-1.152629,53.207243
142.81,HARDEN HEALTH CENTRE,-1.985958,52.608552
631.48,HARSTON SURGERY,0.073806,52.138364
578.39,HOYLAND HOUSE,-2.194177,51.790995
412.31,HATCH END MEDICAL CENTRE,-0.377077,51.606242
1483.51,WIBSEY & QUEENSBURY MED P,-1.779715,53.767225
978.37,JORVIK GILLYGATE PRACTICE,-1.077772,53.959168
278.58,VALLEY ROAD SURGERY,-0.119424,51.428616
841.4,CHATSWORTH ROAD MEDICAL CENTRE,-1.467337,53.231374
1266.99,PRESTON GROVE MEDICAL CENTRE  YEOVIL,-2.644279,50.94185
2964.09,NORTH CLACTON MEDICAL PRACTICE,1.162631,51.818131
691.55,FINCHAMPSTEAD PRACTICE,-0.858066,51.375104
650.43,SHERBURN GROUP PRACTICE,-1.253519,53.798594
385.03,BOURN SURGERY,-0.063404,52.193155
3.46,WORKING AGE ADULTS - STONEBOW UNIT,-2.705709,52.057013
1092.51,DR BHATE SURGERY,-1.37324,54.905516
792.67,OSMASTON SURGERY,-1.467954,52.911084
1871.66,BISHOPS WALTHAM SURGERY,-1.212149,50.95528
826.71,BROOK SQUARE SURGERY,-0.409328,54.281789
1.84,DCHS BEDS WITH CARE,-1.441882,53.221288
244.88,BORSTAL VILLAGE SURGERY,0.482446,51.372102
587.94,BROOK MEDICAL CENTRE,-0.803796,52.255823
331.39,THE MARSHSIDE SURGERY,-2.963125,53.671433
179.69,CITY OF COVENTRY HEALTH CENTRE,-1.508005,52.413401
351.45,ULLAH M,-2.595925,53.522279
492.36,ST.MARY'S MEDICAL CENTRE,0.497526,51.397836
221.83,WALSALL WOOD HEALTH CENTRE,-1.927755,52.629621
732.89,MADELEY PRACTICE,-2.345126,52.999856
2.2,THE SHELDON PRACTICE,-0.215603,51.555924
681.15,SHADBOLT PARK HOUSE SURG,-0.252507,51.376451
1580.74,HILDENBOROUGH MEDICAL GROUP,0.243873,51.215118
44.64,THE MATTHEWMAN PRACTICE,-0.149281,51.545823
454.41,CHURCH LANE - KHAN,-1.793962,52.487056
731.36,DEVON SQUARE SURGERY,-3.60508,50.529985
589.14,UPWELL STREET SURGERY,-1.434724,53.406424
1583.94,EAST LINDSEY MEDICAL GROUP,0.002264,53.362241
711.49,MATTISHALL SURGERY,1.034195,52.658795
2046.59,ASHFORD MEDICAL PARTNERSHIP,0.898839,51.136741
1092.6,LOW MOOR SURGERY,-1.769897,53.75385
898.2,ST ELIZABETH'S MEDICAL CENTRE (JA WOOD),-1.061189,52.648257
807.23,PENNINE DRIVE PRACTICE,-0.208882,51.568477
608.35,THE CEDARS SURGERY,-0.72004,51.52561
1099.87,LONGTON HEALTH CENTRE,-2.780194,53.727756
570.92,OWLTHORPE MEDICAL CENTRE,-1.375862,53.33869
361.78,ST ANDREWS HEALTH CENTRE,-0.014302,51.523949
1074.19,WONERSH SURGERY,-0.545609,51.197393
14.78,RAINBOW HEALTH CENTRE,-0.109304,51.395046
0.23,WEST CAMHS - KIRKSTALL,-1.599694,53.817164
1074.32,HOLLIES MEDICAL CENTRE,-1.494834,53.363179
704.35,GALLERIES MEDICAL PRACTICE,-1.531242,54.898814
1.34,SUFFOLK GP FEDERATION OOH,1.164244,52.044508
515.55,GLEN ROAD MEDICAL CENTRE,0.03253,51.522221
651.55,THE WOLDS VIEW PRIMARY CARE CENTRE,-0.215754,54.086552
771.76,COMMUNITY HEALTH CENTRE (ZS OSAMA),-1.113421,52.632387
1280.36,CHURCHILL MEDICAL CENTRE,-0.018466,51.618226
1.25,THE PINN UNREGISTERED WIC,-0.382232,51.595076
986.97,NAVENBY CLIFF VILLAGES SURGERY,-0.526297,53.103518
968.08,PRINCE OF WALES GROUP SURGERY,-0.147117,51.546913
531.18,WEST POINT MEDICAL CENTRE,-2.197586,53.445978
1272.98,DURNFORD MEDICAL CENTRE,-2.197033,53.554038
886.65,TRINITY MEDICAL CENTRE,-0.158437,51.437554
608.62,THE DICCONSON GROUP PRACTICE,-2.644891,53.549467
1464.65,TALBOT MEDICAL CENTRE,-1.908934,50.748888
369.94,CAMDEN HEALTH IMPROVEMENT PRACTICE,-0.138243,51.528275
605.25,WHITLEY ROAD MEDICAL CENTRE,-2.2227,53.49493
1190.42,AVISFORD MEDICAL GROUP,-0.61388,50.822687
2.17,COMMUNITY TEAM ST AUSTELL,-4.772363,50.327877
1460.96,ASHVILLE MEDICAL CENTRE PMS PRACTICE,-1.4569,53.543072
177.44,CARRFIELD MEDICAL CENTRE,-1.465061,53.358636
310.37,WALNUT TREE PRACTICE,-2.357425,51.68003
3.18,URGENT CARE CENTRE NORTHWICK PARK HOSP,-0.322037,51.575407
168.89,SIBFORD SURGERY,-1.479244,52.037614
698.49,THE GAINSBOROUGH PRACTICE,-0.73138,51.426252
1832.79,PORTISHEAD MEDICAL GROUP,-2.767318,51.482805
488,HONOR OAK GROUP PRACTICE,-0.041114,51.458097
423.24,FEATHERSTONE,-2.089566,52.645773
1690.08,STUBBINGTON MEDICAL PRACTICE,-1.215422,50.825008
2.47,GP CARE WAKEFIELD OOH,-1.494838,53.679942
1070.57,FISHER MEDICAL CENTRE,-2.021408,53.96167
582.05,HORNDEAN SURGERY,-0.991298,50.914995
681.8,MARKET STREET MEDICAL PRACTICE,-2.145635,53.478959
1410.04,LIBRARY HOUSE SURGERY,-2.633893,53.650664
474.77,GOSSOPS GREEN MEDICAL CTR,-0.21648,51.107248
859.09,STROUD PRACTICE,-2.024533,52.58916
1365.17,CASTLEFIELDS HEALTH CENTRE,-2.691794,53.338807
1544.53,BLACK COUNTRY FAMILY PRACTICE,-2.071182,52.528846
939.82,MARK STREET SURGERY,-2.144639,53.62423
452.2,LAUNCESTON CLOSE SURGERY,-2.542488,53.183101
1550.68,CARITAS GENERAL PRACTICE PARTNERSHIP,-2.134599,53.395928
557.62,COLNE ROAD SURGERY,-2.236848,53.801226
674.85,CASTLE GARDENS SURGERY,-4.140046,50.951639
590.87,WATERSIDE MEDICAL CENTRE,-1.529997,52.283202
1781.19,THREE CHEQUERS MEDICAL PRACTICE,-1.794625,51.071924
576.54,GANTS HILL MEDICAL CENTRE,0.064452,51.577157
1045.11,SOUTH WIGHT MEDICAL PRACTICE,-1.287022,50.587616
461.71,HOPWOOD MEDICAL CENTRE,-2.212052,53.587143
188.33,THORNTREE SURGERY,-1.18346,54.565208
2213.84,AIR BALLOON SURGERY,-2.531438,51.459
1420.76,MINET GREEN HEALTH PRACTICE,-0.105204,51.475715
914.48,KINGSNORTH MEDICAL PRACTICE,0.859919,51.1207
360.47,27 BEAUMONT STREET,-1.26216,51.755081
1187.34,LANE END MEDICAL GROUP,-0.274866,51.615287
1380.26,LAUREL HOUSE SURGERY,-1.692825,52.636563
201.75,RADFORD MEDICAL PRACTICE (KAUR),-1.167635,52.956339
534.28,MCKENZIE GROUP PRACTICE,-1.239266,54.660465
950.96,BLUE DYKES SURGERY,-1.414353,53.167483
3372.2,ASPEN MEDICAL PRACTICE,-2.225797,51.865969
747.69,REDFERN HEALTH CENTRE,-3.769118,50.238912
27.53,HAVERING CCG,0.179796,51.579247
2045.81,BEACHES MEDICAL CENTRE,1.727734,52.577124
389.04,WOOTTON VALE HEALTHY LIVING CENTRE,-0.527951,52.093688
285.79,HILLSIDE HOUSE SURGERY,-2.842807,53.419526
971.48,CHURCHFIELDS MEDICAL PRACTICE,-1.180398,52.978865
366.07,ST LAWRENCE ROAD SURGERY,-1.387829,53.180152
295.57,MILL ROAD SURGERY,0.150585,52.197163
760.03,POTTERELLS MEDICAL CENTRE,-0.208602,51.726922
1.07,CAMDEN EXTENDED ACCESS SERVICE,-0.130607,51.529916
722.98,HORTON PARK MEDICAL PRACTICE,-1.772791,53.785161
3313.22,ST AUSTELL HEALTH GROUP,-4.760416,50.344296
1661.34,WHITBY GROUP PRACTICE,-0.62317,54.485919
153.43,FELTON SURGERY,-1.7113,55.298652
454.58,SWARLAND AVENUE SURGERY,-1.578629,55.006365
836.28,CLAY LANE MEDICAL PRACTICE,-1.482836,52.412774
1.07,MARILLAC HOSPITAL,0.307264,51.621757
1442.49,WHICKHAM COTTAGE MEDICAL CENTRE,-1.677226,54.94538
745.11,POVEREST MEDICAL CENTRE,0.101265,51.39001
373.99,INGLETON AVENUE SURGERY,0.104087,51.454007
494.22,STUART CRESCENT HEALTH CENTRE,-0.110172,51.600434
545.15,WAYFIELD ROAD SURGERY,0.530781,51.359826
178.64,MATCHING GREEN SURGERY,0.481244,51.582852
157.59,ZAIN MEDICAL CENTRE,-0.271242,51.606493
653.64,MITCHELDEAN SURGERY,-2.488369,51.865935
467.86,WATERS EDGE MEDICAL CENTRE,-2.443972,53.192336
194.33,BROWNLOW AT MARYBONE,-2.987806,53.411269
282.56,NORTH LEVERTON SURGERY,-0.822245,53.332038
676.17,WELTON FAMILY HEALTH CENTRE,-0.484843,53.306584
218.25,ORRELL PARK MEDICAL CENTRE,-2.962942,53.462025
1.68,ST ELIZABETHS CENTRE,0.089303,51.830298
750.66,TINKERS LANE SURGERY,-1.900604,51.543578
319.3,FAMILY DOCTORS,-1.440964,53.798248
435.01,BRACONDALE MEDICAL CENTRE,-2.147089,53.393998
800.85,DENTON PARK MEDICAL GROUP,-1.698725,54.993108
1091.67,BURTON CROFT SURGERY,-1.57692,53.820807
208.46,NORHEADS LANE SURGERY,0.026739,51.314542
669.34,THE SPINNEY MEDICAL CTR.,-2.757627,53.442443
1030.35,HUNGERFORD MEDICAL CENTRE,-2.427003,53.09787
967.81,CHURCH STREET PRACTICE,-0.459783,51.37345
681.52,OMBERSLEY MEDICAL CENTRE,-2.229023,52.276554
410.11,MONKFIELD MEDICAL PRACTICE,-0.065978,52.218778
294.6,IMEARY STREET PRACTICE,-1.424863,54.98753
451.35,THE OLD SCHOOL MEDICAL PRACTICE,-1.142404,53.916163
861.81,SALTERS MEDICAL PRACTICE,-2.153493,52.266877
613.24,NEWBURN SURGERY,-1.743614,54.985644
168.54,WARLEY ROAD SURGERY,-1.993726,52.490193
188.67,ROSEHEATH SURGERY,-2.82558,53.359024
133.74,THE SURGERY (BROOKE ROAD),-0.070755,51.560052
715.94,BLAKEWATER HEALTH CENTRE,-2.473916,53.76497
582.57,ST.PAUL'S WAY MEDICAL CTR,-0.024483,51.517862
404.32,GREAT BARFORD SURGERY,-0.351406,52.156171
884.22,ST.AGNES SURGERY,-5.202589,50.310768
746.83,THE WHITFIELD PRACTICE,-1.526509,53.779894
480.17,ST MELOR HOUSE SURGERY,-1.777291,51.171219
939.44,MEDLOCK VALE MEDICAL PRACTICE,-2.142502,53.479062
605.61,BEDMINSTER FAMILY PRACTICE,-2.594216,51.444159
401.01,ABBEYSLADE PMS (DR CHAND),0.107443,51.487796
2452.67,BOROUGHBURY MEDICAL CENTRE,-0.245486,52.577858
450.67,THE NAYAR PRACTICE,-1.193379,53.480824
486.31,QUAYSIDE MEDICAL PRACTICE,-2.156747,53.509855
1889.39,FARNHAM ROAD PRACTICE,-0.617796,51.530427
766.04,THE ELMS MEDICAL CENTRE,-2.892972,53.195093
2161.42,WELLWAY MEDICAL GROUP,-1.689718,55.169477
470.19,WESTBURY MEDICAL CENTRE,-2.955353,52.67874
795.27,ARTHUR MEDICAL CENTRE,-1.422636,53.001503
1009.48,IRIDIUM MEDICAL PRACTICE  RICHMOND PCC,-1.817518,52.478024
384.02,SPRING GROVE MEDICAL PRACTICE,-0.345443,51.474432
114.08,HILL TOP PRACTICE,-2.011775,52.537791
498.06,THE BLITHEHALE MED.CTR.,-0.065196,51.523775
1032.07,THE KIRTON LINDSEY AND SCOTTER SURGERY,-0.594073,53.474089
494.35,UNITY HEALTH,-1.029922,53.950316
1269.65,WALLACE HOUSE,-0.081701,51.796317
212.44,MONMOUTH SURGERY,-2.367579,51.383191
799.45,WHITTINGTON MOOR SURGERY,-1.431065,53.260996
697.75,ARUNDEL SURGERY,-0.567268,50.852881
212.55,CLAPHAM JUNCTION MEDICAL PRACTICE,-0.173908,51.465969
558.28,FOWNHOPE MEDICAL CENTRE,-2.594618,52.007664
108.4,DR JEHANGIR (SH),-2.21885,53.838042
1607.95,RIVERBANK MEDICAL CENTRE,-0.735087,50.993474
402.85,ST HILARY GROUP PRACTICE,-3.06136,53.422188
1037.18,WYCHALL LANE SURGERY,-1.935566,52.409967
169.22,ROWLANDS ROAD SURGERY,-1.806157,52.463271
1177.36,DOWNING STREET GROUP PRACTICE,-0.798901,51.212905
958.76,THE SALTSCAR SURGERY,-1.073638,54.616282
819.85,CEDAR MEDICAL PRACTICE,-0.655287,53.570914
1466.33,PULBOROUGH MEDICAL GROUP,-0.509104,50.961138
591.11,MARKET QUARTER MEDICAL PRACTICE,-1.252936,52.377534
830.62,WHITCHURCH SURGERY,-1.340372,51.230256
132.65,PIKE MEDICAL PRACTICE,-2.045643,53.517861
491.69,FALMOUTH ROAD GROUP PRACTICE,-0.093122,51.496427
694.24,LOCKSTOWN PRACTICE,-2.057135,52.585445
167.3,SIMMONDLEY MEDICAL PRACTICE,-1.969041,53.43954
2662.99,THE PEARTREE PRACTICE,-1.339341,50.900324
135.75,DR SP TALPAHEWA,-0.260303,51.616115
2755.23,TROWBRIDGE HEALTH CENTRE,-2.206779,51.325271
813.01,THE WHITELEY SURGERY,-1.266072,50.88262
1139.89,CUMBERLAND HOUSE SURGERY,-2.12262,53.257964
522.47,SONNING COMMON HEALTH CTR,-0.982114,51.515603
0.54,7 DAY GP SERVICE,-3.011356,53.629265
327.03,GARSWOOD SURGERY,-2.681273,53.496386
210.29,DR N SADDIQ'S PRACTICE,-1.605537,53.744776
434.38,CLOVER HEALTH CENTRE,0.068593,51.490359
404.38,DEMONTFORT MEDICAL CENTRE,-1.938869,52.09226
563.81,CASSIO SURGERY,-0.401058,51.656689
656.4,LATCHFORD MEDICAL CENTRE,-2.561658,53.381001
1012.6,LONGROVE SURGERY,-0.204664,51.654244
0.63,SOUTH COTSWOLD LOCALITY NURSE PRESCRIBER,-2.176389,51.847073
562.66,STONEBRIDGE SURGERY,-2.608242,53.827609
593.19,PROSPECT SURGERY,-1.583343,53.681523
1328.99,FORDINGBRIDGE SURGERY,-1.793531,50.928159
128.81,DR MAHMOOD & PARTNERS,-1.661589,53.677829
1666.41,THE PENDLE MEDICAL PARTNERSHIP,-2.144307,53.915882
629,THE PHOENIX PRACTICE,-0.223569,51.587311
1058.78,OAKESWELL HEALTH CENTRE,-2.013776,52.5542
1193.98,CHARLTON HOUSE MEDICAL CENTRE,-0.069309,51.595299
845.68,SUTTON VALENCE GROUP PRACTICE,0.59403,51.211195
666.78,KINGSWOOD SURGERY,-1.754341,51.556256
443.94,CARNON DOWNS SURGERY,-5.091905,50.22345
376.66,LONGVIEW MEDICAL CENTRE,-2.825032,53.415399
1161.99,LAVANT ROAD SURGERY,-0.781051,50.853385
1225.26,TANFIELD VIEW MEDICAL GROUP,-1.701373,54.869939
880.49,BRIDGE LANE GROUP PRACTICE,-0.167394,51.474142
314.97,WINTON HEALTH CENTRE,-1.876372,50.739605
674.89,BHF LUNDWOOD SURGERY,-1.438538,53.557711
1.5,PHOENIX WALK IN CENTRE,-2.095555,52.599722
470.48,PADGATE MEDICAL CENTRE,-2.556188,53.406509
336.28,THE BEDFORD PARK SURGERY,-0.262302,51.49598
39.78,SOUTH YORK HEART FAILURE NURSES,-1.082907,53.951837
217.29,GARRETTS GREEN LANE SURGERY,-1.788691,52.468447
399.1,PARK HOUSE MEDICAL CENTRE,-0.20665,51.53452
923.39,SUTHERLAND LODGE SURGERY,0.482571,51.725662
2209.1,EASTGATE MEDICAL GROUP  HORNSEA,-0.16825,53.915277
653.16,WESTBOURNE MEDICAL GROUP,-1.495464,54.866868
524.38,THE HOLLIES FAMILY SURGERY,-3.061442,53.55525
1384.72,MIRIAM PRIMARY CARE GROUP,-3.04649,53.398246
261.5,HUNTLEY MOUNT MEDICAL CENTRE,-2.27859,53.600201
667.08,THE ORCHARD PRACTICE,-0.303542,51.369116
632.51,LAKENHAM SURGERY,1.296577,52.6183
550.95,SPECIALIST SERVICES,-1.441882,53.221288
707.95,THE ACORN & GAUMONT HOUSE SURGERY,-0.06645,51.474157
3175.56,THE ADAM PRACTICE,-2.07822,50.757881
887.44,NEWTOWN MEDICAL PRACTICE,-2.669697,53.538479
936.5,MATHER AVENUE SURGERY,-2.892382,53.365377
92.99,WESTCOTES GP SURGERY (TWO),-1.15115,52.628609
1327.84,MARSH MEDICAL PRACTICE,0.143689,53.445069
357.7,PALMERSTON ROAD SURGERY,0.044819,51.626871
1649.36,BIRTLEY MEDICAL GROUP,-1.576441,54.891881
855.53,TOWNHILL MEDICAL PRACTICE,-0.102825,51.290561
762.86,DORRIDGE SURGERY,-1.752074,52.372757
595.67,THE CORINTHIAN SURGERY,-2.0815,51.906706
6.16,BROMLEY GP ALLIANCE,-0.033209,51.405232
1257.79,RYE MEDICAL CENTRE,0.730363,50.961944
679.84,OAKLANDS HEALTH CENTRE,-1.784282,53.577106
1360.35,HIGH STREET SURGERY,1.756043,52.482123
354.97,FAIRMORE MEDICAL PRACTICE,-2.280663,53.70081
247.51,DR VICTORIA MUIR'S PRACTICE,-0.151358,51.490651
1613.78,LINDEN AVENUE MEDICAL CENTRE,-0.716133,52.397046
545.96,ALPHA MEDICAL PRACTICE,-1.856091,52.490749
2.62,NORTH TYNESIDE COMMUNITY SERVICE,-1.508192,55.020469
750.91,THE STREET LANE PRACTICE,-1.513393,53.843234
987.14,VINE HOUSE HEALTH CENTRE,-0.41878,51.70477
985.87,NEWBURY GREEN MEDICAL PRACTICE,-2.26047,53.506995
1045.97,TAUNTON ROAD MEDICAL CENTRE,-3.001634,51.124679
916.21,CHARNWOOD MEDICAL GROUP,-1.22117,52.774303
1073.79,DONNINGTON MEDICAL PRACTICE,-2.437109,52.715179
25.45,WEST KENT GROUP,1.118942,51.075872
969.38,MANOR DRIVE MEDICAL CENTRE,-0.248366,51.380785
369.27,DR NASAH & PARTNERS,0.505558,51.567734
227.67,LINKS MEDICAL PRACTICE,-2.079024,52.487973
572.7,PARK MEDICAL PRACTICE,-2.327843,53.401899
562.02,OLD TRAFFORD MEDICAL PRACTICE,-2.275745,53.458074
0.23,CATERHAM DENE RAC,-0.085202,51.283627
115.85,HEART FAILURE SERVICE,-2.629091,53.55774
733.02,HAVEN HEALTH,1.327039,51.96536
1318.02,CASTLE MEDICAL GROUP PRACTICE,-0.415501,51.875588
784.32,SACRISTON MEDICAL CENTRE,-1.628413,54.819683
795.23,SOUTHAM SURGERY,-1.385752,52.251212
1211.38,NORVIC FAMILY PRACTICE,-1.960133,52.489728
1277.68,WINTERTON MEDICAL PRACTICE,-0.606876,53.652511
793.95,STONEHAM LANE SURGERY,-1.378468,50.939305
443.11,LILFORD PARK SURGERY,-2.511455,53.503236
1384.68,LINTONVILLE MEDICAL GROUP,-1.570274,55.183776
79.67,BLUEBELL SURGERY,0.921899,51.916473
431.67,MANOR HOUSE SURGERY,-0.161227,51.916084
14.52,WEST KENT DERMATOLOGY,-0.364575,50.819326
350.91,NEW ISLINGTON MEDICAL CENTRE,-2.219472,53.4829
491.2,SEFTON PARK MEDICAL CENTRE,-2.934843,53.393088
487.3,LATHOM ROAD MEDICAL CENTRE,0.052675,51.538066
851.37,THE CAXTON SURGERY,-3.051276,52.861431
55.43,TOTTENHAM HALE MEDICAL PRACTICE,-0.058714,51.589477
1613.78,SALTERS MEADOW HEALTH CTR,-1.933023,52.68216
367.53,SURREY LODGE PRACTICE,-2.218728,53.458264
476.04,PLEASLEY SURGERY,-1.250873,53.175809
1105.42,LYTHAM ROAD SURGERY,-2.710575,53.77784
319.31,MILLENNIUM FAMILY PRACTICE,-1.603663,54.962972
950.48,PURTON SURGERY,-1.878078,51.585483
496.18,BARRINGTON MEDICAL CENTRE,-2.352158,53.38672
270.49,HEDNESFORD MEDICAL PRACTICE,-2.000697,52.71233
1648.73,WALDERSLADE SURGERY,-1.43772,53.499821
456.33,ABRIDGE SURGERY,0.12458,51.653631
676.2,ARTHINGTON MEDICAL CENTRE,-1.532912,53.77216
1112.03,SHIFNAL & PRIORSLEE MEDICAL PRACTICE,-2.376009,52.667675
1145.9,ASHWORTH STREET SURGERY,-2.165652,53.619565
1304.98,THE LIGHTHOUSE GROUP PRACTICE,-1.080505,50.796551
1758.51,TESTVALE SURGERY,-1.489898,50.919405
1005.6,THE DOVE VALLEY PMS PRACTICE,-1.46034,53.529021
31.67,PRIMARY CARE SEVEN DAY SERVICE,-0.059836,51.623784
1079.96,MILL ROAD SURGERY,0.896057,51.912436
787.73,TONG MEDICAL PRACTICE,-1.716795,53.77049
991.07,GODIVA GROUP PRACTICE,-1.482836,52.412774
907.7,KINGSBRIDGE MEDICAL CENTRE,-2.226198,52.9927
16.57,THE ROYAL MEWS SURGERY,-0.145223,51.498764
5.84,ASHFORD HUB,-0.472813,51.444022
171.4,DR VARDHAN'S SURGERY,-2.447913,53.500769
839.36,WELLS PARK PRACTICE,-0.063327,51.430508
164.53,THE DOC'S SURGERY,-2.238064,53.476932
1403.12,HADLEIGH BOXFORD GROUP PRACTICE,0.953136,52.043021
2143.64,EAST NORFOLK MEDICAL PRACTICE,1.725527,52.619127
282.73,HANCOCKS ME,-0.412964,53.782123
1115.81,THE MILTON SURGERY,-2.949198,51.352664
479.01,BAKERSFIELD MEDICAL CENTRE,-1.104957,52.960219
412.93,RAINFORD HEALTH CENTRE,-2.781746,53.500694
1192.07,MARCHAM RD FAMILY HEALTH CENTRE,-1.302953,51.66958
1282.06,THE LAURELS SURGERY,0.544165,51.758518
1809.77,THE CAMBRIDGE PRACTICE,-0.76565,51.254364
647.26,ROCKLEIGH COURT SURGERY,0.326872,51.63026
774.66,IFIELD MEDICAL PRACTICE,-0.211874,51.121108
6.21,BRIMPTON HOUSE,0.699534,51.835776
738.05,ST.STEPHENS HEALTH CENTRE,-0.031163,51.532455
414.71,PARK ROAD MEDICAL CENTRE,-0.150952,51.363489
559.51,MANCHESTER MEDICAL,-2.23745,53.45875
1298.81,POUND HILL MEDICAL GROUP,-0.156409,51.118813
410.79,SANDY LANE SURGERY,-1.182896,53.147091
1172.47,LANGWORTHY MEDICAL PRACTICE,-2.294771,53.489371
780.74,THE GOODINGE GROUP PRACTICE,-0.125442,51.54825
0.81,NEMS CBS MID NOTTS OOH,-1.233579,53.134573
1799.67,ROLLE MEDICAL PARTNERSHIP,-3.401499,50.621139
473.62,RILLWOOD MEDICAL CENTRE,-0.835728,52.263295
337.4,THE MANSELL ROAD PRACTICE,-0.358969,51.525654
1517.17,FORESTSIDE MEDICAL PRACTICE,-1.416173,50.851823
163.37,TRINITY SURGERY,-1.650877,52.617569
1355.54,NORTHWOOD MEDICAL CENTRE,-1.932971,52.415485
672.2,AUGHTON SURGERY,-2.902089,53.543684
1070.34,CHATHAM STREET SURGERY,-0.981895,51.455924
158.73,SLAIDBURN HEALTH CENTRE,-2.444001,53.967313
2.2,PETERLEE PRIMARY CARE SERVICES,-1.335627,54.758287
1144.46,FEARNHEAD CROSS MED.CTR.,-2.559106,53.411071
94.96,GREENFIELD MEDICAL CENTRE,-1.855764,52.491684
249.61,THE PROJECT SURGERY,0.020636,51.532273
140.83,THE VALE SURGERY,-0.251817,51.506454
1118.04,HAVELOCK GRANGE PRACTICE,-1.214164,54.682342
265.98,ST. LUKE'S SURGERY,-1.167635,52.956339
649.89,CRICH MEDICAL PRACTICE,-1.482573,53.084327
1631.62,CHURCH STREET PRACTICE,-2.153433,51.99229
488.97,GUTTERIDGE MEDICAL CENTRE,-2.691248,53.769881
915.57,KIRKHAM HEALTH CENTRE,-2.878541,53.781939
297.96,DR N NAGPAL'S PRACTICE,-2.467033,53.746299
1503.33,AINTREE PARK GROUP PRACTICE,-2.967297,53.462799
989.09,THE RYAN MEDICAL CENTRE,-2.663635,53.730399
381.55,CAREPOINT PRACTICE,-0.411552,51.604465
1894.84,FLANSHAM PARK HEALTH CENTRE,-0.629205,50.794855
111.65,MOHANTY PRACTICE,-2.130534,53.53731
3.98,THE LEGER CLINIC,-1.124029,53.525476
573.97,CHORLEYWOOD HEALTH CENTRE,-0.520415,51.654714
1958.27,THE SWAN PRACTICE,-0.985664,52.001593
641.34,KENSINGTON ROAD SURGERY,-1.532401,52.40257
754.9,TONGE FOLD HEALTH CENTRE,-2.405772,53.579119
948.53,GUISELEY AND YEADON MEDICAL PRACTICE,-1.684131,53.865295
261.39,HAROLD STREET MEDICAL CENTRE,-1.492871,53.393121
1328.82,SHERWOOD MEDICAL PARTNERSHIP,-1.137878,53.157488
1143.76,CASTLE PRACTICE,-1.617531,51.256028
695.77,CARDEN SURGERY,-0.126631,50.862197
286.8,LANCELOT MEDICAL CENTRE,-0.299498,51.552907
1507.79,ELLERGREEN MEDICAL CENTRE,-2.919309,53.445416
788.86,KIDDROW MEDICAL PRACTICE,-2.288626,53.795175
687.43,THE VINE MEDICAL CENTRE,0.514909,51.270888
790.83,THE SYMONS MEDICAL CENTRE,-0.73892,51.522782
1383.65,HARESFIELD HOUSE SURGERY,-2.202996,52.194829
1142.1,CENTRAL SURGERY,0.147747,51.812546
530.09,QUEENHILL MEDICAL PRACTICE,-0.066791,51.34499
1209.74,GATEACRE BROW SURGERY,-2.8632,53.383291
898.51,RED HOUSE SURGERY,0.129161,52.214906
633.19,RUSH HILL SURGERY,-2.393951,51.365379
0.92,OUT OF HOURS CENTRE,-1.842798,54.869081
769.65,DR S PHILLIPS AND DR M PATEL PRACTICE,-0.027903,51.569142
1690.25,ST GEORGES MEDICAL CENTRE,0.762412,51.436183
530.01,THE CHESSER SURGERY,-0.177303,51.374927
351.78,ASHURST PRIMARY CARE,-2.772723,53.563208
269.9,TOWN HALL SURGERY,-2.092973,53.478374
902.71,WHITE CLIFFS MEDICAL CENTRE,1.301586,51.12422
29.89,PARTNERSHIP SOUTH,-2.109085,52.810605
744.69,NORTH BEVERLEY MEDICAL CENTRE,-0.439008,53.857996
433.46,KILLICK STREET HEALTH CENTRE,-0.119068,51.534237
401.98,THE LILYVILLE SURGERY,-0.199155,51.47377
526.67,BURNBRAE MEDICAL PRACTICE,-0.303885,53.760383
919.59,TOPSHAM SURGERY,-3.462097,50.683825
161.71,FITZMAURICE (KEW),-0.283117,51.475875
470,ST PETER'S SURGERY,1.41893,51.362936
761.01,THE COURTYARD SURGERY,-0.328342,51.065411
489.12,SHIFA SURGERY,-2.475999,53.757295
382.68,SHIPDHAM SURGERY,0.894462,52.628852
141.05,OLD PARSONAGE SURGERY,0.460418,51.112785
270.03,POPLAR PRIMARY CARE CENTRE,-1.890326,52.43631
441.27,SPITAL SURGERY,-3.003678,53.340977
813.96,GRAVESEND MEDICAL CENTRE,0.369986,51.443932
199.66,THE KILLINGHOLME SURGERY,-0.260335,53.629908
869.54,THEATRE ROYAL SURGERY,0.942383,52.683767
260.31,SOMERS TOWN MEDICAL CENTRE,-0.130607,51.529916
897.33,THE SANDRINGHAM PRACTICE,-1.098266,53.533949
490.24,BRANSTON & HEIGHINGTON FAMILY PRACTICE,-0.467988,53.195831
457.98,THE BORCHARDT MEDICAL CENTRE,-2.237795,53.434307
350.84,THE VILLAGE MEDICAL CTRE,-2.871986,53.374777
242.63,DR GT HENDOW'S PRACTICE,-0.32136,53.787408
345.89,WEST BROM P'SHIPS FOR HEALTH,-2.000605,52.517891
1090.36,ANGEL LANE SURGERY,0.362574,51.871967
1211.73,BUNGAY MEDICAL CENTRE,1.442974,52.44971
282.59,ST MARY'S SURGERY,-2.000799,52.613174
245.84,BROOM ROAD MEDICAL PRACTICE,-0.030275,51.369778
117.24,ARDEN HEALTHCARE CENTRE,-1.508005,52.413401
453.92,KIRKBY COMMUNITY PRIMARY CARE CENTRE (3),-1.248741,53.10176
626.01,VICTORIA MEDICAL CENTRE,-1.52187,54.97385
619.88,THE RIGG-MILNER MEDICAL CENTRE,0.415644,51.48007
2.52,SHROPSHIRE WALK IN HEALTH CENTRE,-2.738044,52.707892
305.21,KIRKGATE SURGERY,-1.667625,53.732234
498.34,FRIERN BARNET MEDICAL CENTRE,-0.155988,51.613267
453.25,HOLLAND PARK SURGERY,-0.194435,51.501412
615.47,WOODVILLE SURGERY,-1.536503,52.770685
999.04,ELMHAM SURGERY,0.943019,52.752311
633.43,CROWN SURGERY,-2.253515,52.859415
299.6,REGENT STREET SURGERY,-2.283616,51.744168
528.74,JUBILEE HEALTH CENTRE,-2.01963,52.551655
0.13,GTD HEALTHCARE PRESTON OOH,-2.706842,53.791521
1099.66,DALTON SURGERY,-3.179816,54.155917
274.07,MAIDSTONE RD CHATHAM SURGERY,0.516708,51.361226
719.62,SKEGBY FAMILY MEDICAL CENTRE,-1.273344,53.142337
410.13,THE WRITTLE SURGERY,0.426548,51.73248
898.87,PARKBURY HOUSE SURGERY,-0.334063,51.756766
406.34,BUCKFASTLEIGH MEDICAL CENTRE,-3.781989,50.480934
620.43,CITY HEALTH PRACTICE LTD,-0.306816,53.756542
299.37,VALLEY VIEW SURGERY,-1.731903,53.806791
423.78,DR PCL KNIGHT,0.010023,51.541412
318.15,HORNSPIT MEDICAL CENTRE,-2.915341,53.436681
440.96,ARRAN MEDICAL CENTRE,-1.748679,52.503867
1011.09,THE MAPLES MEDICAL CENTRE,-2.286712,53.384846
446.96,MILTON SURGERY,0.162445,52.241924
1091.04,DR G LEES & PARTNERS,-1.593212,53.796407
1453.4,THE SHRUBBERY SURGERY,0.351088,51.433242
151.14,SHIP STREET SURGERY,-0.141753,50.821384
298.63,NORTON CANES SURGERY,-1.970246,52.673977
674.08,ST. LAURENCE'S MEDICAL CENTRE,-2.882285,53.475161
913.35,THE BRIMINGTON SURGERY,-1.395708,53.257173
978.17,MAYLANDS HEALTHCARE,0.190596,51.552912
684.86,YORKLEIGH SURGERY(CT),-2.0847,51.900132
0.92,B&H EXTENDED HOURS SERVICE,-0.148293,50.838378
584.65,LANTERN HEALTH-CARPENTERS PRACTICE,-0.003474,51.537165
217.4,WALTHAM ROAD MEDICAL CENTRE,0.584106,51.373869
0.38,BURY OOH,-2.288591,53.59553
177.5,PARROCK STREET SURGERY,0.371171,51.441238
144.16,NEVILLE ROAD SURGERY,-0.443036,51.906419
13.02,CWP (WEST) PHYSICAL HEALTH,-2.897884,53.2088
255.28,CATER STREET SURGERY,-0.490495,52.119586
882.97,WELLING MEDICAL PRACTICE,0.107972,51.460844
243.12,HILL BARTON SURGERY,-3.481689,50.723363
306.96,STACKYARD AND WOOLSTHORPE SURGERY,-0.7611,52.852515
377.01,HEALDS ROAD SURGERY,-1.651637,53.700113
371.13,BRADFORD MOOR PRACTICE,-1.721849,53.797834
1632.03,DR SPENCER & PARTNERS,-0.677325,52.359891
566.95,SMALLFIELD SURGERY,-0.118564,51.171722
1386.96,CHURCH STREET PRACTICE,-1.425847,51.598763
983.25,HUMBER ROAD SURGERY,0.48396,51.747558
0.92,PAT HMR COMMUNITY SERVICE,-2.229502,53.517882
1158.21,BALSALL COMMON & MERIDEN GROUP PRACTICE,-1.643862,52.394956
2.38,PALLIATIVE CARE,-2.974618,53.633552
1430.4,CHELMER MEDICAL PARTNERSHIP,0.459513,51.749313
3.3,NHS EASTERN CHESHIRE CCG NMP'S,-2.12262,53.257964
0.92,URGENT CARE CENTRE DARLINGTON OOH,-1.563733,54.530374
301.01,DR RC RAUTRAY'S PRACTICE,-2.475521,53.752542
1188.63,CLARENDON LODGE MEDICAL CENTRE,-1.531715,52.294043
931.94,ORCHARD 2000 GROUP,-0.370022,53.786372
4.34,WESTCLIFFE HEALTH INNOVATIONS ENT,-1.712131,53.823092
1109.83,GOSPORT MEDICAL CENTRE,-1.147265,50.79354
140.17,LANGTHORNE SHARMA FAMILY PRACTICE,0.0021,51.555415
826.53,FARMHOUSE SURGERY,-1.7595,50.736437
12.22,UHSM COMMUNITY SERVICES,-2.25528,53.390625
84.25,AR-RAZI MEDICAL CENTRE,-1.101204,52.623926
1217.2,TAMWORTH HOUSE MEDICAL CENTRE.,-0.146254,51.40122
625.05,MANSFIELD MEDICAL CENTRE,-1.484577,52.405976
485.4,BELMONT MEDICAL CENTRE,-0.385203,51.500848
621.99,FAIRHILL MEDICAL PRACTICE,-0.282871,51.417069
673.6,HENLEY GREEN MEDICAL CENTRE,-1.454284,52.428369
143.56,ADDINGTON MEDICAL PRACTICE,-0.018557,51.344382
675.61,EDEN PARK SURGERY,-0.041426,51.399335
1902.23,CASTLE PLACE PRACTICE,-3.492865,50.908884
3.4,NORTH NORFOLK HUB 2 (BIRCHWOOD),1.38334,52.820065
386.99,CROOKES PRACTICE,-1.502259,53.38366
1217.32,THE SIMPSON CENTRE,-0.651318,51.610791
745.24,UPTON LANE MEDICAL CENTRE,0.026394,51.5431
1085.17,MAYWOOD HEALTH CARE CENTRE,-0.693582,50.786664
809.34,ASKERN MEDICAL PRACTICE,-1.148909,53.615496
820.16,CAPTAIN FRENCH SURGERY,-2.748562,54.323429
475.44,THE NEW SURGERY,-0.660492,51.794471
686.41,DENTON TURRET MEDICAL CENTRE,-1.686387,54.983928
319.83,THE EUXTON MEDICAL CENTRE,-2.676836,53.669016
583.73,FALMOUTH HEALTH CENTRE,-5.08602,50.156398
2295.9,MILLGATE HEALTHCARE PARTNERSHIP,-2.118464,53.455602
1.86,LUTHER STREET MEDICAL PRACTICE,-1.258255,51.747356
504.64,SOUTHFIELD WAY SURGERY,-2.018733,52.658391
789.3,NEW COURT SURGERY,-2.30878,52.113538
919.73,WINDRUSH SURGERY,-1.343294,52.058899
743.65,DR GC CHAJED'S PRACTICE,0.465396,51.564483
0.5,STAR SCHEME EXTENDED,-1.068807,54.599299
536.96,NORTH SHOEBURY SURGERY,0.784481,51.542211
1170.05,SPRINGS HEALTH CENTRE,-1.265531,53.27774
172.93,VERITAS HEALTH CENTRE,-1.481026,53.354257
658.81,HEATH LANE MEDICAL CENTRE,-2.86384,53.188961
662.31,CAMPINGLAND SURGERY,0.690978,52.645997
542.23,PARK VIEW SURGERY,-2.77111,54.227652
203.13,AYLESTONE HEALTH CENTRE,-1.152678,52.605677
79.58,LCHS NMP,-0.52415,53.226467
242.09,CHARMOUTH MEDICAL PRACTICE,-2.903858,50.738665
861.13,THE CRESCENT MEDICAL CTR.,-0.876393,52.250449
353.94,NORTON CANES HEALTH CENTRE,-1.970246,52.673977
1649.86,VILLAGE SURGERY,-1.896468,50.741178
3.34,UNIVERSITY HEALTH CENTRE,-0.548748,53.229537
596.17,GORDON HOUSE SURGERY,-0.31522,51.509944
1271.36,FULLWELL CROSS MED. CTR.,0.083782,51.594621
803.95,VISTA ROAD SURGERY,-2.645459,53.457808
610.73,SANDS END HEALTH CLINIC,-0.191391,51.473128
216.43,WELLINGTON HEALTH CENTRE,-0.171284,51.532275
1763.1,BALL TREE SURGERY,-0.338832,50.831767
1659.89,KINGFISHER FAMILY PRACTICE,-0.950634,53.325451
1008.54,ABBEY ROAD SURGERY,-0.030102,51.684417
1033.59,LONDON LANE CLINIC,0.008653,51.415223
2196.29,IVY COURT SURGERY,0.690221,51.068039
442.48,THE SURGERY,-2.605295,53.024859
262.77,DR SHARMA & PARTNERS,0.447593,51.588181
791.02,THE OAKS MEDICAL CENTRE,-1.215186,52.928031
10.34,CPFT SPECIALIST SERVICE PETERBOROUGH,-0.319752,52.551199
1221.51,THE PARK MEDICAL PRACTICE,-2.739045,53.77018
189.81,WARRIOR SQUARE SURGERY,0.716503,51.539534
754.95,CHOBHAM & WEST END MEDICAL PRACTICE,-0.602516,51.34981
270.99,HP NMP'S N & S CCG,-1.143101,53.130244
782.21,NENE VALLEY SURGERY,-0.537451,52.399796
203.24,AILSWORTH MEDICAL CENTRE,-0.352472,52.577435
1620.67,BLOOMFIELD MEDICAL CENTRE,-3.043644,53.804417
340.36,KINGS ROAD MEDICAL CENTRE,-0.184768,51.480355
1591.46,SEVERN VALLEY MEDICAL PRACTICE,-2.235045,52.190415
707.75,HOCKLEY FARM MED PRACT (A NANA),-1.183899,52.630898
201.41,EAST ENFIELD PRACTICE,-0.046596,51.649065
559.33,THE AZAD PRACTICE,0.044868,51.531234
693.24,MELBOURNE PARK MEDICAL CENTRE,-1.192728,52.975767
1415.64,THORPEWOOD MEDICAL GROUP,1.341071,52.641956
991.44,ST.HELENS MEDICAL CENTRE,-1.109209,50.698751
362.88,EDEN SURGERY,-1.30159,52.962668
221.57,THE HOXTON SURGERY,-0.086829,51.533527
365.83,DR MARKS PRACTICE,0.192379,51.572553
176.96,BRENTFORD FAMILY PRACTICE,-0.310054,51.48676
1260.3,MANOR AND PARK GROUP PRACTICE,-1.42716,53.373705
633.66,BIRD-IN-EYE SURGERY,0.105639,50.96595
412.62,LONGFIELD MEDICAL PRACTICE,-2.28357,53.533828
277.87,THE HALING PARK PARTNERSHIP,-0.098109,51.357113
321.57,DR RB KUMAR PRACTICE,0.800566,51.327757
907.38,HANDSWORTH MEDICAL PRACTICE,-1.383405,53.371708
809.81,MOSBOROUGH HEALTH CENTRE,-1.364873,53.325238
282,CRABBS CROSS SURGERY,-1.943704,52.281407
0.69,I HEART BARNSLEY,-1.506899,53.547954
5256.88,MIDLANDS MEDICAL PARTNERSHIP,-1.81313,52.519802
449.96,THE HEALTH CARE SURGERY,-1.487911,53.42172
559.84,HYTHE MEDICAL CENTRE SURGERY,-0.526274,51.429608
285.33,THE LEIGH SURGERY,0.656153,51.555504
968.05,WILLOW BANK SURGERY,-2.102853,52.97847
748.02,PARK MEDICAL CENTRE,-2.873099,53.202665
1.99,COMMUNITY SERVICES NURSE PRESCRIBERS,-0.487256,51.892609
1495.72,THE NEW CONINGSBY SURGERY,-0.173849,53.105092
285.35,THE STATHAM GROVE SURGERY,-0.08946,51.557463
1302.44,CROWN HOUSE SURGERY,-0.950634,53.325451
654.33,BARN SURGERY,-0.447347,50.813953
1.07,PRIMARY CARE MANCHESTER LIMITED,-2.214292,53.489633
507.03,CRICKLADE SURGERY,-1.85646,51.640614
256.77,WOODGATE VALLEY HEALTH CENTRE,-1.991423,52.442663
476.72,CROSS ROAD SURGERY,-2.464849,50.602187
367.25,ST PETER'S MED CENTRE (MANSINGH & MEHRA),-1.119092,52.631036
253.24,JRB HEALTHCARE BEECHDALE SURGERY,-1.198142,52.961504
484.77,CHEETHAM HILL PRIMARY CARE CENTRE,-2.23526,53.501162
266.53,CROSSWAYS PRACTICE,-3.023992,53.484655
408.93,HOUNSFIELD SURGERY,-0.811033,53.183702
657.82,HADDENHAM MEDICAL CENTRE,-0.921732,51.777822
1126.17,LISTER HOUSE SURGERY,-0.227126,51.764574
2523.33,NETTLEHAM MEDICAL PRACTICE,-0.476253,53.262865
7.53,NORTH DEVON TRUST NMPS,-3.413654,50.729414
401.95,CUMBERLAND MEDICAL CENTRE,0.026047,51.519716
2718.69,THE RIDINGS MEDICAL GROUP,-0.622066,53.765218
900.55,STANMORE HOUSE SURGERY,-2.231468,52.391138
535.05,DR BK JAISWAL'S PRACTICE,0.125595,51.538934
1780.54,THE OVER-WYRE MED.CTR.,-2.976492,53.928203
1734.83,DOCTOR LANE HEALTH CENTRE,-1.696722,53.675715
2154.4,NEWPORT PAGNELL MED.CTR.,-0.725298,52.086465
1661.93,TRAFALGAR MEDICAL GROUP PRACTICE,-1.092485,50.785331
1349.62,LONDON ROAD SURGERY,0.519034,51.613356
1487.06,LEEDS CITY MEDICAL PRACTICE,-1.555879,53.778323
482.6,NORTHGATE SURGERY,-1.866567,52.899272
1039.84,AMWELL SURGERY,-0.013312,51.759904
1164.98,THE VILLAGE PRACTICE,-3.014553,53.876825
345.93,240 WEXHAM ROAD,-0.57838,51.516902
350.01,THE JUBILEE PRACTICE,-1.003945,53.013557
1.08,TENBURY COMMUNITY HOSPITAL WARD,-2.589551,52.315401
654.91,LONG LANE,-2.925005,53.456024
636.74,GREYSTOKE SURGERY,-1.683424,55.171694
318.56,KINGSTON HEALTH CENTRE,-0.304894,51.414188
1005.94,NORTH TRAFFORD GROUP PRACTICE,-2.299481,53.453882
13.63,GATESHEAD COMMUNITY HEART FAILURE TEAM,-1.580781,54.93938
130.69,SMS MEDICAL PRACTICE,-0.306785,51.549713
1615.37,STRATTON MEDICAL CENTRE,-4.516205,50.830225
911.98,PARK FARM MEDICAL CENTRE,-1.495809,52.94407
851.26,42 KINGSWAY,-3.020167,53.481011
1585.5,HELSTON MEDICAL CENTRE,-5.270081,50.099592
316.01,BURSLEDON SURGERY,-1.317111,50.890052
329.72,WYRESDALE ROAD SURGERY,-2.452196,53.581577
781.89,THE MEDICAL CENTRE,-0.476068,51.50442
1253.89,THE GLENFIELD SURGERY,-1.196305,52.655381
628.63,TRENTSIDE MEDICAL GROUP,-1.074629,52.964659
710.53,THE NEW FOLLY SURGERY,0.384799,51.669624
1577.36,SWANSCOMBE HEALTH CENTRE,0.28731,51.424657
257.7,UPPER HALLIFORD MEDICAL CENTRE,-0.43115,51.411378
699.48,NESTON MEDICAL CENTRE,-3.064349,53.291818
174.96,DROYLSDEN MEDICAL PRACTICE,-2.145664,53.487166
472.94,CEDARS MEDICAL GROUP,-1.740442,54.90557
271.17,DR VM PATEL,0.228776,51.561113
242.75,UNITY SURGERY,-1.103411,52.980422
937.03,FOREST PRACTICE,0.075235,51.654789
1064.76,HOLTS HEALTH CENTRE,-2.406966,51.931555
692.8,GUN LANE MEDICAL CENTRE,0.493189,51.397398
3.63,URGENT CARE CENTRE (ERITH),0.166643,51.477113
323.58,WESTFIELD MEDICAL CENTRE,-1.531703,53.817673
158.14,GOLDINGTON ROAD SURGERY,-0.456174,52.140172
220.91,PRESTON MEDICAL CENTRE,-0.292579,51.564335
767.29,WOODHALL SPA NEW SURGERY,-0.207041,53.153263
1175.21,THE NEW SURGERY,1.181851,51.089152
292.95,GLENDALE MEDICAL CENTRE,-0.434503,51.490429
2665.18,FRIARSGATE PRACTICE,-1.336797,51.074249
211.25,VESTA ROAD SURGERY,-0.040618,51.468737
939.19,GRAVEL HILL SURGERY,-2.185723,52.534052
2.99,SHROPDOC OUT OF HOURS,-2.732712,52.740396
718.7,LEACROFT MEDICAL PRACTICE,-0.196029,51.126566
929.05,PEEL HALL MEDICAL CENTRE,-2.265017,53.379925
663.09,TILEHURST VILLAGE SURGERY,-1.042269,51.461233
477.06,BUDSHEAD MEDICAL PRACTICE,-4.150289,50.417443
252.73,SOUTH SAXON HOUSE SURGERY,0.526723,50.868702
531.51,ELTHAM PALACE PMS,0.053714,51.449946
714.73,RIVERPORT MEDICAL PRACTICE,-0.075654,52.343316
662.19,DR KK CHAN & PARTNERS,-2.489022,53.524185
287.06,ROTTON PARK MEDICAL CENTRE,-1.947079,52.482162
1408.84,AYLMER LODGE COOKLEY PARTNERSHIP,-2.261095,52.38419
1057.55,FRAMLINGHAM SURGERY,1.334192,52.227216
142.41,LANCASTER GATE MEDICAL CENTRE,-0.183362,51.511753
280.47,PENNINE SURGERY,-2.103349,53.642995
1267.44,MARLBOROUGH SURGERY,-1.33549,54.835804
745.69,DR INGRAM & PTRS,-1.526892,54.136451
705.05,MOULTON MEDICAL CENTRE,-0.062945,52.79766
37.69,COMMUNITY NURSING (H&R),-1.438367,54.350666
360.29,RAJ MEDICAL CENTRE,-0.113968,53.550655
465.15,LINDEN ROAD SURGERY,-0.479248,52.14361
1247.2,DAWLEY MEDICAL PRACTICE,-2.466781,52.664322
12.01,CHCP - URGENT CARE OOH,-0.373324,53.729806
426.19,ST SAVIOURS SURGERY,-2.308488,52.130324
0.46,IC24 LTD (CRAWLEY OOH),0.891514,51.129106
426.82,THE GLEBE FAMILY PRACTICE,0.544473,51.383164
287.6,WESTFIELD SURGERY,-2.458993,51.284957
1144.59,HILLSIDE PRACTICE,-0.981124,54.56313
731.99,EAST PARK MEDICAL CENTRE,-1.514944,53.793168
1.17,READING WALK-IN HTH CTR OOH,-0.975896,51.454809
446.77,OAK GLEN SURGERY,-1.816352,53.854799
19.5,HUC WEST ESSEX OOH,-0.191727,51.782567
901.82,ROSEGARTH SURGERY,-1.871551,53.714895
282.26,THE HOLLIES SURGERY,0.374326,52.603925
1420.44,ONGAR HEALTH CENTRE,0.246278,51.716938
990.01,SUMMERTOWN HEALTH CENTRE,-1.26328,51.774383
117.31,STANHOPE PARADE HEALTH CENTRE,-1.431179,54.984988
1253.05,BURLEIGH MEDICAL CENTRE,-1.477568,53.549879
1175.96,THE BOULEVARD MEDICAL PRACTICE,-1.86759,53.716715
402.73,BROADHURST ST MED PRACT (KS MORJARIA),-1.118671,52.653472
223.55,THE ACTON HEALTH CENTRE,-0.270199,51.506214
1386.78,SEVERN FIELDS MEDICAL PRACTICE,-2.721619,52.728047
386.82,KUDRA (WOODLAWN),-0.366673,51.444444
264.33,GRAINGER & SCOTSWOOD MEDICAL PRACTICES,-1.640452,54.969316
162.04,GEORGE ELIOT MEDICAL CENTRE,-1.506534,52.419528
490.42,ANFIELD GROUP PRACTICE,-2.945317,53.429436
724.55,COLLIERY COURT MEDICAL GROUP,-1.460703,54.949762
421.48,GREENBANK DRIVE SURGERY,-2.930424,53.38977
1136.59,NEWTONS PRACTICE,-0.103899,51.000679
423.95,I J HEALTHCARE,-1.531354,54.88104
154.81,SCOTS GAP MEDICAL GROUP,-1.940563,55.172746
603.32,MORETON CROSS GROUP PRACTICE,-3.111975,53.403551
1435.47,SHERINGHAM MEDICAL PRACTICE,1.214777,52.939688
469.89,GRANVILLE MEDICAL CENTRE,0.07096,51.563158
1217.05,JAMES WIGG PRACTICE,-0.139955,51.546404
811.44,THE WELLSPRING SURGERY,-1.136804,52.962324
8413.66,OCTAGON MEDICAL PRACTICE,-0.103578,52.622001
969.92,LITTLEBURY MEDICAL CENTRE,0.01909,52.801863
496.29,GROVE VILLAGE MEDICAL CENTRE,-0.43095,51.449161
2128.31,COWPLAIN FAMILY PRACTICE,-1.017682,50.894248
0.55,THE JUNCTION HC - UNREGISTERED PATIENTS,-0.170756,51.465228
1017.39,BOSWORTH MEDICAL CENTRE,-1.753633,52.480569
531.72,THE HERON PRACTICE,-0.093757,51.568531
1206.34,WESTWAY MEDICAL CENTRE,-2.943932,53.515597
175.11,AL-WAQAS MEDICAL CENTRE,-1.108413,52.62906
1249,UPWELL HEALTH CENTRE,0.224238,52.59997
546.55,RAMSEY HEALTH CENTRE,-0.108107,52.448482
1529.96,FAIRBROOK MEDICAL CENTRE,-0.272179,51.659777
480.36,PARTNERSHIP PRIMARY CARE CENTRE,-0.120993,51.554717
931.8,PWE HEALTHCARE PENDLE,-2.21885,53.838042
494.32,HIGHGREEN PRACTICE (KHAN),-1.171945,52.964495
457.33,GREEN PRACTICE,-0.371755,51.468263
246.62,AVHAC REGISTERED PATIENTS,-2.366921,53.759584
539.68,EAST END MEDICAL CENTRE,0.025228,51.537311
106.64,PRINGLE STREET SURGERY,-2.467594,53.742039
945.28,THE LANGTON MEDICAL GROUP,-1.837644,52.696405
0.46,URGENT CARE CENTRE BISHOP AUCKLAND,-1.678547,54.655848
173.24,SOUTHGLADE MEDICAL PRACTICE,-1.17363,52.99873
1465.41,GEORGE CLARE SURGERY,0.051852,52.457422
1781.93,ROWDEN SURGERY,-2.125101,51.453853
1632.85,THE LIGHTHOUSE MEDICAL PRACTICE,0.281363,50.765632
1025.66,STOKESLEY SURGERY,-1.194366,54.470898
5.52,RICHARDSON COMMUNITY HOSPITAL,-1.916153,54.545708
416.21,BALLIOL ROAD SURGERY,-1.471449,52.415924
1123.53,HORSMAN'S PLACE SURGERY,0.214952,51.442468
802.88,THE VILLAGE SURGERIES GROUP,-2.771265,53.124246
0.23,MERTON CCG SLDUC OOH,-0.283378,51.412517
1065.95,THAXTED SURGERY,0.343457,51.95519
5.35,EAST BERKS PRIMARY CARE OOH(WAM),-0.763252,51.415712
1216.25,SANDMERE PRACTICE,-0.127558,51.462594
901.06,THE GABLES MEDICENTRE,-1.508288,52.440912
1377.53,THE CASTLE MEDICAL GROUP,-2.3932,53.873954
529.17,THE RIVERSIDE HEALTH CTR,1.060732,51.945725
541.09,RYALLS PARK MEDICAL CENTRE  YEOVIL,-2.640872,50.951832
315.14,LIMBRICK WOOD SURGERY,-1.578558,52.406833
334.09,DARLASTON HEALTH CENTRE-KHAN,-2.036323,52.56617
360.57,WOLSTON SURGERY,-1.392727,52.376806
457.72,JAUNTY SPRINGS HEALTH CENTRE,-1.417896,53.347684
353.93,THE PRACTICE HEART OF HOUNSLOW,-0.371755,51.468263
727.87,NETHERTON HEALTH CENTRE,-2.079024,52.487973
1402.7,FOREST HOUSE SURGERY,-1.287289,52.766681
982.95,NEWBOLD SURGERY,-1.450706,53.256108
732,LONGSHORE SURGERIES,1.717841,52.420772
420.87,BARBARA CASTLE HEALTH CENTRE,0.073795,51.748894
50.7,AT HOME SERVICE,-0.10603,51.438104
883.73,THORNBURY HEALTH CENTRE - BURNEY,-2.517723,51.612861
1268.17,CHARTER MEDICAL CENTRE,-0.156741,50.831254
3326.7,VINE MEDICAL GROUP,-1.035063,50.878251
931.6,PRIORY ROAD MEDICAL CENTRE,-1.747812,51.552763
181.99,DR JO ARAYOMI'S PRACTICE,0.505558,51.567734
2277.58,GRAFTON MEDICAL PARTNERS,-0.171386,51.424951
260.76,LABURNUM SURGERY,-1.56822,55.182043
1564.72,GLENROYD MEDICAL CENTRE,-3.033503,53.849555
1033.87,WATERLOO HOUSE SURGERY,-3.268021,54.20894
497.53,ELM LANE SURGERY,-1.460525,53.421626
635.55,LISSON GROVE HEALTH CENTRE,-0.169323,51.524736
175.14,HAMMERSMITH & FULHAM CENTRES FOR HEALTH,-0.234721,51.51742
1223.62,MANOR SURGERY,-1.215037,51.761474
229.21,COCKHEDGE MEDICAL CENTRE,-2.589833,53.390932
936.29,SEASIDE MEDICAL CENTRE,0.294614,50.773566
827.21,GLEADLESS MEDICAL CENTRE,-1.451325,53.356551
223.77,BROOKSIDE SURGERY,-1.399088,52.35048
521.87,LUNESDALE SURGERY,-2.602213,54.200573
688.11,HAZELDENE MEDICAL CENTRE,-0.275394,51.547592
3.94,GREENWICH COMMUNITY HEALTH SERVICES,0.174741,51.434795
574.22,GUDGEHEATH LANE SURGERY,-1.205575,50.859752
717.33,ST GEORGE'S MEDICAL CENTRE PMS PRACTICE,-1.482825,53.57906
1774.23,PARK SURGERY,-0.327381,51.064354
1346.45,LILLIPUT SURGERY,-1.954229,50.711523
421.72,PEDMORE MEDICAL PRACTICE,-2.118211,52.457029
588.99,DISHLEY GRANGE MEDICAL PRACTICE,-1.240459,52.779192
54.34,ST. KATHERINE'S DOCK PRACTICE,-0.068285,51.506983
1215.59,CHAPELTHORPE,-1.507287,53.644526
2.99,BADGER GROUP OOH,-1.877826,52.477589
754.28,RAYMOND ROAD SURGERY,-1.419748,50.91941
423.03,2/IRLAM MEDICAL PRACTICE,-2.432258,53.437925
2454.66,BEDWORTH HEALTH CENTRE,-1.472657,52.478626
1178.22,LIGHTWATER SURGERY,-0.664016,51.351903
275.73,SUNRISE MEDICAL CENTRE,-0.382255,51.51087
910.27,NEWPORT SURGERY,0.208995,51.982816
1102.65,THE GLEBE PRACTICE,-0.670912,53.270911
555.23,BRICKFIELDS SURGERY,0.605168,51.653143
1097.14,LANGPORT SURGERY,-2.827561,51.037993
253.62,BARNSLEY ROAD SURGERY,-1.45693,53.425089
541.77,LISTER HOUSE SURGERY,-0.4515,51.89192
1764.22,GRAHAM ROAD SURGERY,-2.97439,51.34467
4464.17,HILL TOP SURGERY,-2.100756,53.52011
604.71,GRANGEWOOD SURGERY,-1.498711,54.866414
658.73,STABLE FOLD SURGERY,-2.52343,53.552405
396.11,CITY ROAD MEDICAL CENTRE,-0.091116,51.527895
1029.95,CONISTON MEDICAL PRACTICE,-2.584043,51.538567
595.14,PARKFIELD MED CTR,-3.00005,53.363076
1148.62,GRANGE ROAD SURGERY,-2.61945,51.413052
1332.86,THE HAWTHORNS SURGERY,-1.825965,52.538746
469.02,DR RAHIL'S SURGERY,-2.693285,53.464803
729.79,CASTLEFIELDS,-2.129518,52.801013
702.28,SHEET STREET SURGERY,-0.605507,51.479648
638.92,GLOUCESTER HOUSE MEDICAL CENTRE,-2.352599,53.447337
3995.87,HEREFORD MEDICAL GROUP,-2.720274,52.058534
901.82,CLAYPATH & UNIVERSITY MEDICAL GROUP,-1.56716,54.7787
975.42,HEATH HAYES HEALTH CENTRE,-1.988284,52.69062
179.03,SHAKESPEARE HEALTH CENTRE,-0.437018,51.498422
757.68,OXFORD STREET SURGERY,-3.550576,54.64373
220.86,HOLMLANDS MED CTR,-3.060475,53.37273
2055.61,LONGFIELD MEDICAL CENTRE,0.678834,51.729336
497.68,NORTON CANES PRACTICE,-1.970246,52.673977
717.08,THE ENDEAVOUR PRACTICE,-1.235397,54.575047
317.65,COWGILL SURGERY,-1.814543,53.781952
574.58,DR MB GHAFOOR & PARTNERS,-2.154239,53.611617
818.51,BLYTH ROAD MEDICAL CENTRE,-1.20365,53.422231
293.48,KADIM PRIMECARE MEDICAL CENTRE,0.330602,51.479903
489.51,THE MOUNTFIELD SURGERY,-0.19422,51.595001
899.94,WOOLTON HOUSE MEDICAL CTR,-2.867143,53.375388
873.47,THE CENTRAL SURGERY,-1.082204,52.598976
631.59,ELLIS PRACTICE,-0.276552,51.563894
807.46,PRIORY MEDICAL GROUP,-1.450123,55.010031
393.64,THE CHESTNUTS & HALLGATE SURGERY,-0.403621,53.778985
232.17,RUSSELL STREET SURGERY,-0.982888,51.452326
299.25,RUGBY ROAD SURGERY,-1.419352,52.476714
545.69,TADCASTER MEDICAL CENTRE,-1.25824,53.885494
639.24,CLARENDON MEDICAL PRACTICE,-2.284742,53.488361
1534.57,WARDERS MEDICAL CENTRE,0.279212,51.19741
809.54,RIVERSIDE PARTNERSHIP,-0.893061,51.043814
69.47,PLUMBRIDGE MEDICAL CENTRE,-0.013986,51.473207
560.15,BERINSFIELD HEALTH CENTRE,-1.176774,51.663989
941.49,ELLIOTT HALL MEDICAL CTR.,-0.362526,51.608476
340.11,ROYTON MEDICAL CENTRE,-2.12386,53.565731
808.62,LUDLOW - PORTCULLIS,-2.715958,52.368905
112.31,ESTUARY MEDICAL PRACTICE,-3.183089,53.373492
363.38,COLNEY HATCH LANE SURGERY,-0.147555,51.600731
823.61,NORWOOD SURGERY,-2.97819,53.650008
278.17,BINBROOK SURGERY,-0.178896,53.42766
1220.52,CHEADLE MEDICAL PRACTICE,-2.213539,53.393745
919.67,CUMBERLAND HOUSE SURGERY,-2.990437,53.638743
604.58,WOLSELEY MEDICAL CENTRE,-0.355069,53.746195
399.36,THE ARGYLE SURGERY,-0.322592,51.520337
1081.19,PROSPECT MEDICAL CENTRE,-1.646189,54.974185
947.72,THORNDIKE SURGERY,0.502879,51.380805
760.06,MOORE STREET MEDICAL CENTRE,-3.002523,53.458715
599.8,CHURCH WALK SURGERY,-0.39973,53.13783
215.87,DR GUPTA,0.164714,51.582916
1012.54,HUCKNALL ROAD MEDICAL CENTRE,-1.168398,52.990092
509.79,HARTSHILL MEDICAL CENTRE,-2.210624,53.009925
780.47,THE CROFT MEDICAL CENTRE,-1.068661,52.5939
1063.68,YELVERTON SURGERY,-4.082824,50.491344
879.36,THE BILLESDON SURGERY,-0.93947,52.618174
533.26,BATTERSEA FIELDS PRACTICE,-0.154867,51.473666
359.47,STIRLING MEDICAL CENTRE (MATHEWS),-0.05904,53.573513
461.91,TODDINGTON MEDICAL CENTRE,-0.530482,51.945856
791.03,THE GREENS HEALTH CENTRE,-2.099175,52.529005
921.82,HOPE HOUSE SURGERY,-2.447646,51.291794
553.35,THE SURGERY,-1.367146,52.726986
470.27,ABBEY MEDICAL CENTRE,-0.185132,51.537921
1018.18,WINSCOMBE SURGERY,-2.830537,51.315196
1270.33,LANGLEY HEALTH CENTRE,-0.541284,51.495313
1750.8,CROWN HEIGHTS MEDICAL CENTRE,-1.086312,51.267188
1819.21,MERTON LODGE SURGERY,0.173148,53.259654
1011.91,THE WATERLOO PRACTICE,-1.737438,53.645186
1186.53,MARTLESHAM SURGERY,1.272068,52.061314
259.13,WARWICK GATES FAM.HTH.CTR,-1.53869,52.268666
956.64,MIDDLEWAY SURGERY,-4.713217,50.356439
500.21,SWINGBRIDGE SURGERY,-0.662707,52.901355
3502.04,NEWGATE MEDICAL GROUP,-1.123405,53.301065
1100.41,NORTHFIELD SURGERY,-0.966348,53.613648
673.64,HEALD GREEN HEALTH CENTRE 1,-2.229276,53.369878
424.29,HOWARD STREET MEDICAL PRACTICE,-1.94969,53.445062
209.8,QUINCY RISE SURGERY,-2.129544,52.467436
1104.23,ALVASTON MEDICAL CENTRE,-1.429622,52.893808
19.96,LEEDS COMMUNITY CARDIAC SERVICE,-1.526199,53.811432
271.55,GILLMOSS MEDICAL CENTRE,-2.897849,53.459458
941.38,ST EDWARDS MEDICAL CENTRE,0.181741,51.580341
815.76,PRACTICE TWO,-0.201064,54.084715
686.09,3/SPRINGFIELD HOUSE MEDICAL PRACTICE,-2.362019,53.480252
514.79,MILLBANK MEDICAL CENTRE,-0.130231,51.49403
1373.89,PARKLANDS MEDICAL PRACTICE,-1.781051,53.761106
97.52,GRANGE MEDICARE - NEW CROSS SURGERY,-1.485011,53.747069
2517.21,WELLINGTON ROAD SURGERY,-2.3789,52.764241
812.64,PARK LANE SURGERY,-2.12262,53.257964
951.82,THE LENNARD SURGERY,-2.613084,51.425915
527.77,DR SEABROOK,-2.632499,53.55143
317.63,MILDMAY MEDICAL PRACTICE,-0.085731,51.552474
939.85,STILLMOOR HOUSE MEDICAL PRACTICE,-4.720038,50.471929
54.51,NT&H COMM CARDIAC N,-1.227837,54.702398
445,ALLERTON MEDICAL CENTRE,-1.533879,53.826921
350.05,CLIFFORD HOUSE MEDICAL CENTRE,-0.406678,51.447323
257.93,FOUNTAINS MEDICAL PRACTICE,-2.892972,53.195093
1261.91,ORCHARD CROFT,-1.54984,53.660001
618.19,CROWN STREET SURGERY,-0.2738,51.507391
13.32,ST HELENS ROTA OOH,-2.750335,53.45324
1152.11,COLNE VALLEY GROUP PRACTICE,-1.928213,53.602096
1121.63,SOUTH PARK SURGERY,-2.12262,53.257964
236.08,BERE REGIS SURGERY,-2.219824,50.752538
351.13,SHIRLAND ROAD MEDICAL CENTRE,-0.203904,51.5292
1347.06,THE ISLAND SURGERY,0.591014,51.520226
459.82,FAMILY PRACTICE,-2.216357,53.554714
14.13,GPSI CARDIOLOGY - WESTCLIFFE,-1.781103,53.830481
1181.45,CHURCHILL MEDICAL CENTRE,-0.288192,51.413388
0.08,BROADWAY (SWBCCG) MALLING HEALTH OOH,-2.02775,52.527792
0.47,WARWICKSHIRE GP OOH,-1.478439,52.51258
701.76,THE WINDMILL PRACTICE,-1.13475,52.951951
496.99,HOLLY BANK SURGERY,-2.724149,53.454211
1075.47,HALL GROVE GROUP PRACTICE,-0.181801,51.78932
380.39,RUTLAND HOUSE SURGERY,-0.14424,51.594563
602,PEMBROKE ROAD SURGERY,-2.618518,51.464336
922.5,OLD TOWN SURGERY,-1.796355,51.550429
2.41,PUTNOE MEDICAL CENTRE WALK IN CENTRE,-0.438308,52.147939
83.7,MEDICUS HEALTH PARTNERS-RILEY HOUSE,-0.043984,51.664416
652.12,ANDOVER MEDICAL CENTRE,-0.116461,51.561766
722.62,CHURCH STRETTON MEDICAL CENTRE,-2.806169,52.537286
571.23,BARLBOROUGH MEDICAL PRACTICE,-1.284471,53.289528
209.78,HOSSAIN PRACTICE,-2.156747,53.509855
923.04,DR P & S POOLOGANATHAN,0.175968,51.560718
2.95,PRIMARY HEALTHCARE DARLINGTON,-1.561958,54.528141
1043.94,NEW COLLEGIATE MEDICAL CENTRE,-2.236077,53.504378
599.49,MANCHESTER ROAD SURGERY,-1.521086,53.380573
549.9,FRESSINGFIELD MEDICAL CENTRE,1.310808,52.347219
910.26,THE CROFT SURGERY,-0.657769,50.841375
464.29,WEST TIMPERLEY MEDICAL CENTRE,-2.353117,53.402699
329.7,QUEENS AVENUE PRACTICE,-0.147916,51.591852
1031.04,NORTHUMBERLAND HOUSE SURGERY,-2.261095,52.38419
1377.95,OXTED HEALTH CENTRE,9.9e-05,51.257686
677.62,MUCH WENLOCK & CRESSAGE MEDICAL PRACTICE,-2.559942,52.595605
118.74,BURMA HILL PRACTICE,-0.824887,51.417902
268.78,THE MANOR PARK PRACTICE,0.057339,51.55393
1160.19,KNOWLE HOUSE SURGERY,-4.134098,50.40863
143.02,DR A PATEL,0.140105,51.573716
592.09,FRIENDS ROAD MEDICAL PRACTICE,-0.094795,51.371276
287.59,DR A ARIF,0.115343,51.551395
903.15,BEAUMONT LODGE MEDICAL PRACTICE,-1.160488,52.658279
351.6,DR SOORIAKUMARAN,0.698888,51.557721
456.42,ST. JOHN'S STREET SURGERY,-0.499539,52.115134
5.12,HERTS URGENT CARE W/H OOH,-0.191727,51.782567
707.82,HEALD GREEN HEALTH CENTRE 2,-2.229276,53.369878
5.4,THE HEALTH XCHANGE,-1.899156,52.48606
1337.05,ABINGTON MEDICAL CENTRE,-0.865891,52.253262
250.78,BIGHAM ROAD MEDICAL CENTRE,-2.945994,53.413783
363.79,KINGSBURY HEALTH AND WELLBEING,-0.265508,51.591733
289.89,SUNRAY SURGERY,-0.274833,51.382645
642.22,BUCKLANDS END LANE SURGERY,-1.799863,52.497809
1307.47,TILBURY HEALTH CENTRE,0.36622,51.460987
400.24,SPA MEDICAL CENTRE,-1.525278,52.284514
532.39,EVINGTON MEDICAL CENTRE (C KUMAR),-1.106775,52.624264
278.8,CHEPSTOW GARDENS MEDICAL CENTRE,-0.37514,51.517624
575.98,THE MARGARET THOMPSON MED CENTRE,-2.821738,53.345974
365.6,THE DOCTORS HOUSE,0.094191,51.565389
1324.48,NORTH WOOD GROUP PRACTICE,-0.098493,51.42273
287.92,MALVERN ROAD SURGERY,0.557404,51.373817
919.44,PRIORY VIEW MEDICAL CENTRE,-1.575149,53.791635
829.15,JUBILEE MEDICAL GROUP,-1.580232,54.629667
279.78,DR DHITAL PRACTICE,-0.003074,51.587786
726.29,EASTFIELD HOUSE SURGERY,-1.323251,51.395555
1359.53,WILSON PRACTICE,-0.966958,51.153736
410.49,DR AKHTAR R,-1.932225,52.547439
567.49,EAST BARNWELL HEALTH CENTRE,0.16722,52.213952
4.84,AIREBOROUGH COMMUNITY CARE,-1.684881,53.866663
854.5,CHIPPING SURGERY,-2.353843,51.636056
1.5,COMMUNITY WARFARIN SERVICE,-1.467656,52.523302
467.16,STREAMSIDE SURGERY,-2.517723,51.612861
1112.1,NEW MEDICAL CENTRE,-1.388927,53.93028
1580.48,BILLINGE MEDICAL PRACTICE,-2.706951,53.497666
326.73,CORNERSTONE SURGERY,-2.724149,53.454211
1166.31,GROVE MEDICAL CENTRE,-0.545643,51.43119
517.23,THE DEVONSHIRE LODGE PRACTICE,-0.397406,51.579266
268.71,EDGWICK MEDICAL CENTRE,-1.498333,52.432142
1979.16,AUDLEY MILLS SURGERY,0.607129,51.584978
1425.53,WHEATFIELD SURGERY,-0.495144,51.904445
216.13,DR GWD BHIMA,-2.154239,53.611617
1465.76,THE CEDARS SURGERY,-2.925678,51.357753
587.65,BOGNOR MEDICAL CENTRE,-0.67724,50.783629
449.05,WEST HALLAM MEDICAL CTR,-1.359163,52.966624
348.89,KNOTTY ASH MEDICAL CENTRE,-2.88707,53.419961
481.63,ISLINGTON HOUSE MEDICAL CENTRE,-2.964605,53.415791
191.44,HAWTHORN MC,-2.204544,53.443216
397.46,TOWNSIDE SURGERY,-2.29898,53.59031
8.69,CAMBRIDGE ACCESS SURGERY,0.138701,52.20875
2.53,BADGER AVS,-1.877826,52.477589
356.66,THE LYNDHURST SURGERY,-0.003869,51.571964
980.55,YARM MEDICAL PRACTICE,-1.355519,54.505305
590.09,BUCKSHAW VILLAGE HEALTH CENTRE,-2.658003,53.678415
831.83,CHATFIELD MEDICAL CENTRE,-0.182133,51.465863
2576.56,SOVEREIGN PRACTICE,0.302876,50.781493
525.45,CATSHILL VILLAGE SURGERY,-2.054442,52.366603
173.48,LEICESTER ROAD SURGERY,-1.473177,52.483106
34.58,CAMDEN COMMUNITY DERMATOLOGY - RFH,-0.165324,51.553224
5575.42,MEANWOOD HEALTH CENTRE,-1.565811,53.827167
1036.87,ALTON STREET SURGERY,-2.582971,51.911934
64.08,THORNTON LODGE SURGERY,-1.796027,53.637798
1798.63,THE PEEL MEDICAL PRACTICE,-1.697308,52.634794
333.47,THE HEADLAND MEDICAL CENTRE,-1.183105,54.696641
6.35,GP EXTENDED ACCESS HUB SERVICE,-0.306785,51.549713
892.52,MEADOWS SURGERY,-0.151765,50.962136
314.78,THE RISE GROUP PRACTICE,-0.125007,51.571444
100.91,4/LOWER BROUGHTON MEDICAL PRACTICE,-2.258808,53.49359
860.15,ASHCROFT SURGERY,-1.712131,53.823092
1175.47,SHOTFIELD MEDICAL PRACTICE,-0.150861,51.357264
1352.12,KILMENY GROUP MEDICAL PRACTICE,-1.921061,53.855716
559.16,PICKHURST SURGERY,0.010516,51.378032
95.87,UNIVERSITY MEDICAL CENTRE,1.062127,51.296198
285.56,BINCOTE SURGERY,-0.109238,51.653049
1360.36,GROVE SURGERY,0.751477,52.415441
211.38,DR S MORCOS,-0.406024,51.380924
934.89,CHURCH LANE SURGERY,0.557812,51.889826
1283.44,CHORLTON FAMILY PRACTICE,-2.279717,53.443773
642.89,OXSHOTT MEDICAL PRACTICE,-0.360843,51.333099
1634.19,THE ELIZABETH COURTAULD SURGERY,0.638128,51.941426
403.1,SUNVALLEY MEDICAL PRACTICE,-2.095095,53.537786
835.3,PROBUS SURGERY,-4.948542,50.290121
492.26,THE AVENUE SURGERY,-0.113425,50.844357
303.03,WILMSLOW ROAD SURGERY,-2.222822,53.452153
1426.47,SCARBOROUGH MEDICAL GROUP,-0.441541,54.297615
690.18,THE HEDGES MEDICAL CENTRE (SA BAILEY),-1.146741,52.591287
901.48,POOLE ROAD MEDICAL CENTRE,-1.892613,50.72043
1089.09,REEPHAM & AYLSHAM MEDICAL PRACTICE,1.250346,52.793962
1.5,MK HEALTH EXTRA,-0.73576,52.026384
1766.21,BRAMHALL HEALTH CENTRE,-2.162929,53.36001
758.36,KINGSWOOD SURGERY,0.276363,51.132029
1838.37,STOWHEALTH,0.990419,52.194685
1162.08,FOUR ACRE HEALTH CENTRE,-2.723398,53.418906
442.09,PARKGATE SURGERY,-1.548606,54.523273
907.82,FIGGES MARSH SURGERY,-0.16199,51.410694
204.99,BRISET CORNER SURGERY,0.04372,51.458205
579.01,THE STONEBRIDGE PRACTICE,-0.263604,51.542472
693.36,HAIGH HALL MEDICAL PRACTICE,-1.715247,53.831119
1009.76,ALBANY SURGERY,-3.607771,50.528674
1392.91,BEACON PRIMARY CARE,-2.806747,53.550182
221.56,BLACKFRIARS MEDICAL PRACTICE,-0.105775,51.505364
709.38,HALLGARTH SURGERY,-1.643638,54.634883
0.75,OLDHAM CARES - COMMUNITY SERVICES OLDHAM,-2.100368,53.540675
302.66,DR A GUPTA BENIM MEDICAL CENTRE,-2.947804,53.419395
2091.7,THE BOSMERE MEDICAL PRACTICE,-0.990581,50.850232
1172.81,MOSELEY AVENUE SURGERY,-1.525425,52.419893
275.44,ELIZABETH STREET SURGERY,-3.043658,53.820839
687.32,BENFIELD VALLEY HEALTHCARE HUB,-0.210215,50.838103
58.5,SLAM - ADULT ADHD SERVICE,-0.029228,51.377782
2227.71,CHEAM GP CENTRE,-0.225239,51.368621
65.82,MAYBURY SURGERY,-0.53899,51.325599
1830.37,THORNABY & BARWICK MEDICAL GROUP,-1.292128,54.538149
740.63,MANDALAY MEDICAL CENTRE,-2.432114,53.610583
246.36,CHURCH ROAD,1.088833,51.129481
283.43,HEADY HILL SURGERY,-2.241622,53.593657
377.87,GOLDEN VALLEY PRACTICE,-2.891851,51.952661
332.27,SELLY PARK SURGERY,-1.916435,52.444045
719.89,COLEFORD FAMILY DOCTORS,-2.615344,51.79146
841.81,GREEN STREET GREEN MED CT,0.089996,51.354366
1.5,PCOC DVT SERVICE,-0.766276,52.000308
559.65,TORRINGTON HEALTH CENTRE,-4.140076,50.952056
2001.71,GREAT NORTH MEDICAL GROUP,-1.186019,53.583324
465.72,CROUCH HALL ROAD SURGERY,-0.127301,51.579178
826.05,MEREPARK MEDICAL CENTRE,-2.300747,53.093285
1064.34,SHIREHAMPTON GROUP PRACTICE,-2.67671,51.489093
11.07,ENHANCED GP SERVICE,-0.001361,51.609384
905.61,WEST MOORS GROUP PRACTICE,-1.889688,50.826154
748.6,THE ROTHBURY PRACTICE,-1.91181,55.309091
775.32,PRACTICE ONE,-0.201064,54.084715
154.96,4 SEASONS MEDICAL CENTRE,-2.588307,53.404594
2540.06,DANEBRIDGE MEDICAL CENTRE,-2.512184,53.258203
479.12,DUNSVILLE MEDICAL CENTRE,-1.02783,53.562539
308.35,DR C OLA'S PRACTICE,0.16367,51.542357
369.87,WALM LANE SURGERY,-0.219557,51.550346
304.56,FEATHERSTONE ROAD HEALTH CENTRE,-0.385214,51.502575
931.92,SUMMERCROFT SURGERY,0.063057,51.365356
289.15,HIGHGATE MEDICAL CENTRE,-1.88746,52.464365
595.3,NORWICH PRACTICES HEALTH CENTRE,1.298746,52.626316
168.72,DR KHAN'S PRACTICE,-2.184157,53.484308
464.26,MELTHAM GROUP PRACTICE,-1.849419,53.594302
1614.56,AMBROSE AVENUE GROUP PRACTICE,0.862797,51.88063
524.74,VINE MEDICAL CENTRE,-0.358117,51.402141
801.95,HIGH STREET SURGERY,-1.344029,53.459623
1217.8,HOWARD HOUSE SURGERY,1.349626,51.96149
243.54,HELIOS MEDICAL CENTRE,-2.631024,51.475527
749.72,NORWOOD MEDICAL CENTRE,-1.46987,53.413102
336.77,ALBION SURGERY,-2.964605,53.415791
214.37,SOMERSET BRIDGE MEDICAL CENTRE,-2.995883,51.115105
428.8,DERRY DOWNS SURGERY,0.116651,51.385174
887.22,THE PINES SURGERY,-0.90249,52.272686
250.73,THE GLENDALE SURGERY,-2.01842,55.546525
1074.81,188 THE PRACTICE,-0.204669,51.576422
1517.83,MIDDLETON LODGE PRACTICE,-1.006833,53.20697
1071.56,BEXLEY GROUP PRACTICE,0.109656,51.465832
17.62,HAVEN COURT,-1.428468,54.971208
533.35,WESTON FAVELL MEDICAL CENTRE,-0.841253,52.26834
330.3,BRAMPTON HEALTH CENTRE,-0.277386,51.586099
303.37,ACRE SURGERY,-0.411552,51.604465
490.76,UNION BRAE & NORHAM PRAC,-2.011778,55.766713
1291.08,OLD BRIDGE SURGERY,-4.455308,50.356813
2258.65,CHEVIN MEDICAL PRACTICE,-1.693762,53.906876
1500.49,THE OAKS PARTNERSHIP,0.17414,51.395165
956.67,CHURCH LANE HEALTH CENTRE,0.941162,50.984187
2.2,WEST CLUSTER IAGPS,-2.451012,50.621036
2383.36,SOUTH LEICESTERSHIRE MEDICAL PARTNERSHIP,-0.997348,52.535941
1044.03,EAST HILL SURGERY,0.909325,51.890029
1061.29,OXFORD TCE & RAWLING RD MEDICAL GROUP,-1.60628,54.954302
547.07,TAVERHAM PARTNERSHIP,1.196182,52.681489
1079.09,PINFOLD MEDICAL PRACTICE,-1.203159,52.771542
596.09,WATERINGBURY,0.4255,51.255633
1478,QUEENSWOOD MEDICAL PRACTICE,-0.13076,51.583541
734.01,ST. ANDREWS SURGERY,0.010984,50.871814
2198.95,DARWIN MEDICAL CENTRE,-1.831505,52.694061
476.33,MORETON MEDICAL CENTRE,-3.110005,53.39886
218.03,CRABBS CROSS MEDICAL CENTRE,-1.943704,52.281407
1259.41,IRWELL MEDICAL PRACTICE,-2.198274,53.699744
1019.84,THE ORCHARD PARTNERSHIP,-1.865867,51.077878
868.17,STONECROFT MEDICAL CENTRE,-1.425314,53.345562
1943.64,COMBE COASTAL PRACTICE,-4.126847,51.203741
792.28,ALMA ROAD SURGERY,-1.40037,50.921777
901.01,CHAPEL LANE SURGERY,-3.061428,53.557075
983.03,ROBOROUGH SURGERY,-4.115078,50.42747
839.65,GARDEN LANE MEDICAL CTR.,-2.896359,53.195274
953.39,WIDEOPEN MEDICAL CENTRE,-1.624517,55.048256
355.48,THE ABINGDON HEALTH CENTRE,-0.197138,51.496085
1701.07,SOUTH MOLTON MEDICAL CENTRE,-3.832514,51.018277
1189.17,THE SNAITH AND RAWCLIFFE MEDICAL GROUP,-1.024414,53.689286
717.62,RAMSBURY SURGERY,-1.593915,51.446259
427.84,SOHO ROAD PRIMARY CARE CENTRE,-1.934945,52.503094
1011.2,THE NIGHTINGALE PRACTICE,-0.062434,51.558261
2017.48,THE ROXTON PRACTICE,-0.205351,53.618722
249.29,EASTMOOR HEALTH CENTRE,-1.476864,53.690004
1317.08,RAYDOCS NEWTOWN,-1.904505,52.497976
1565.28,SANDGATE ROAD,1.159013,51.076576
162.7,SUMMERFIELD GROUP PRACTICE,-1.937353,52.487686
1435.46,TENBURY SURGERY,-2.593872,52.312745
440.48,THE KINGS FAMILY PRACTICE,0.534548,51.377821
883.33,COLLEGE LANE SURGERY,-1.336292,53.644573
846.26,GOLDINGTON AVENUE SURGERY,-0.455796,52.143512
133.05,THE HAVEN PRACTICE,-0.142651,50.842776
737.24,THE EVERGREEN SURGERY,0.025555,51.578105
685.55,STANLEY,-1.475902,53.713836
934.78,PATFORD HOUSE PARTNERSHIP,-2.005519,51.437601
601.83,ALMOND ROAD SURGERY,-0.262072,52.232524
951.76,OTFORD MEDICAL PRACTICE,0.191446,51.31358
248.75,KUMAR MEDICAL CENTRE,-0.583892,51.516823
905.72,DR ABELA T PRACTICE,0.303997,51.490115
412.97,RIPLEY MEDICAL CENTRE,-1.405723,53.04704
0.27,URGENT CARE CENTRE BUNNY HILL OOH,-1.447219,54.926589
