total_cost,name,longitude,latitude
542.5400000000001,GREEN PRACTICE,-0.371755,51.468263
316.86,BLACKFRIARS MEDICAL PRACTICE,-0.105775,51.505364
494.45,CRONDALL NEW SURGERY,-0.858386,51.237211
346.67,CHADDESLEY SURGERY,-2.158038,52.361961
684.1,DR JUDE'S PRACTICE - RIVERSIDE,-2.943016,53.398876
356.0400000000001,THE MANOR PARK PRACTICE,0.057339,51.55393
526.53,TRENTHAM MEWS MEDICAL CENTRE,-2.189898,52.970452
6.17,WIDNES GP EXTRA SERVICE,-2.735705,53.362158
596.6399999999999,DR THORNILEY-WALKER & PARTNERS,-1.460703,54.949762
428.43,DR U AKBAR,-1.777945,53.803569
812.84,AIREBOROUGH FAMILY PRACTICE,-1.684881,53.866663
1835.89,THE BURBAGE SURGERY,-1.361645,52.53009599999999
1062.28,SCHOOL HILL MEDICAL PRACTICE,0.012064,50.873469
2453.92,GRAYSHOTT SURGERY,-0.745626,51.110093
407.44999999999993,OLD SCHOOL HOUSE SURGERY,-1.604408,51.376032
867.2699999999999,THE ARDLEIGH SURGERY,0.985096,51.927073
2073.6500000000005,STONE CROSS SURGERY,0.289944,50.816757
877.9599999999998,MARSHALLS ROAD SURGERY,-0.539225,52.344743
2508.7000000000007,DARWIN MEDICAL CENTRE,-1.831505,52.694061
957.55,SOUTH HERMITAGE SURGERY,-2.752497,52.699728
95.39,AR-RAZI MEDICAL CENTRE,-1.101204,52.623926
724.9000000000002,OAKENHALL MEDICAL PRACT,-1.199437,53.03661700000001
714.01,LAWNS PRACTICE,1.109092,52.378889
709.81,CHURCH END MEDICAL CENTRE,-0.253241,51.54757
800.2699999999999,THE DEVONSHIRE LODGE PRACTICE,-0.397406,51.579266
524.5999999999999,STANWELL ROAD SURGERY,-0.470567,51.438013
662.1700000000002,WIDCOMBE SURGERY,-2.354321,51.376371
1158.0499999999995,HILLVIEW MEDICAL CENTRE,-1.951153,52.305568
778.64,LONGTON MEDICAL CENTRE,-2.770123,53.417492
646.4199999999998,DR AHMAD & PTNRS,-2.595925,53.522279
707.4300000000002,JS MEDICAL PRACTICE,-0.078706,51.589103
18.58,SUMMERFIELD GP SURG & URGENT CARE CENTRE,-1.937353,52.487686
534.3499999999999,THE WILLASTON SURGERY,-3.011643,53.292908
19.52,WHITTINGTON HEALTH (ISLINGTON),-0.139066,51.566482
1428.0399999999993,TOWNHEAD SURGERY,-2.276903,54.070534
246.35,HORNE STREET SURGERY,-1.871717,53.725678
1031.55,THE GARDEN CITY PRACTICE,-0.209287,51.797151
1129.98,RIVERMEAD GATE MED.CTR.,0.472887,51.740849
399.19,ROMAN WAY MEDICAL CENTRE,-0.10550599999999999,51.544561
646.87,CARNON DOWNS SURGERY,-5.091905,50.22345
1113.77,DR KS UPTON'S PRACTICE,-1.986582,52.988358
1132.05,KINGSWAY MEDICAL CENTRE,-1.289009,54.606459
445.21,PRUDHOE MEDICAL GROUP,-1.853822,54.96186
950.0399999999997,ARTHUR MEDICAL CENTRE,-1.422636,53.001503
921.38,PORTLAND MEDICAL PRACTICE,-0.539074,53.22371999999999
1216.5300000000002,THE WALL HOUSE SURGERY,-0.208192,51.241304
288.02,THE HALING PARK PARTNERSHIP,-0.098109,51.357113
1089.6899999999996,THE PRINCE OF WALES SURGERY,-2.457579,50.713502
416.64,THE GROVE SURGERY,-0.735114,52.023651
1220.37,PROBUS SURGERY,-4.948542,50.290121
261.48999999999995,DR PAL,-2.595495,53.47988
534.1600000000001,CHAPEL ROW SURGERY,-1.17086,51.425877
1.77,NCH&C COMMUNITY NURSES (WEST),0.410147,52.749129
3.8,HEALTHBRIDGE DIRECT,0.020102,51.608432
995.42,GRANGE STREET SURGERY,-0.335878,51.757298
569.3,ST PETER'S SURGERY,1.41893,51.362936
214.95,SIBFORD SURGERY,-1.479244,52.037614
2394.39,AXMINSTER MEDICAL PRACTICE,-2.999226,50.780899
1362.71,PRICES MILL SURGERY,-2.224938,51.693801
1248.46,MARSH MEDICAL PRACTICE,0.143689,53.445069
1525.65,KNEBWORTH & MARYMEAD MEDICAL PRACTICE,-0.184972,51.866323
312.94000000000005,THE HODFORD ROAD PRACTICE,-0.199318,51.569038
756.17,ABBEY ROAD MEDICAL PRACTICE,0.005881,51.534784
2531.800000000001,BETHESDA MEDICAL CENTRE,1.414787,51.390277
819.8199999999998,WOODLANDS SURGERY,0.088913,51.439755
325.05999999999995,ALVELEY MEDICAL PRACTICE,-2.353309,52.454738
559.76,KNOWSLEY MEDICAL CENTRE,-2.300551,53.588497
47.38,ST JOSEPH'S HOSPICE  HACKNEY,-0.056255,51.537053
835.86,CHURCHSIDE MEDICAL PRACTICE,-1.203539,53.146592
320.85,SOUTHEND MEDICAL CENTRE,0.708516,51.540069
258.6,THE MITCHISON ROAD SURGERY,-0.087357,51.544992
1418.81,FRAMLINGHAM SURGERY,1.334192,52.227216
314.2800000000001,CHOWDHURY,0.233898,51.592339
984.61,JENNER HOUSE SURGERY,-0.7745189999999998,51.294302
1154.09,NORFOLK STREET SURGERY,-2.182794,53.01602
1677.4900000000002,TORKARD HILL MEDICAL CTRE,-1.207389,53.029901
1210.89,VILLAGE SURGERY,-1.251934,53.39421
252.18,ALLENBY CLINIC,-0.376261,51.531514
2397.9500000000007,DR PUZEY DR KOTHARI AND DR NANDA,0.705992,51.582107
1884.11,SEVERN FIELDS MEDICAL PRACTICE,-2.721619,52.728047
1033.18,CUMBERLAND HOUSE SURGERY,-2.990437,53.638743
298.83,HOLLINS GROVE SURGERY,-2.477472,53.705346
244.64,OLDHAM FAMILY PRACTICE,-2.116945,53.543824
574.9900000000001,SHAY LANE MEDICAL CENTRE (PATEL),-2.31556,53.372189
25.8,AT HOME SERVICE,-0.10603,51.438104
1682.7599999999998,CHURCHILL MEDICAL CENTRE,-0.018466,51.618226
1163.39,PRIORY MEDICAL CENTRE,-0.50567,52.167181
129.11,ESK ROAD MEDICAL CENTRE,0.024266,51.522454
2512.67,REACH HEALTHCARE,0.52408,51.337756
1625.0599999999995,CAMBERLEY HEALTH CENTRE,-0.754069,51.324435
443.4200000000001,FLOOD (ESSEX HOUSE),-0.247469,51.472541
522.7199999999999,WOLLASTON AND BOZEAT SURGERIES,-0.674311,52.252471
685.24,ST.LEVAN SURGERY,-4.177328,50.383921
907.11,BARTON,-1.725223,52.761751
159.35000000000005,HAWTHORNS MEDICAL CENTRE,-1.967268,52.501507
208.79,BROWNLOW AT MARYBONE,-2.987806,53.411269
476.7200000000001,LITTLE LEVER HEALTH CENTRE 1,-2.370624,53.55981800000001
917.0799999999998,CONWAY ROAD MEDICAL PRACTICE,-2.303561,53.417873
1042.5700000000004,MAYBUSH MEDICAL CENTRE,-1.489249,53.670273
472.88,FALKLAND HOUSE SURGERY,-1.514423,53.359728
656.34,MILTON KEYNES VILLAGE SURG,-0.697865,52.043891
1.08,GPSI PALLIATIVE CARE,-3.007792,53.502483
1716.0499999999995,FIELDHOUSE MEDICAL GROUP,-0.112579,53.564436
848.5600000000002,SAXON CROSS SURGERY,-1.273642,52.931099
514.1099999999999,THE NAYAR PRACTICE,-1.1933790000000002,53.480824
179.61999999999995,NEW NORTH HEALTH CENTRE,-0.091592,51.537534
1323.61,HOVE MEDICAL CENTRE,-0.19539,50.845024
925.86,FORT HOUSE SURGERY,-0.412578,51.37881
581.39,THE LAWN MEDICAL CENTRE,-1.7619029999999998,51.547821
226.45,ST MARY'S HEALTH CENTRE,-6.308668,49.911605
1545.3,TAVYSIDE HEALTH CENTRE,-4.145976,50.545824
939.39,HAGLEY SURGERY,-2.144103,52.420783
113.82,YARDLEY MEDICAL CENTRE,-1.828397,52.463189
2782.19,ASHTON MEDICAL GROUP,-2.089184,53.489361
1074.86,THE WILLESDEN MEDICAL CENTRE,-0.233873,51.547532
290.35,SELHURST MEDICAL PRACTICE,-0.088969,51.390012
1198.6699999999996,PONTESBURY MEDICAL PRAC,-2.887922,52.650521
735.33,BRAITHWAITE RD SURGERY,-2.574985,53.477412
593.1300000000001,WOODGRANGE MEDICAL PRACTICE,0.025253,51.548596
326.5800000000001,JARVIS MEDICAL PRACTICE,-2.095095,53.537786
43.85,IC24 LTD (NORFOLK & WISBECH OOH),0.891514,51.129106
331.42,THE MANSELL ROAD PRACTICE,-0.358969,51.525654
112.3,FOUNDATIONS,-1.257899,54.563441
265.04,READING WALK-IN HEALTH CENTRE,-0.9758960000000002,51.454809
10.79,BRADFORD DISTRICT CARE TRUST,-1.788605,53.839675
3.75,NORTH TYNESIDE CARE PLUS,-1.456596,55.011193
0.66,8 TO 8 TOP-UP HUB QMH,0.101687,51.419041
7.34,SUFFOLK GP FEDERATION OOH,1.164244,52.044508
4367.239999999999,MUNRO MEDICAL CENTRE,-0.147427,52.794037
983.96,MOSBOROUGH HEALTH CENTRE,-1.364873,53.325238
1354.3200000000004,PUCKERIDGE & STANDON SURGERY,0.019374,51.888296
793.4699999999997,COMMONWEALTH HEALTH CENTRE,0.36308,51.463166
1073.02,TAMWORTH HOUSE MEDICAL CENTRE.,-0.146254,51.40122
1106.1899999999996,PARKSIDE PRACTICE,-1.353169,50.970948
1410.2,DARTMOUTH MEDICAL PRACTICE,-3.580811,50.351157
658.03,BLACKHEATH MED CTR,-3.104694,53.412239
213.25,GOLDINGTON ROAD SURGERY,-0.456174,52.140172
442.88,POPLAR PRIMARY CARE CENTRE,-1.890326,52.43631
1022.64,THE SUTTON MANOR SURGERY,-0.315294,53.785759
1754.39,JESSOP MEDICAL PRACTICE,-1.372226,53.074348
849.54,THE MAYFLOWER MEDICAL PRACTICE,-1.01945,53.431872
852.2999999999998,ST.ANTHONY'S HEALTH CENTRE,-1.55655,54.966674
5.11,WESTCALL OOH,-0.8315749999999998,51.410524
418.41,WHITWICK HEALTH CENTRE,-1.3606790000000002,52.742576
1636.1699999999996,MARKET SURGERY,-1.345958,53.502635
621.75,DERWENT CRESCENT MEDICAL CENTRE,-0.175285,51.622908
1848.64,ABBEY FIELD MEDICAL CENTRE,0.898575,51.877487
2230.14,ABBEY HOUSE MEDICAL PRACTICE,-1.160725,52.260319
1204.36,NORTON BROOK MEDICAL CENTRE,-3.782122,50.288739
1116.93,MARTON MEDICAL PRACTICE,-3.034524,53.812843
1417.2299999999998,THE NORTH LEEDS MEDICAL PRACTICE,-1.534037,53.843332
414.68,FRIAR GATE SURGERY,-1.485624,52.924816
1233.8100000000004,NAVENBY CLIFF VILLAGES SURGERY,-0.526297,53.103518
1140.98,ASKERN MEDICAL PRACTICE,-1.148909,53.61549599999999
901.0300000000002,LEYTON HEALTHCARE 4TH FLOOR,-0.013313,51.559894
554.47,CAMBRIDGE HOUSE,-2.144827,53.024433
309.8999999999999,PARK HOUSE SURGERY,-1.942965,52.54446
1778.19,RAINBOW MEDICAL CENTRE,-2.705931,53.435389
1421.0799999999995,LITTLE LONDON SURGERY,-1.979284,52.574984
780.13,STRETTON MEDICAL CENTRE,-2.577017,53.339489
192.8,THE DALE MEDICAL PRACTICE,-2.154239,53.611617
29.8,CAMBRIDGE ACCESS SURGERY,0.138701,52.20875
1.98,ANGEL LODGE,-1.50929,53.683308
2.05,HP NMP'S NN & E CCG,-1.143101,53.130244
1094.8,LEIGH FAMILY PRACTICE,-2.511927,53.493519
831.9799999999998,THE GREYSWOOD PRACTICE,-0.144853,51.419489
618.1600000000002,CHATHAM STREET SURGERY,-0.981895,51.455924
978.52,DEVON SQUARE SURGERY,-3.60508,50.529985
802.29,THE ROYAL WELL SURGERY,-2.0815,51.906706
1166.2900000000004,THE LIMES SURGERY MEDICAL CENTRE,-2.114052,52.456884
766.32,LAYTON MEDICAL CENTRE,-3.027291,53.827425
86.40999999999998,CAMDEN COMMUNITY NURSING,-0.131658,51.53665
808.76,WILLINGTON SURGERY,-1.566835,52.850285
1068.01,MANOR FARM MEDICAL CENTRE,0.690513,52.648544
1303.55,REGAL CHAMBERS SURGERY,-0.275959,51.952843
267.37,THE GARWAY MEDICAL PRACTICE,-0.185494,51.515392
3985.47,ACORN HEALTH PARTNERSHIP,-1.114058,51.245047
2.74,UNIV HOSP NORTH DURHAM OOH,-1.593834,54.788497
132.13,BOWLING GREEN STREET SURGERY,-1.133096,52.63304599999999
2242.21,BURTON CROFT SURGERY,-1.57692,53.820807
275.41,HARTINGTON SURGERY,-1.810816,53.142488
648.5900000000003,FIVE ELMS MEDICAL PRACTICE,0.14235,51.553315
925.61,SOUTH VIEW PARTNERSHIP,0.026125,51.405111
656.4599999999998,CORNERWAYS SURGERY,-0.404519,50.81566
354.76,WALLINGTON MEDICAL CENTRE,-0.129285,51.357345
986.88,COMBE DOWN SURGERY,-2.345599,51.361003
778.5800000000002,NORTH PETHERTON SURGERY,-3.013922,51.09139
204.46,QUEENS MEDICAL CENTRE,-2.235847,53.50081899999999
1783.52,THE PENDLE MEDICAL PARTNERSHIP,-2.144307,53.915882
895.0200000000002,3/SPRINGFIELD HOUSE MEDICAL PRACTICE,-2.362019,53.480252
172.37,THE KINGSWAY PRACTICE,-2.135588,53.612168
307.5900000000001,THE PRACTICE FELTHAM,-0.411086,51.446367
3.41,NHS FYLDE & WYRE CCG,-2.881037,53.789498
4467.159999999999,BEACON MEDICAL PRACTICE,0.331219,53.157472
211.63,GREENFIELDS MEDICAL CENTRE (YVS RAO),-1.168583,52.966506
1.03,IC24-THANET CCG OOH,0.891514,51.129106
506.04,TODDINGTON MEDICAL CENTRE,-0.530482,51.945856
2008.47,OAKLANDS HEALTH CENTRE,1.08253,51.069106
1275.11,LONGCROFT CLINIC,-0.192332,51.325314
542.71,WHITCHURCH SURGERY,-0.8426209999999998,51.882174
312.08,RIVERSIDE SURGERY,-1.699518,52.632337
999.2400000000001,THE VILLAGE SURGERIES GROUP,-2.771265,53.124246
610.23,SHIFA SURGERY,-2.475999,53.757295
373.00999999999993,OLDHAM MEDICAL SERVICES,-2.111235,53.52535699999999
715.63,LEADGATE SURGERY,-1.805988,54.860562
1075.81,GOYT VALLEY MEDICAL PRACTICE,-1.983113,53.3305
805.27,CONCORD MEDICAL PRACTICE,-1.524864,54.913411
1615.5499999999995,COUNTESTHORPE HEALTH CENTRE,-1.136767,52.554536
1087.05,ANNANDALE MEDICAL CENTRE,-0.17421099999999998,51.698571
1147.7499999999995,DR SINHA & PARTNERS,0.100204,53.030138
608.0500000000002,THE HEALTH CARE SURGERY,-1.487911,53.42172
998.3700000000003,THE LIMES SURGERY,-0.010842,51.759413
586.7700000000002,SEVEN DIALS MEDICAL CENTRE,-0.147743,50.829681
1141.9300000000005,BARCROFT MEDICAL CENTRE,-1.780526,51.172939
3206.38,PIONEER MEDICAL GROUP,-2.617628,51.510306
566.9500000000002,WITHNELL HEALTH CENTRE,-2.556663,53.692491
981.5000000000001,DR ABBAS,-0.841253,52.26834
688.1500000000002,DR GS KALKAT'S PRACTICE,0.103861,51.527941
91.83,THE LYNWOOD SURGERY,-0.29964,51.528594
2265.4,FERRYHILL AND CHILTON MEDICAL PRACTICE,-1.556828,54.689838
834.7800000000002,COLLIERY COURT MEDICAL GROUP,-1.460703,54.949762
260.32,WINDSOR MEDICAL CENTRE,-1.622157,53.693875
995.55,LOWMOOR ROAD SURGERY,-1.244634,53.100062
252.52,SUNRISE MEDICAL CENTRE,-0.382255,51.51087
728.7800000000002,SONNING COMMON HEALTH CTR,-0.982114,51.515603
1777.5600000000004,LANDER MEDICAL PRACTICE,-5.055864,50.259982
435.34,ALUM ROCK MEDICAL CENTRE,-1.850664,52.489901
2656.63,HARDWICKE HOUSE GROUP PRACTICE,0.725792,52.0382
517.3700000000001,WOOLSTONE MEDICAL CENTRE,-0.036776,51.438421
727.73,SOUTHGATE MEDICAL GROUP,-0.194559,51.102316
1078.01,BROCKWORTH SURGERY,-2.156696,51.844575
2232.76,DAWLEY MEDICAL PRACTICE,-2.466781,52.664322
1771.39,HOWARD HOUSE SURGERY,1.349626,51.96149
497.88,AMWELL GROUP PRACTICE,-0.11081700000000001,51.528043
1289.9199999999996,MEOPHAM MEDICAL CENTRE,0.359744,51.368901
447.61,FORGE CLOSE SURGERY,0.016555,51.377137
819.09,JOHNSON (SHEEN LANE),-0.267239,51.465848
709.1199999999999,LITTLEDOWN SURGERY,-1.833439,50.741638
749.7999999999998,PEDMORE MEDICAL PRACTICE,-2.118211,52.457029
444.12,THE OLD DISPENSARY,-1.987226,50.803427
180.48,STROUD GREEN MEDICAL CENTRE,-0.114328,51.570059
2185.99,WEST SOMERSET HEALTHCARE,-3.3186760000000004,51.161419
1048.3299999999997,OMNIA PRACTICE,-1.839082,52.475709
792.74,MORETON CROSS GROUP PRACTICE,-3.111975,53.403551
1298.9999999999998,WEST COMMON LANE TEACHING PRACTICE,-0.682441,53.57473100000001
711.46,RIVERSIDE MEDICAL PRACTICE,-1.315584,54.56887
433.44,MEDICUS HEALTH PARTNERS-ENFIELD ISLAND,-0.016992,51.668586
732.5100000000001,THE OAKWOOD SURGERY,-1.073937,53.506609
689.5799999999998,PAPWORTH SURGERY,-0.11749200000000001,52.252071
1621.3299999999995,CAMBRIAN MEDICAL PRACTICE,-3.047774,52.86281
913.81,FIRDALE MEDICAL CENTRE,-2.537387,53.253804
654.9300000000002,KIRKSTALL LANE MEDICAL CENTRE,-1.587333,53.816942
1223.12,BELLE VALE HEALTH CENTRE,-2.859752,53.392035
398.76,ELIZABETH STREET SURGERY,-3.043658,53.820839
1045.15,RAMSBOTTOM MEDICAL PRACTICE,-2.319287,53.64878
523.66,BROOK HOUSE SURGERY,-1.445882,50.921794
7.48,HMR BARDOC OOH,-2.288591,53.59553
556.9500000000002,MAGHULL HEALTH CENTRE (DR SAPRE),-2.943932,53.515597
212.23,WINDERMERE SURGERY,-2.205709,53.55956
1729.7799999999993,ST VINCENT MEDICAL CENTRE,-1.124029,53.525476
714.9000000000002,CRESWELL AND LANGWITH MEDICAL CENTRE,-1.215835,53.262654
803.12,BEECHWOOD GROUP PRACTICE,-3.545472,54.642376
1692.6899999999996,PARKSIDE MEDICAL CENTRE,-0.021998,52.981526
1181.5500000000004,WINCOBANK MEDICAL CENTRE,-1.416316,53.419405
848.93,VIRGINIA WATER MEDICAL PRACTICE,-0.568235,51.403367
271.61,THE ALTON PRACTICE,-0.239471,51.44914
1214.4399999999996,ALEXANDER HOUSE SURGERY,-0.7520019999999998,51.293749
922.16,GREEN MEADOWS SURGERY,-0.677163,51.426939
1357.34,WARGRAVE HOUSE SURGERY,-2.712261,52.055418
1887.18,STATION DRIVE SURGERY,-2.715141,52.370132
824.58,MARPLE BRIDGE SURGERY,-2.053323,53.400594
0.44,HOUNSLOW CCG - HRCH (NMP),-0.326599,51.427449
856.9799999999998,THE ROSEBERRY PRACTICE,-1.292215,54.611726
1696.35,TANFIELD VIEW MEDICAL GROUP,-1.701373,54.869939
133.95,DR MITCHELL,-0.503581,53.72075
260.14,SPRINGFIELD MEDICAL CENTRE,-1.195502,53.003599
625.7800000000002,THE LILYVILLE SURGERY,-0.199155,51.47377
561.65,WITHAM HEALTH CENTRE,0.642876,51.800559
1918.01,PRIORY MEDICAL CENTRE,-1.588641,52.285051
381.1,BALDWINS LANE SURGERY,-1.846405,52.414514
270.25,MONARCH MEDICAL CENTRE,-2.316823,53.564198
351.8,LINCOLN GREEN MEDICAL CENTRE,-1.525196,53.802098
5.19,HARROGATE OOH,-1.517573,53.993807
915.35,CHERRY HINTON MEDICAL CENTRE,0.177635,52.187459
419.84,FIELDHEAD SURGERY,-1.639379,53.831787
416.51,YEADING MEDICAL CENTRE,-0.397019,51.533634
613.8200000000002,LYDDEN SURGERY,1.23991,51.163193
1223.5,MARTINS OAK SURGERY,0.483675,50.91716
430.46,THE GLEBE FAMILY PRACTICE,0.544473,51.383164
1165.6099999999994,KNOLL MEDICAL PRACTICE,0.101068,51.375411
322.0499999999999,CORDWALLIS ROAD SURGERY,-0.7240259999999998,51.528097
608.22,ST. MARY'S SURGERY,-2.479869,51.326082
276.83,THE SUMMITT PRACTICE,0.04536,51.539588
6.640000000000001,SELDOC HEALTHCARE,-0.283378,51.412517
292.2999999999999,PASLEY ROAD HEALTH CENTRE (TK KHONG),-1.146741,52.591287
316.04,HAROLD STREET MEDICAL CENTRE,-1.492871,53.393121
749.6699999999998,BRENTFIELD MEDICAL CENTRE,-0.260251,51.550588
750.3399999999997,DR NAVIN KUMAR,0.70187,51.544989
363.73,RUSTON STREET CLINIC,-0.027306,51.536264
574.5300000000002,HAMPTON HILL MEDICAL CENTRE,-0.354892,51.427508
3.31,ST PETER'S URGENT TREATMENT CENTRE,-0.52706,51.377832
667.16,THE OAKLAND MEDICAL CENTRE,-0.45129300000000006,51.546055
221.91,ABERFELDY PRACTICE,-0.004927,51.514483
771.8999999999999,BROCKBANK (PARK ROAD),-0.334596,51.423912
350.7700000000001,HOLLINSWOOD SURGERY,-2.437453,52.673936
924.43,VICTORIA ROAD MEDICAL CTR,-1.887197,52.501868
1359.4400000000005,ST JOHN'S MEDICAL CENTRE,-1.932532,52.626307
1628.07,THE CORNERSTONE PRACTICE,-2.4524,53.739201
230.04,PARK GRANGE MEDICAL CENTRE,-1.775929,53.789415
649.23,HETHERINGTON AT THE PAVILION,-0.116397,51.461633
2.46,PCEC,-2.227711,53.462436
358.50000000000006,CASTLETOWN MEDICAL CENTRE,-1.450848,54.913341
447.69999999999993,ALDBROUGH ST JOHN SURGERY,-1.684645,54.496518
673.91,BRANSTON & HEIGHINGTON FAMILY PRACTICE,-0.467988,53.195831
414.82000000000005,CLIFTON HAMPDEN SURGERY,-1.211451,51.658625
1844.49,SWANSCOMBE HEALTH CENTRE,0.28731,51.424657
759.8299999999998,FRITHWOOD SURGERY,-2.162379,51.729707
1326.9499999999996,THE ISLAND SURGERY,0.591014,51.520226
878.3,GATEWAY PRIMARY CARE,-1.352431,53.429997
367.02,ESSINGTON MEDICAL CENTRE,-2.056915,52.63194
1.23,SLEAFORD EXTENDED ACCESS K2,-0.406507,52.997784
886.8099999999998,STONELEIGH SURGERY,-2.770704,54.227277
384.44,BROWNEY HOUSE SURGERY,-1.670679,54.800313
927.1199999999997,HONLEY SURGERY,-1.791936,53.602386
1231.84,GOSBERTON MEDICAL CENTRE,-0.159263,52.869915
412.78,MAPESBURY MEDICAL GROUP,-0.209473,51.551496
345.19,CHOLMLEY GARDENS SURGERY,-0.195423,51.552261
2201.0200000000004,HIGH GLADES MEDICAL CENTRE,0.551301,50.878354
805.76,CHERRYMEAD SURGERY,-0.700228,51.608271
1902.81,HORFIELD HC,-2.576275,51.489998
822.7999999999998,WHITE HOUSE SURGERY,-1.705957,51.983554
1190.57,CHURCH STRETTON MEDICAL CENTRE,-2.806169,52.537286
743.8,WARWICK ROAD SURGERY,-2.928541,54.893858
839.8900000000001,WOODVILLE SURGERY,-1.5365030000000002,52.770685
734.01,GROOMBRIDGE AND HARTFIELD MED GRP,0.184416,51.113952
1456.38,BRANKSOMEWOOD H/CARE CTR,-0.8448069999999998,51.281888
548.49,WOODSIDE MEDICAL PRACTICE,-2.466175,52.637949
1393.7700000000002,BODEY MEDICAL CENTRE,-2.214798,53.440636
31.77,NORTH LINCOLNSHIRE OOH,-0.667599,53.587582
2.05,EPUT COMMUNITY CARDIOLOGY,0.12393,51.704295
30.53,SOUTH YORK HEART FAILURE NURSES,-1.082907,53.951837
1.64,EXTENDED HOURS SERVICE-ONE LIFE,-1.214164,54.682342
592.2000000000002,CRAMLINGTON MEDICAL GROUP,-1.591516,55.084481
1378.2300000000002,KINGSTON MEDICAL GROUP,-0.349365,53.756137
442.9,WESTFIELD MEDICAL CENTRE,-1.531703,53.817673
810.36,STUBLEY MEDICAL CENTRE,-1.488541,53.304986
557.9899999999999,CHICHELE ROAD SURGERY,-0.216241,51.55483
491.09,SHIRLAND ROAD MEDICAL CENTRE,-0.203904,51.5292
465.44999999999993,STEWKLEY ROAD SURGERY,-0.71666,51.898041
1986.1,NEW COURT SURGERY,-2.958059,51.345794
2447.28,COLERIDGE MEDICAL CENTRE,-3.2835660000000004,50.751704
1563.94,YARDLEY WOOD HEALTH CENTRE,-1.859168,52.418648
1034.81,SHEET STREET SURGERY,-0.605507,51.479648
1892.8,HEDENA HEALTH,-1.204547,51.76203
726.4099999999999,SELLY OAK HEALTH CENTRE,-1.939144,52.438251
2050.8,PEELHOUSE MEDICAL PLAZA,-2.72256,53.372135
852.0,LANE ENDS SURGERY,-2.727014,53.770173
664.42,WHITTAKER LANE MED CENTRE,-2.268645,53.528488
35.8,NMP CASTLE POINT AND ROCHFORD CCG,0.702782,51.583955
0.41,SALFORD ACUTE HOME VISITING SERVICE,-2.33763,53.484827
2277.94,BIRTLEY MEDICAL GROUP,-1.576441,54.891881
719.7299999999998,APOLLO COURT MEDICAL CENTRE,-1.524816,53.542364
849.0,SUDBURY & ALPERTON MEDICAL CENTRE,-0.298046,51.536916
1465.0700000000004,THE CHESTERFIELD DRIVE PRACTICE,1.132012,52.07623
324.88,MONTPELIER SURGERY,-0.149079,50.827148
807.13,SELLINDGE SURGERY,1.002785,51.103536
1980.29,HARBOUR VIEW HEALTHCARE,-0.27437,50.833817
1856.4600000000007,WILSON PRACTICE,-0.966958,51.153736
1224.79,KINGSTEIGNTON MEDICAL PRACTICE,-3.597395,50.54898
2286.2499999999995,STIRCHLEY MEDICAL PRACTICE,-2.433777,52.655188
765.2700000000002,RED LION SURGERY,-2.030614,52.693241
919.49,HAZELDENE MEDICAL CENTRE,-0.275394,51.547592
416.86,CLOISTER ROAD SURGERY,-0.265589,51.521352
1488.8200000000004,MANOR PARK MEDICAL CENTRE,0.24261,50.819107
1355.69,LILLIPUT SURGERY,-1.954229,50.711523
1459.27,PENRYN SURGERY,-5.10336,50.167504
759.67,CROWN MEDICAL CENTRE,-3.080969,51.029111
782.1100000000001,GREASBY GROUP PRACTICE,-3.121417,53.377628
629.06,ROSEWORTH SURGERY,-1.61867,55.001366
3278.4499999999994,GREENGATES MEDICAL GROUP,-0.418494,53.844343
1221.92,LINCOLN HOUSE SURGERY,-0.469093,51.737355
447.57000000000005,DR DEVARAJA VC PRACTICE,0.44359,51.520015
595.64,FOUNTAYNE ROAD HEALTH CENTRE,-0.065145,51.56442
114.05,ARCHWAY SURGERY,-0.532167,51.72275
1394.63,RYE MEDICAL CENTRE,0.730363,50.961944
417.0,VASSALL MEDICAL CENTRE,-0.10851199999999998,51.477558
989.2,FARMHOUSE SURGERY,-1.7595,50.736437
3282.7700000000004,WESTONGROVE PARTNERSHIP,-0.74378,51.76588
963.0299999999997,MILBORNE PORT SURGERY,-2.471962,50.967502
669.09,PARADISE MEDICAL CENTRE,-1.494835,52.426778
352.04,WOODBANK SURGERY,-2.308802,53.60507
116.48,HIGHFIELD HEALTH,-1.395746,50.932777
1211.2599999999998,IBSTOCK HOUSE SURGERY,-1.401818,52.684869
1397.14,BARNBY GATE SURGERY,-0.8049699999999999,53.074931
1621.9299999999996,PRIORY FIELDS SURGERY,-0.179856,52.332272
636.58,DRS DE ROSA & WILLIAMS,-2.167857,52.569265
5.739999999999999,COMMUNITY CARDIOLOGY SERVICE,0.15356,51.455555
20.98,INTERMEDIATE CARE-GP SERVICE,-2.130253,53.548188
54.52,BASSETLAW HEALTH PARTNERSHIP,-0.950634,53.325451
537.64,DR RAOLU'S PRACTICE,-1.204348,53.423549
1717.71,EAST BARNET HEALTH CENTRE,-0.166424,51.646339
1673.36,OXTED HEALTH CENTRE,9.9e-05,51.257686
1239.39,THE WRYTHE GREEN SURGERY,-0.171312,51.371749
1773.98,TOPSHAM SURGERY,-3.462097,50.683825
1467.64,BAMPTON SURGERY,-1.55034,51.729032
2066.05,PETROC GROUP PRACTICE,-4.943163,50.430739
1944.69,EAST QUAY MEDICAL CENTRE,-3.000471,51.135669
571.16,EASTMEAD AVENUE SURGERY,-0.36274,51.531443
216.93,KINCORA DOCTORS SURGERY,-0.412216,51.511666
674.3500000000001,HETHERINGTON GROUP PRACTICE,-0.12823,51.460932
907.1500000000002,TUTBURY HEALTH CENTRE,-1.686361,52.858454
747.2500000000001,MEREPARK MEDICAL CENTRE,-2.300747,53.093285
172.69,DR SP TALPAHEWA,-0.260303,51.616115
424.1,BRANDON MEDICAL PRACTICE,0.6233,52.448489
7.67,PUBLIC HEALTH SERVICES,0.020377,51.403879
1070.0400000000004,THE SURGERY CLIFTON ROAD,-1.737497,53.013356
790.0599999999998,ORCHARD SURGERY MELBOURN,0.020092,52.080651
1716.7299999999998,HIGH STREET SURGERY,1.756043,52.482123
1405.96,KING GEORGE SURGERY,-0.206096,51.907416
683.88,ST.PETERS SURGERY,-1.372792,50.897829
803.5699999999998,LEVENSHULME MEDICAL PRACTICE,-2.188524,53.446352
1413.0199999999998,DMC ST MARYS ISLAND SURGERY,0.538105,51.406776
2324.11,THORNABY & BARWICK MEDICAL GROUP,-1.292128,54.538149
775.13,ROWLANDS GILL MEDICAL CENTRE,-1.742896,54.91936
2250.9100000000008,THE PARK MEDICAL PRACTICE,-1.432644,52.928801
1504.47,MERRIDALE MEDICAL CENTRE (RP TEW),-1.160752,52.620146
862.7899999999998,OVER SURGERY,0.012018,52.314809
1085.2399999999998,DR TUN & PARTNERS,-2.583571,53.532102
461.57,SOUTHOWRAM SURGERY,-1.831696,53.712293
1509.5799999999995,THE STANMORE MEDICAL CENTRE,-0.304021,51.60154
1348.7600000000002,SELSDON PARK MEDICAL PRACTICE,-0.06457300000000002,51.342409
838.0599999999998,LANCE LANE MEDICAL CENTRE,-2.911916,53.396196
330.9600000000001,DR GWD BHIMA,-2.154239,53.611617
559.07,THE BARHAM & CLAYDON SURGERY,1.109866,52.110175
230.63,NIGHTINGALE HOUSE,-0.159747,51.449354
617.7500000000001,I J HEALTHCARE,-1.531354,54.88104
1398.9499999999996,WELLINGTON HOUSE,-1.634561,53.714775
698.73,FELTWELL SURGERY,0.527056,52.48268
554.27,ALBANY PRACTICE,-0.310054,51.48676
390.52000000000015,DR VM PATEL,0.228776,51.561113
128.3,CHILDS (THAMESIDE),-0.326599,51.427449
1388.6699999999996,MOREDON MEDICAL CENTRE,-1.8070689999999998,51.582197
790.56,BUDSHEAD MEDICAL PRACTICE,-4.150289,50.417443
1419.28,HANDSWORTH WOOD MED.CTR.,-1.928196,52.51303299999999
2264.4,READESMOOR MEDICAL GROUP PRACTICE,-2.216792,53.163762
598.65,ABINGDON FAMILY HEALTH CARE CENTRE,-2.943503,53.440571
719.44,BARLBOROUGH MEDICAL PRACTICE,-1.284471,53.289528
828.5199999999999,THE WRAGBY SURGERY,-0.301337,53.287948
2289.97,SOUTH GRANGE MEDICAL GROUP PRACTICE,-1.166506,54.56995500000001
1045.87,GLEADLESS MEDICAL CENTRE,-1.451325,53.356551
1149.93,WARRIOR SQUARE SURGERY,0.562007,50.852963
809.9399999999998,THE CORINTHIAN SURGERY,-2.0815,51.906706
954.9,CASTLEFIELDS,-2.129518,52.801013
885.57,REDGATE MEDICAL CENTRE,-2.987659,51.126385
764.6699999999998,RIVER BROOK MEDICAL CENTRE,-1.913809,52.43303
714.3000000000002,MURDISHAW,-2.662128,53.323997
880.3399999999998,POPLAR HOUSE SURGERY,-3.03076,53.754721
895.01,SWANSWELL MEDICAL CENTRE,-1.816529,52.432515
450.3,DR MALIK - KENT ELMS HC,0.664114,51.563831
25.830000000000005,LEICESTER CITY ASSIST PRACTICE,-1.136115,52.637338
1.03,VC SKELMERSDALE UCC,-2.773401,53.549935
1560.5400000000006,THE HAWTHORNS SURGERY,-1.825965,52.538746
955.47,HORIZON HEALTH CENTRE,-2.965121,51.331294
947.65,OXFORD STREET SURGERY,-3.5505760000000004,54.64373
2123.46,LINGWELL CROFT SURGERY,-1.535053,53.749986
16.84,THE ROYAL MEWS SURGERY,-0.145223,51.498764
310.11,NORHEADS LANE SURGERY,0.026739,51.314542
668.19,TYNEMOUTH MEDICAL PRACTICE,-0.068331,51.586253
2224.96,TRINITY MEDICAL CENTRE,-0.172008,50.831228
512.09,ST ALBANS MEDICAL CENTRE,-0.302479,51.42195
3301.58,BARTON SURGERY,-3.473818,50.579848
3239.09,THE WESTGATE PRACTICE,-1.821176,52.683537
214.26,BURBURY MEDICAL CENTRE,-1.9103740000000002,52.502215
1400.29,PLECK HEALTH CENTRE,-1.9980380000000002,52.574248
480.97,METRO INTERCHANGE SURGERY,-1.602943,54.961848
843.4699999999998,QUAKERS LANE SURGERY,-1.741713,54.406363
1139.34,PARSON DROVE SURGERY,0.050459,52.660947
865.86,DAVENPORT HOUSE SURGERY,-0.354549,51.816177
229.7,WARRIOR SQUARE SURGERY,0.716503,51.539534
375.22,ALEXANDRA SURGERY,-0.205887,51.422912
2438.4,CANTERBURY MEDICAL PRACTICE,1.128982,51.245539
1314.8000000000004,BALHAM PARK SURGERY,-0.155715,51.440487
597.2000000000002,OBSERVATORY MEDICAL PRACTICE,-1.265958,51.760293
1805.6400000000006,WERRINGTON VILLAGE SURGERY,-2.098023,53.021659
429.7,THE MARSHSIDE SURGERY,-2.963125,53.67143299999999
798.19,MERSEYBANK SURGERY,-2.263012,53.42276
41.95,COMMUNITY NURSING,-0.670796,53.57972
493.0199999999999,CHEVIOT MEDICAL GROUP,-2.01842,55.546525
164.26,THE UNIV OF NOTTINGHAM HEALTH SERV,-1.195942,52.942177
727.15,LISTER HOUSE SURGERY,-0.4515,51.89192
767.0499999999998,HOUNSLOW MEDICAL CENTRE,-0.37684,51.469395
242.88,SANCTA MARIA MEDICAL CENTRE,0.284011,51.507882
132.26,NEW INN SURGERY,-0.545657,51.257698
776.83,THE HEALTH CENTRE,-0.19711,51.363031
802.39,49 MARINE AVENUE SURGERY,-1.451082,55.046268
759.2199999999998,WELLSIDE SURGERY,-0.28478,52.440324
864.62,CLARE GUILDHALL SURGERY,0.580469,52.078259
677.0300000000002,LATTIMORE & VILLAGE SURGERY,-0.298547,51.726244
1487.94,CENTRAL UXBRIDGE SURGERY,-0.475739,51.546229
1397.4199999999996,HIGHLANDS SURGERY,0.637339,51.548005
201.2,ADDINGTON MEDICAL PRACTICE,-0.018557,51.344382
731.3199999999998,FISHERGATE HILL SURGERY,-2.714363,53.75445500000001
1280.78,PARK VIEW GROUP PRACTICE,-2.160577,53.445476
1.64,NWR COMMUNITY SERVICES,-1.014748,51.449145
1568.6999999999996,WHITLEY BAY HEALTH CENTRE,-1.43996,55.04141
469.12,ELSDALE STREET SURGERY,-0.049094,51.543033
1365.37,STOPSLEY VILLAGE PRACTICE,-0.394147,51.901132
463.9,VALE DRIVE MEDICAL PRACTICE,-0.194727,51.648828
2757.259999999999,AUDLEY MILLS SURGERY,0.607129,51.584978
621.6100000000001,STRATFORD HEALTH CENTRE,0.004714,51.544651
1230.24,UPPER NORWOOD GROUP PRACTICE,-0.08482,51.413308
708.91,THE TOLLERFORD PRACTICE,-2.571586,50.778924
601.56,JUBILEE FIELD SURGERY,-2.191875,51.484091
1405.83,THORNBURY HEALTH CENTRE - BURNEY,-2.517723,51.612861
929.98,SHAWBIRCH MEDICAL CENTRE,-2.531858,52.718121
3307.88,MOSS GROVE SURGERY,-2.1699,52.498674
637.3799999999999,HEATON MERSEY MED.PRACT.,-2.205118,53.412519
465.0400000000001,WOOTTON VALE HEALTHY LIVING CENTRE,-0.527951,52.093688
677.55,ST LUKE'S HEALTH CENTRE,0.7293039999999998,51.551
1223.51,GLENPARK MEDICAL CENTRE,-1.640096,54.953229
1583.6299999999994,ROBIN LANE HEALTH AND WELLBEING CENTRE,-1.661311,53.79500899999999
855.5999999999998,HUGGLESCOTE SURGERY,-1.365684,52.71103
933.25,RED HOUSE SURGERY,0.129161,52.214906
13.58,BRIMPTON HOUSE,0.699534,51.835776
1527.64,MANOR AND PARK GROUP PRACTICE,-1.42716,53.373705
650.05,DR PS BATH'S PRACTICE,-0.394147,51.901132
881.62,THE NORTH LONDON HEALTH CENTRE,-0.11243199999999999,51.617571
422.5,BENTLEY VILLAGE SURGERY,-0.87992,51.189933
835.67,CLEOBURY MORTIMER SURGERY,-2.485608,52.377502
1215.65,ALCHESTER MEDICAL GROUP,-1.138371,51.891398
1453.07,DEAN CROSS SURGERY,-4.095355,50.358939
893.4700000000001,NEW VALLEY PRACTICE,-3.654492,50.792383
217.19000000000003,NETHERTON SURGERY,-2.97236,53.488626
8.979999999999999,WOKING ALEXANDRA WARD,-0.556304,51.315132
553.44,WIDDRINGTON SURGERY,-1.62051,55.240248
196.7,DE MONTFORT SURGERY,-1.141192,52.6286
969.1400000000001,MENDLESHAM MEDICAL GROUP,1.0816,52.251866
494.34,THE EVERGLADE MEDICAL PRACTICE,-0.24421,51.601578
708.37,WEST HAMPSTEAD MEDICAL CENTRE,-0.196578,51.55004
1275.9199999999996,STAUNTON GROUP PRACTICE,-0.112926,51.599388
1397.5,SOUTHBROOM SURGERY,-1.989037,51.352288
440.97,BLAKENEY SURGERY,-2.476364,51.759117
1113.94,RIVERSIDE MED.PRACTICE,-2.755278,52.709209
619.7099999999998,TOWNFIELD HEALTH CENTRE,-3.064248,53.378798
595.4000000000002,HOPWOOD MEDICAL CENTRE,-2.212052,53.587143
1430.89,THE KILTEARN MEDICAL CTR.,-2.518506,53.068155
1469.35,SADDLEWORTH MEDICAL PRACTICE,-2.004957,53.548331
271.99,SUMMERFIELD GROUP PRACTICE,-1.937353,52.487686
557.1,THURROCK HEALTH CENTRE,0.323317,51.477404
7.54,SKEGNESS & COAST GP EXTENDED ACCESS HUB,0.342219,53.188059
4.930000000000001,LINCOLN OOH,-0.519635,53.233575
350.36,CAMP HILL GP LED HEALTH CENTRE,-1.507061,52.533074
551.2800000000001,THE PATEL PRACTICE,-1.1885709999999998,54.661404
858.0699999999998,PADDOCK AND LONGWOOD FAMILY PRACTICE,-1.80546,53.642119
2990.78,BEACHES MEDICAL CENTRE,1.727734,52.577124
653.9,LINDEN ROAD SURGERY,-0.479248,52.14361
2.89,PRIMARY CARE ACCESS HUB (SOUTH STOKE),-2.102853,52.97847
0.85,PROCARE HEALTH SERVICES,-0.708282,51.091746
8.17,GLOUCESTER (CARE UK) OOH,-2.30608,51.879263
630.4,HAYDON BRIDGE & ALLENDALE MEDICAL PRACT,-2.250059,54.975681
396.6,BRAMCOTE SURGERY,-1.244985,52.935604
1.32,MEDICUS HEALTH PARTNERS-WILLOW HOUSE,-0.07659,51.654209
385.9000000000001,WEMBURY SURGERY,-4.072566,50.32186
1745.1800000000005,SHERWOOD HOUSE MEDICAL PRACTICE,-1.959426,52.473851
1125.37,ST ANDREWS SURGERY,-0.361958,53.735566
617.0999999999998,PLEASLEY SURGERY,-1.250873,53.175809
818.6300000000001,CHIGWELL MEDICAL CENTRE,0.083876,51.60551
258.76,OLD PARSONAGE SURGERY,0.460418,51.112785
663.79,THE WELLBRIDGE PRACTICE,-2.225354,50.679039
942.35,COOKHAM MEDICAL CENTRE,-0.725805,51.558356
1574.0499999999995,ORCHARD MEDICAL CENTRE,-2.510659,51.462087
481.9,LYNGFORD PARK,-3.090916,51.036442
1495.1999999999996,STAFFORD HEALTH AND WELLBEING,-2.123291,52.817722
0.17,URGENT CARE CTR (FCMS) OOH,-3.015863,53.820616
1650.86,EVERGREEN PRIMARY CARE CENTRE,-0.059836,51.623784
4.93,BARDOC GP OOH,-2.427769,53.590447
58.84,SHAKESPEARE WIC,-1.525196,53.802098
469.35,CRAVEN ARMS SURGERY,-2.835416,52.442323
581.44,ARRAN MEDICAL CENTRE,-1.748679,52.50386700000001
999.45,CHAPEL LANE SURGERY,-3.061428,53.557075
378.3,TOWN HALL SURGERY,-2.092973,53.478374
2.06,LCW WLCCG OOH,-0.217218,51.522362
576.07,DENMARK ROAD SURGERY,-0.06725100000000002,51.393136
12.3,HOME VISITING SERVICE,-2.165957,53.412542
836.2899999999998,HAMSTEAD ROAD SURGERY,-1.919012,52.504474
201.30999999999997,SURGERY AUBERY ROAD,-1.846411,52.46633
296.25,MOXLEY MEDICAL CENTRE,-2.051113,52.560033
268.43,MEDICARE UNIT SURGERY,-2.69241,53.725239
697.6200000000001,LOSTOCK MEDICAL CENTRE,-2.328128,53.45458000000001
640.93,LANGLEY MEDICAL PRACTICE,-0.299929,51.390825
2164.95,ASHBY TURN PRIMARY CARE PARTNERS,-0.6542,53.566147
556.85,BRADFORD MOOR PRACTICE,-1.7218490000000002,53.797834
909.98,LONG STRATTON MEDICAL PARTNERSHIP,1.229088,52.491027
1076.44,HIGHFIELD SURGERY,-0.459233,51.766434
570.79,TOTTENHAM HEALTH CENTRE,-0.068474,51.604755
457.91,PARKSIDE MEDICAL CENTRE,-0.092642,51.475826
544.6500000000001,GRAND DRIVE SURGERY,-0.228811,51.402155
306.86,SOMERSET BRIDGE MEDICAL CENTRE,-2.995883,51.115105
904.25,CORNISHWAY GROUP PRACTICE,-2.265017,53.379925
1135.93,BRADSHAW MEDICAL CENTRE,-2.688594,53.537889
107.98,SAVILE TOWN MEDICAL CTR.,-1.625804,53.68222900000001
724.71,THE ORCHARD SURGERY,-0.324352,50.828062
314.72,THE DANBY PRACTICE,-0.907874,54.468317
771.2200000000001,THE LAWSON PRACTICE,-0.079465,51.533775
490.29,FRANCIS ROAD MEDICAL CENTRE,-0.003831,51.561975
82.14,UNIVERSITY MEDICAL CENTRE,1.062127,51.296198
914.61,ST STEPHENS HOUSE SURGERY,-0.305726,51.31772
482.3499999999999,PARK VIEW HEALTH PARTNERSHIP,-0.137252,50.961825
1199.65,BYFIELD MEDICAL CENTRE,-1.242893,52.174071
676.65,SOHO ROAD PRIMARY CARE CENTRE,-1.934945,52.503094
943.09,LACHE HEALTH CENTRE,-2.914326,53.173615
234.29,WALNUT ST MED CTR (LEICESTER MED GROUP),-1.138855,52.624601
338.5200000000001,ETTINGSHALL MEDICAL CENTRE,-2.092879,52.570364
1160.4600000000005,DARTFORD EAST HEALTH CENTRE,0.236914,51.440747
791.5699999999998,BOLINGBROKE MEDICAL CENTRE (THMP),-0.168282,51.45617
1193.7299999999998,THE BORDER PRACTICE,-0.740565,51.240995
1292.92,WHITELADIES MEDICAL GROUP,-2.612382,51.465097
1126.22,RIVERSIDE SURGERY,-3.006197,53.372004
826.3299999999998,HT PRACTICE,-2.110496,53.478305
7.76,MEDICUS HEALTH PARTNERS-CURZON AVENUE,-0.036518,51.645435
101.75,CARDIAC SERVICE STOKE AND NORTH,-2.109085,52.810605
794.5,UPWELL STREET SURGERY,-1.434724,53.406424
989.0300000000002,PLOWRIGHT MEDICAL CENTRE,0.686691,52.655577
981.28,BEECHWOOD SURGERY,0.292731,51.608567
950.48,THE NIGHTINGALE PRACTICE,-0.062434,51.558261
1678.4299999999994,BELVEDERE MEDICAL CENTRE,0.144376,51.482567
1745.1699999999994,ST.LAWRENCE SURGERY,-0.390026,50.823979
1400.89,ESPLANADE SURGERY,-1.158697,50.731943
473.26,GLASTONBURY HEALTH CENTRE,-2.712893,51.148733
2256.53,MAYFIELD SURGERY,-2.13456,52.982709
756.65,BRIDGE MEDICAL,-1.506726,55.038077
154.76999999999995,BCHC MEDICINES MANAGEMENT,-1.9537779999999998,52.398207
909.6400000000001,TASBURGH LODGE SURGERY,-0.21375,53.151242
1649.17,SOTHALL & BEIGHTON HEALTH CENTRES,-1.340221,53.337895
1021.01,THE MEADS SURGERY,0.091624,50.969686
334.82000000000005,RAGSTONE ROAD SURGERY,-0.601832,51.503747
1194.8599999999994,WADEBRIDGE & CAMEL ESTUARY PRACTICE,-4.835729,50.514816
1005.9699999999997,EVE HILL MEDICAL PRACTICE,-2.096805,52.512922
1225.21,WEST DERBY MEDICAL CENTRE,-2.895944,53.431273
109.77,DR. B. K. PRASHARA,-2.114816,52.456326
780.0,ORMSKIRK HOUSE SURGERY,-2.74261,53.456686
1307.06,PENNINE MEDICAL CENTRE,-2.040966,53.515337
4.99,VIRGIN CARE SPECIALIST NURSING SHCCG,-0.7846419999999998,51.220491
2555.63,ALNWICK MEDICAL GROUP,-1.6967470000000002,55.410086
3099.3100000000004,BOROUGHBURY MEDICAL CENTRE,-0.245486,52.577858
1845.55,THE ROOKERY MEDICAL CENTRE,0.405573,52.245158
3.33,MID CLUSTER IAGPS,-1.9731169999999998,50.721987
2.08,SJUH GPS IN A+E,-1.520359,53.806869
883.8999999999999,FIELDHEAD SURGERY,-1.854229,53.641358
1695.2699999999998,CROFTON AND SHARLSTON MED PRAC,-1.427042,53.656573
528.0600000000001,ST.PAUL'S WAY MEDICAL CTR,-0.024483,51.517862
2097.140000000001,WYKE REGIS & LANEHOUSE MEDICAL PRACTICE,-2.475127,50.594634
1471.5200000000007,KINGSWOOD HEALTH CENTRE,-2.499974,51.462895
1027.23,THREE VILLAGES MEDICAL PRACTICE,-2.146398,52.465406
1208.39,MELROSE SURGERY,-0.9598620000000002,51.451692
1062.09,ACLE MEDICAL PARTNERSHIP,1.548667,52.640969
1520.23,MARTONSIDE MEDICAL CENTRE,-1.220329,54.553175
650.4400000000002,ROCKLIFFE COURT SURGERY,-1.544074,54.483444
230.36,CHAPELFORD PRIMARY CARE CENTRE,-2.633066,53.39615799999999
900.84,THE SELE MEDICAL PRACTICE,-2.095702,54.970372
1195.3200000000004,MARKET WEIGHTON GROUP PRACTICE,-0.674786,53.864903
3207.990000000001,HEALTH CARE FIRST PARTNERSHIP,-1.393615,53.736872
2101.33,BROOM LANE MEDICAL CENTRE,-1.332311,53.417383
229.42,THE KILLINGHOLME SURGERY,-0.260335,53.62990799999999
1093.59,COMBERTON SURGERY,0.018614,52.189811
1053.91,SHEPHALL HEALTH CENTRE,-0.167642,51.890799
182.37,WESTBOURNE GROVE MEDICAL CENTRE,-0.200361,51.514211
427.61,MILTON REGIS SURGERY,0.7321839999999998,51.349193
485.54,BURBAGE SURGERY,-1.669545,51.348496
821.12,THE CREST FAMILY PRACTICE,-2.596274,51.428746
229.19,WORTHEN MEDICAL PRACTICE,-3.000165,52.635224
338.08,KIRKDALE MEDICAL CENTRE,-2.973842,53.433523
591.28,FACCINI HOUSE SURGERY,-0.189379,51.389682
671.78,JRB HEALTHCARE BEECHDALE SURGERY,-1.198142,52.961504
1400.59,WOODLANDS FAMILY MEDICAL CENTRE,-1.321204,54.561215
1170.7299999999998,THE UPPINGHAM SURGERY,-0.723557,52.594972
1172.0700000000004,THE THORPE BAY SURGERY,0.757986,51.534599
1183.6999999999996,HUDSON (SEYMOUR HOUSE),-0.292773,51.462401
1760.8300000000004,WHADDON MEDICAL CENTRE,-0.7662759999999998,52.000308
351.87,BONEY HAY SURGERY,-1.926768,52.690328
124.97,GREENFIELD MEDICAL CENTRE,-1.855764,52.491684
470.89,THE SURGERY,-2.605295,53.024859
720.32,MARPLE MEDICAL PRACTICE,-2.064954,53.39495
121.14,CLOVER CITY PRACTICE,-1.46659,53.38187
823.0699999999998,ASPATRIA MEDICAL GROUP,-3.337992,54.762123
709.3600000000001,WELLSPRING MEDICAL PRACT.,-1.564066,55.037289
294.13,FAMILY DOCTORS,-1.440964,53.798248
590.5700000000002,NORTH FULHAM SURGERY,-0.199224,51.486415
185.62,LAI CHUNG FONG QUEENS PARK HEALTH CENTRE,-0.205826,51.530911
1734.78,WHEATFIELD SURGERY,-0.495144,51.904445
452.6499999999999,LONG CATLIS ROAD SURGERY,0.595579,51.348325
1082.75,MINET GREEN HEALTH PRACTICE,-0.105204,51.475715
1387.12,NEW ADDINGTON GROUP PRACTICE,-0.018557,51.344382
3033.5299999999993,THE ARMADA FAMILY PRACTICE,-2.571861,51.413438
1153.3,LEEK HEALTH CENTRE,-2.019347,53.105691
538.78,CHASE MEADOW HEALTH CENTRE,-1.608604,52.268838
500.58,CASTLE STREET MEDICAL CENTRE,-1.293753,53.229627
1992.75,HOLT MEDICAL PRACTICE,1.116042,52.914476
679.82,UXENDON CRESCENT SURGERY,-0.292809,51.572063
184.76,STERNDALE SURGERY,-0.221441,51.498326
832.3199999999998,WESTERHAM PRACTICE,0.070437,51.266465
1265.3200000000004,STEYNING HEALTH CENTRE,-0.329972,50.890666
676.4499999999998,YOXALL,-1.7931740000000003,52.767984
367.23,SCHOOLACRE ROAD SURGERY,-1.785797,52.497659
1339.15,WITTON MEDICAL CENTRE,-2.507553,53.740232
170.07999999999996,WALMERSLEY ROAD MEDICAL PRACTICE,-2.289525,53.599849
154.15,BEVAN HEALTHCARE CIC,-1.753352,53.795581
78.28,MERSEYCARE NHS TRUST,-2.826417,53.424035
1495.68,THE COUNTY PRACTICE,-1.069884,52.70073000000001
1179.93,ORCHARD SURGERY,0.944176,52.678309
1097.29,DR JK MARSDEN'S PRACTICE,-0.436528,51.894968
1083.1899999999996,WHITLEY HOUSE SURGERY,0.455723,51.726539
269.04,JOYDENS WOOD MEDICAL CENTRE,0.166397,51.42449
2317.66,TRAFALGAR MEDICAL GROUP PRACTICE,-1.092485,50.785331
1038.79,EASTFIELD HOUSE SURGERY,-1.323251,51.395555
1378.32,TUDOR LODGE SURGERY,-2.975378,51.332396
1021.09,PRAZE-AN-BEEBLE SURGERY,-5.309264,50.173753
1059.79,HALL GREEN SURGERY,-2.741349,53.540745
258.47,LATIMER HEALTH CENTRE,-0.049503,51.54659
1375.61,WHITCHURCH SURGERY,-1.340372,51.230256
481.28,DR NEWMAN,-1.975441,50.719722
2.89,PONTELAND RD WIC,-1.656804,54.991604
8.63,BURNLEY LOCALITY NMPS,-2.238948,53.791326
2.64,DMC COMMUNITY DERMATOLOGY ERY,-0.872594,53.695801
291.96,THE WHITSWOOD PRACTICE,-2.253502,53.455769
2.05,GATESHEAD HEALTH COMMUNITY SERVICES,-1.580781,54.93938000000001
493.6499999999999,BEESTON VILLAGE SURGERY,-1.569152,53.772415
490.29,BLURTON MEDICAL CENTRE,-2.156565,52.972002
2.02,HASTINGS AND ROTHER OOH,0.891514,51.129106
552.8299999999999,BEWICK ROAD SURGERY,-1.601653,54.956398
1078.95,KEIGHLEY ROAD SURGERY,-1.893907,53.754239
1195.4999999999998,MULBERRY STREET MEDICAL PRACTICE,-1.66397,53.794738
1038.0199999999998,CHATSWORTH ROAD MEDICAL CENTRE,-1.467337,53.231374
5.74,HAVEN COURT,-1.428468,54.971208
1011.34,BENTHAM ROAD HEALTH CENTRE,-2.50627,53.73058399999999
1902.74,DENMARK STREET SURGERY,-1.552252,54.538825
1225.1100000000004,PALLION FAMILY PRACTICE,-1.414195,54.908604
394.3,UEA MEDICAL CENTRE,1.241391,52.622369
391.7099999999999,THE STREATFIELD MEDICAL CENTRE,-0.30083,51.595343
501.77,THE CHELSEA PRACTICE,-0.166915,51.486814
1257.54,RYDAL,0.020102,51.608432
1283.84,GROSVENOR & ST JAMES MEDICAL CENTRE,0.264349,51.137424
413.8299999999999,THE THREE ZERO SIX MEDICAL CENTRE,-0.076403,51.450741
780.18,NEW OTTERSHAW SURGERY,-0.526005,51.361938
1452.9699999999998,RIDGEWAY VIEW FAMILY PRACTICE,-1.7915709999999998,51.524175
1031.97,THE HALL PRACTICE,-0.561016,51.606986
570.42,HARTLAND SURGERY,-4.482549,50.992721
1452.4700000000007,RED BANK GROUP PRACTICE,-2.323706,53.560143
997.5,GRAVESEND MEDICAL CENTRE,0.369986,51.443932
1165.33,DR WICKREMESINGHE SSG,-0.123521,51.469491
6.44,HAROLD WOOD WIC,0.225699,51.593184
10.16,SOUTH LAKES PRIMARY CARE SERVICES,-2.737133,54.312706
890.9099999999999,BEECH HOUSE SURGERY,-1.465892,54.010836
1853.44,MANOR PARK SURGERY,-1.628914,53.814076
1182.78,PARKSIDE SURGERY,-1.391868,53.097732
832.9299999999998,BURWELL SURGERY,0.331841,52.273327
283.74999999999994,WEST LONDON MEDICAL CENTRE,-0.454699,51.525731
1004.7,ADELAIDE MEDICAL CENTRE,-1.475274,51.208539
399.21,TUDOR PRACTICE STOCKLAND GREEN,-1.857329,52.52388199999999
738.93,WALTON SURGERY,1.335453,51.973564
556.93,PARKGATE SURGERY,-1.548606,54.523273
220.49,POLLARD ROW SURGERY,-0.064328,51.528266
1.64,PML NEIGHBOURHOOD HUB (BANBURY),-1.349027,52.057771
512.9699999999999,ULVERSTON COMMUNITY HEALTH CENTRE,-3.097833,54.198882
1811.6800000000005,BISHOPS WALTHAM SURGERY,-1.212149,50.95528
1025.45,LOCKWOOD GP SURGERY,-2.989833,53.850947
474.26,THE ENTERPRISE PRACTICE,-0.320613,51.601113
1009.11,ODDFELLOWS HALL & ST CLEMENTS,0.327906,51.480703
729.47,CHAUCER SURGERY,-1.45237,52.515151
855.0,THE ENDEAVOUR PRACTICE,-1.235397,54.575047
206.97000000000003,MAYFAIR MEDICAL CENTRE,-0.150172,51.513536
1008.57,FOWEY RIVER PRACTICE,-4.635394,50.337915
1206.12,HOLTS HEALTH CENTRE,-2.406966,51.931555
1561.2899999999993,CUMBERLAND HOUSE,-2.145844,52.901549
400.01,DR A GUPTA BENIM MEDICAL CENTRE,-2.947804,53.419395
1667.51,RIVERSIDE MEDICAL CENTRE,-2.672299,53.748112
443.8500000000001,LITTLETOWN FAMILY MED PRACT,-2.134298,53.529137
431.9700000000001,CROWN WOOD MEDICAL CENTRE,-0.736934,51.395919
7.79,CITY REACH HEALTH SERVICES,1.288137,52.633042
18.74,PELC REDBRIDGE OOH,0.066648,51.55684
829.3899999999999,GREENWOOD SURGERY,0.605168,51.653143
18.54,MERTON CCG-CLCH (NMP),-0.199155,51.47377
1392.46,SKELMANTHORPE FAMILY DOCTORS,-1.650686,53.591604
449.07000000000005,PHOENIX PRIMARY CARE (SOUTH) LTD,-0.435422,51.918016
340.49,CASSIDY ROAD MEDICAL CENTRE,-0.199015,51.479154
753.8500000000001,ROWHEDGE SURGERY,0.945058,51.85767
699.4300000000002,THE CHESSER SURGERY,-0.177303,51.374927
1389.87,BUGBROOKE MEDICAL PRACTICE,-1.005426,52.211409
670.1000000000001,TEIGN ESTUARY MEDICAL GROUP,-3.496462,50.5456
1272.3,LUSON,-3.229566,50.977398
523.61,HEDNESFORD MEDICAL PRACTICE,-2.000697,52.71233
375.56,ROTTON PARK MEDICAL CENTRE,-1.947079,52.482162
929.95,NEWTOWN SURGERY,-2.735705,53.362158
1608.6400000000006,WINGATE MEDICAL CENTRE,-2.874647,53.488385
364.77,EGTON SURGERY,-0.7552379999999999,54.445555
289.28,THE PRACTICE-SAYEED,-1.106589,52.63081700000001
864.87,TRAMWAYS AND MIDDLEWOOD MEDICAL CENTRES,-1.515268,53.418958
2239.870000000001,TULASI MEDICAL CENTRE,0.12448900000000002,51.561005
1114.35,SUTTON VALENCE GROUP PRACTICE,0.59403,51.211195
1073.91,THE STAUNTON SURGERY,-0.978019,50.851067
1492.47,BLUNDELLSANDS SURGERY,-3.041273,53.484452
388.44000000000005,SLAG LANE MC,-2.575634,53.47856899999999
983.0299999999999,GREAT WITLEY SURGERY,-2.361004,52.291152
926.44,MADELEY PRACTICE,-2.345126,52.999856
1687.37,QUEENSWAY MEDICAL CENTRE,-2.995384,53.846569
912.5400000000002,DR KK CHAN & PARTNERS,-2.489022,53.524185
469.46,CITY ROAD MEDICAL CENTRE,-0.091116,51.527895
545.44,BOTOLPH BRIDGE COMMUNITY HEALTH CENTRE,-0.261557,52.562595
724.0999999999998,GUTTERIDGE MEDICAL CENTRE,-2.691248,53.769881
645.21,ST MARY'S MEDICAL CENTRE,-2.108554,53.543625
73.46,BEDSER HUB,-0.556304,51.315132
0.62,HARROW RAPID RESPONSE SERVICE,-0.294546,51.596988
61.98,WRAYSDALE HOUSE SURGERY,-3.076077,54.367247
1728.11,SAVILLE MEDICAL GROUP,-1.609598,54.976095
534.14,COOK BF,-0.357512,53.780969
884.0299999999999,ADELAIDE MEDICAL CENTRE,-0.161257,51.543548
331.7700000000001,HOLLINGTON SURGERY,0.872487,51.151423
579.6300000000001,HARTLAND WAY SURGERY,-0.045782,51.374372
625.5500000000002,COLVILLE HEALTH CENTRE,-0.206231,51.515837
518.9300000000001,THE KINGS FAMILY PRACTICE,0.534548,51.377821
900.2200000000001,FOUNTAIN PRACTICE,-0.252307,51.350378
1918.78,NUFFIELD HEALTH CENTRE,-1.486793,51.786441
576.5899999999998,240 WEXHAM ROAD,-0.57838,51.516902
1201.44,THISTLEMOOR MEDICAL CENTRE,-0.254566,52.595274
363.73,CANTERBURY HEALTH CENTRE,1.082981,51.274249
249.31,BANBURY HEALTH CENTRE,-1.334014,52.062032
378.05,SOHO HEALTH CENTRE,-1.934945,52.503094
1826.69,HOLLYNS HEALTH & WELLBEING - CLAYTON,-1.81454,53.779166
988.09,BRIDGE STREET MEDICAL PRACTICE,-1.20716,52.774841
643.42,PRIORS FIELD SURGERY,0.124169,52.388951
1420.4,MILLWAY MEDICAL PRACTICE,-0.24359099999999997,51.614985
1.64,MOULSHAM LODGE SURGERY,0.475137,51.716565
501.8,YORK ROAD SURGERY,0.065859,51.559165
1311.42,ST.GEORGE'S SURGERY,-2.0815,51.906706
288.3400000000001,CROPREDY SURGERY,-1.320027,52.116731
964.39,BIRCHWOOD MEDICAL PRACTICE,-2.547938,51.446246
325.76,WEST PARK SURGERY,-2.141256,52.587783
285.41,UPTON ROCKS PRIMARY CARE,-2.754371,53.373367
804.1799999999998,WELLSBOURNE HEALTHCARE CIC,-0.107386,50.825445
365.6,P A PATEL SURGERY,0.582273,51.56978
483.87000000000006,CLINTON ROAD SURGERY,-5.224966,50.23093
154.84,BLOOMSBURY HEALTH CENTRE,-1.876618,52.493743
809.2099999999998,HOUGHTON MEDICAL GROUP ,-1.469175,54.842322
494.66,LUNDWOOD MEDICAL CENTRE PMS PRACTICE,-1.438538,53.557711
991.13,BALLARDS WALK SURGERY,0.441841,51.573232
375.84,THE HALFWAY SURGERY,0.524157,51.380429
665.3399999999998,ELIZABETH HOUSE MEDICAL PRACTICE,-0.050005,51.308093
113.26,SARAJLIC (STAINES ROAD),-0.357923,51.439672
3532.17,THE DOWNEND HEALTH GROUP,-2.505301,51.485109
333.47,THE SINGH MEDICAL PRACTICE,-2.213622,53.512042
11.0,STROKE PATHWAY AND REHABILITATION CENTRE,-1.461102,53.37116700000001
2.05,COMMUNITY PALLIATIVE CARE MEDICAL TEAM,-2.777861,53.433387
1570.15,BLACKBURN RD.MEDICAL CTR.,-1.664718,53.731348
836.5800000000002,COMMUNITY HEALTH CENTRE (ZS OSAMA),-1.113421,52.632387
1022.85,TRAMWAYS MEDICAL CENTRE (O'CONNELL),-1.503023,53.402044
2148.02,SHEFFORD HEALTH CENTRE,-0.321643,52.034788
893.2099999999998,THE FRYENT WAY SURGERY,-0.280565,51.582963
533.2500000000001,BELMONT MEDICAL CENTRE,-0.478036,51.548264
1042.1799999999996,BEXLEY GROUP PRACTICE,0.10965599999999999,51.465832
482.13,THE MOORINGS MEDICAL PRACTICE,-0.095892,51.322229
1706.6999999999996,BLACKTHORN HEALTH CENTRE,-1.327194,50.876037
1473.35,ELM HAYES SURGERY,-2.492756,51.300546
1097.3,THE DOVE MEDICAL PRACTICE,-1.864605,52.535155
1847.56,WARLEY MEDICAL CENTRE,-2.006757,52.468122
289.6,OLIVE MEDICAL CENTRE,-2.484193,53.752309
288.02,SOMERS TOWN MEDICAL CENTRE,-0.130607,51.529916
731.0899999999998,LAUREL BANK SURGERY,-1.587333,53.816942
800.82,HEALTH CARE COMPLEX  KIRKBY,-1.244634,53.100062
770.5599999999998,THE AZAD PRACTICE,0.044868,51.531234
1539.21,COQUET MEDICAL GROUP,-1.580504,55.332599
584.06,ALLERTON MEDICAL CENTRE,-1.533879,53.826921
695.56,SOLE BAY H/C,1.6664740000000002,52.336325
248.42,WATERSIDE MEDICAL CENTRE,-0.363984,51.502165
790.36,MELBOURNE HOUSE SURGERY,0.451756,51.749214
917.58,AMPTHILL PRACTICE,-0.137293,51.5346
780.85,THE WILLOWS PRACTICE,0.104416,51.60776
1663.48,HIGHPARKS MEDICAL PRACTICE,0.496762,51.434213
675.77,CRAWLEY DOWN HEALTH CENTRE,-0.07762099999999998,51.122557
1165.8100000000004,COTSWOLD MEDICAL PRACTICE,-1.75678,51.886317
565.1600000000002,THE ABBOTSBURY PRACTICE,-0.397406,51.579266
1448.9799999999998,NUFFIELD HOUSE HEALTH CENTRE,0.112828,51.774439
671.1600000000002,CLIFTON RISE FAMILY PRACTICE,-0.03143300000000001,51.476334
2154.13,HASLEMERE HEALTH CENTRE,-0.707586,51.092107
965.5100000000001,THE DORCHESTER RD SURGERY,-2.457512,50.625193
855.5799999999998,ST.JAMES SURGERY,-1.989956,51.352926
1996.1900000000005,BOTLEY MEDICAL CENTRE,-1.299442,51.753753
1194.8,QUEEN'S MEDICAL CENTRE,-4.057196,51.080161
608.88,EXMOOR MEDICAL CENTRE,-3.544825,51.038507
408.93,CHARLES ROAD SURGERY,-1.850621,52.4722
462.3,WILLESDEN GREEN SURGERY,-0.216091,51.553773
2.89,PRUH URGENT CARE CENTRE,0.059146,51.366243
1711.7199999999998,BROOKROYD HOUSE,-1.67818,53.707224
1907.46,NETTLEHAM MEDICAL PRACTICE,-0.476253,53.262865
1706.76,SHEPPERTON MEDICAL PRACTICE,-0.453153,51.396402
1359.0300000000002,THE MANOR PRACTICE,-0.234983,50.835138
209.47,CLAPHAM JUNCTION MEDICAL PRACTICE,-0.173908,51.465969
3509.2499999999995,PEMBROKE MEDICAL GROUP,-3.560246,50.445527
793.04,GREENFORD ROAD MED.CTR.,-0.345702,51.537697
326.91,QUEENS WALK MEDICAL CENTRE,-0.393155,51.562716
1325.6699999999996,ADDISON HOUSE - HAQUE PRACTICE,0.088979,51.770891
757.0299999999999,ST PETER'S STREET MEDICAL PRACTICE,-0.100772,51.535597
998.07,STOKENCHURCH MEDICAL CTRE,-0.904033,51.660479
531.08,ABBOTS BROMLEY SURGERY,-1.880966,52.819974
555.49,TOWNSIDE SURGERY,-2.29898,53.59031
478.82000000000005,GOODMAYES MEDICAL CENTRE,0.10990599999999999,51.567626
274.61,EAST PARADE MEDICAL PRACTICE,-1.061835,53.965993
2639.93,SHAFTESBURY MEDICAL CTR.,-1.497858,53.800234
1017.73,GROBY ROAD MEDICAL CENTRE (ID PATCHETT),-1.150468,52.644337
1589.0499999999995,FOUNTAIN MEDICAL CENTRE,-0.8043829999999998,53.07286
1461.7300000000002,SCAWSBY HEALTH CENTRE PRACTICE,-1.167843,53.53678299999999
2492.2,ST. GEORGE'S MEDICAL CENTRE,0.298817,52.458085
1371.9299999999996,CENTRAL SURGERY,0.147747,51.812546
253.12000000000003,THE HOXTON SURGERY,-0.086829,51.533527
554.9300000000001,LL MEDICAL CARE LTD,0.0021,51.555415
4170.14,THE ADAM PRACTICE,-2.07822,50.757881
436.73,PRIORY ROAD SURGERY,0.589253,50.860828
2645.21,WISTARIA & MILFORD SURGERIES,-1.547285,50.760041
866.0700000000002,GORDON STREET SURGERY,-1.644613,52.810998
39.16,HAVERING CCG,0.179796,51.579247
3.95,SOUTH KENT GROUP,1.118942,51.075872
5.61,URGENT CARE CENTRE NORTHWICK PARK HOSP,-0.322037,51.575407
709.05,PROSPECT MEDICAL PRACTICE,1.285656,52.643921
1273.67,GROVELANDS MEDICAL CENTRE,-0.112028,51.620685
830.4000000000003,ST JAMES' SURGERY,1.315702,51.128516
590.1,OXSHOTT MEDICAL PRACTICE,-0.360843,51.333099
564.2299999999998,LAVENDER HILL GROUP PRACTICE,-0.15683,51.466044
1200.87,ST.MARY'S SURGERY,-1.397475,50.905746
1010.23,SPRINGMEAD SURGERY  CHARD,-2.967972,50.869562
1230.65,POND TAIL SURGERY,-0.066728,51.246436
1072.39,LYME VALLEY MEDICAL CENTRE,-2.22375,53.006305
1213.55,WOODLANDS MEDICAL PRACTICE,-2.31213,53.406624
560.88,BATH ROAD SURGERY,-0.37684,51.469395
3.79,TAMESIDE & GLOSSOP IC NHS FT,-2.071433,53.49153
1254.53,THE ALDERGATE MED.PRACT.,-1.695644,52.639079
1803.14,EASTGATE MEDICAL GROUP,-1.462815,54.006795
1611.48,NEWBOLD VERDON MED.PRACT.,-1.34334,52.634612
715.8599999999999,BAKERSFIELD MEDICAL CENTRE,-1.104957,52.960219
771.4900000000001,THE ORDNANCE UNITY CENTRE FOR HEALTH,-0.039073,51.672653
779.73,BLOXHAM SURGERY,-1.372977,52.018108
8.92,GP HUBS - GP HEALTH PARTNERS LTD,-0.266331,51.334184
4.1,NORTH COTSWOLDS IMPROVED ACCESS,-2.239997,51.862659
920.92,THE LAKESIDE PRACTICE,-1.148909,53.61549599999999
284.92999999999995,WESTWOOD CLINIC,-0.269054,52.591395
815.87,THEOBALD MEDICAL CENTRE,-0.285584,51.661381
92.39,THE SURGERY,-0.184519,51.497627
1092.4199999999996,COMBS FORD SURGERY,0.995999,52.180181
887.88,HILLVIEW SURGERY,-0.318331,51.540536
248.31,DR HAFFIZ,-0.119262,51.539321
638.74,THE AVENUE SURGERY,-0.113425,50.844357
1186.66,NEW POND ROW SURGERY,-0.322292,50.824911
1223.09,LUDLOW - PORTCULLIS,-2.715958,52.368905
165.77999999999997,DADHANIA SURGERY,-1.491047,52.405815
1751.0800000000004,HUDDERSFIELD ROAD SURGERY,-1.485631,53.558165
2015.15,SHERINGHAM MEDICAL PRACTICE,1.214777,52.939688
1321.53,CHURCH LANE HEALTH CENTRE,0.941162,50.984187
1882.23,BARN CLOSE SURGERY,-1.859248,52.03627
572.09,LOSTOCK HALL MEDICAL CTR.,-2.688037,53.727502
3.94,SUMMERFIELD URGENT CARE CENTRE WIC,-1.937353,52.487686
628.7099999999998,PENINSULA MEDICAL PRACTICE,-2.915665,54.18795600000001
1801.1999999999996,HEBDEN BRIDGE GROUP PRACTICE,-2.010942,53.744036
1108.38,STOCKWELL LODGE MED.CTR.,-0.055287,51.713792
634.71,DR PM PATEL,0.219281,51.55632
150.01000000000005,CHISWICK FAMILY DRS PRACTICE,-0.259879,51.493563
923.5300000000002,ILFORD MEDICAL CENTRE,0.07431899999999998,51.556823
1113.83,WITLEY SURGERY,-0.650163,51.156457
1870.82,FURLONG MEDICAL CENTRE,-2.208139,53.063325
1041.91,THE WATERFIELD PRACTICE,-0.733923,51.409204
247.88,JERICHO HEALTH CENTRE,-1.265958,51.760293
758.0300000000003,TEAN SURGERY,-1.988036,52.954415
731.69,THORNLEY STREET MEDICAL CENTRE,-2.125789,52.58843
494.03,MILE LANE HEALTH CENTRE,-2.335248,53.587814
365.32000000000005,BOLTON MEDICAL CENTRE,-2.431399,53.56543
793.0599999999998,WESTCROFT HEALTH CENTRE,-0.795699,52.006367
1404.82,LOWTHER MEDICAL CENTRE,-3.586392,54.545056
805.9899999999997,ANDAMAN SURGERY,1.715485,52.45691600000001
492.3,BURNT ASH SURGERY,0.009913000000000002,51.452782
1106.2,HILLVIEW MEDICAL CENTRE,-0.557727,51.315501
584.96,BATHEASTON MEDICAL CENTRE,-2.317387,51.406032
883.8499999999998,HEALD GREEN HEALTH CENTRE 2,-2.229276,53.369878
413.51,SMITH (RICHMOND LOCK),-0.322897,51.464517
394.23,JUBILEE GARDENS MEDICAL CENTRE,-0.368739,51.521097
1904.52,BRAMPTON MEDICAL PRACTICE,-2.734846,54.94237
849.7200000000001,PLANE TREES GROUP PRACTICE,-1.894437,53.730448
1238.71,THORNTON MEDICAL CENTRE,-1.576209,53.791908
869.3599999999999,BRAILSFORD & HULLAND MEDICAL PRACTICE,-1.624927,52.96943
14.25,SMS COMMUNITY DERMATOLOGY CLINIC,-1.398499,50.913503
4.92,EAST STAFFS IMPROVING LIVES,-1.6480290000000002,52.798809
1381.19,BISHOPS CLOSE MEDICAL PRACTICE,-1.599142,54.699817
2105.93,CLEE MEDICAL CENTRE,-0.041433,53.566223
390.55,BALDWINS LANE SURGERY,-0.448705,51.654076
1175.9299999999996,NEASDEN MEDICAL CENTRE,-0.247382,51.559667
159.17,JOHN SMITH MEDICAL CENTRE,0.112125,51.538899
708.89,FAIRFIELD PMS,0.038949,51.483908
2631.83,BURNHAM HEALTH CENTRE,-0.662137,51.5349
3571.090000000001,ASPEN MEDICAL PRACTICE,-2.225797,51.865969
1066.32,TRENT VALE MEDICAL PRACTICE,-2.201785,52.987386
317.54,BROOKSIDE SURGERY,-1.399088,52.35048
143.96,4/LOWER BROUGHTON MEDICAL PRACTICE,-2.258808,53.49359
460.83,DESFORD MEDICAL CENTRE,-1.296116,52.627473
149.83,DR VIJE'S SURGERY,-1.650877,52.617569
15.71,ALICE HOUSE HOSPICE,-1.224421,54.704049
197.43000000000004,DR R SHARMA'S PRACTICE,-0.096482,51.499125
2260.9499999999994,NORTON MEDICAL CENTRE,-1.308737,54.588737
198.37,PEEL PARK SURGERY,-1.731903,53.806791
503.13000000000005,BOURN SURGERY,-0.063404,52.193155
570.62,COACHMANS MEDICAL PRACTICE,-0.203875,51.096335
1478.0700000000006,HEREWARD MEDICAL CENTRE,-0.380913,52.768626
2693.4700000000007,PENISTONE GROUP PMS PRACTICE,-1.630732,53.523565
1048.7800000000002,THE PARK SURGERY,1.7292759999999998,52.606218
482.45,LANFRANC MEDICAL CENTRE,-0.332746,51.561586
1501.4399999999996,WOODLANDS MEDICAL CENTRE,-1.258898,51.603637
417.73,KNOCKIN MEDICAL CENTRE,-2.993042,52.79343
2514.7899999999995,THE CROSS KEYS PRACTICE,-0.830848,51.723655
591.18,HILLCREST SURGERY,-2.431687,51.311982
767.13,APSLEY SURGERY,-2.187008,53.035377
610.1299999999999,ASHFIELD ROAD SURGERY,-2.132841,52.62604399999999
174.61999999999995,NT&H COMM CARDIAC N,-1.227837,54.702398
20.26,CHELTENHAM LOCALITY NURSE PRESCRIBER,-2.176389,51.847073
963.38,BLACKETTS MEDICAL PRACTICE,-1.559007,54.527221
448.19,DR A SINHA,-0.108523,53.567689
683.5899999999998,STANHOPE SURGERY,-0.032073,51.688002
602.9000000000002,THE GRAHAM PRACTICE,0.048721,51.541534
1212.87,BEDFORD STREET SURGERY,-0.729782,51.995784
764.5499999999998,SOUTHOVER MEDICAL PRACTICE,-3.528075,50.474733
969.1499999999999,THE STOKE ROAD SURGERY ,-2.068173,51.94667
543.77,HAWKESLEY MEDICAL PRACTICE,-1.937498,52.39544
683.8800000000001,PARK MEDICAL CENTRE,-2.873099,53.202665
917.31,NORWOOD SURGERY,-2.97819,53.65000799999999
174.77,SLAIDBURN HEALTH CENTRE,-2.444001,53.967313
321.25,DR PATHAK ND,-1.9843959999999998,52.51273
382.9200000000001,DILSTON MEDICAL CENTRE,-1.640355,54.976621
324.69,NORTH CHELMSFORD NHS HCC,0.510815,51.750584
904.4,FRIERN BARNET MEDICAL CENTRE,-0.155988,51.613267
1077.8200000000004,THE GOLD STREET SURGERY,0.240471,52.021716
1626.54,WELLS HEALTH CENTRE,-2.655326,51.203403
340.92999999999995,VILLAGE MEDICAL PRACTICE,-2.095994,53.574817
149.24,THE OM SURGERY,-1.2057,53.034978
0.41,WANDSWORTH COMMUNITY WARDS,-0.145908,51.472301
0.29,EAST CLUSTER IAGPS,-1.82052,50.747482
1570.5100000000002,HOLMSIDE MEDICAL GROUP,-1.66023,54.969004
390.33,SEVERN SURGERY,-1.065583,52.598801
1129.12,SPRING TERRACE HEALTH CENTRE,-1.450673,55.010941
960.64,SOUTH WIGSTON HEALTH CTR.,-1.129183,52.580452
770.69,QUEENS WALK PRACTICE,-0.312985,51.524803
1548.36,OLD ROAD SURGERY,1.148421,51.795466
703.22,THE LIMEHOUSE PRACTICE,-0.028747,51.511253
704.98,FORDBRIDGE MEDICAL CENTRE,-0.46301,51.431269
1085.43,EVERSLEY MEDICAL CENTRE,-0.11191300000000001,51.388514
1477.5,CRICKET GREEN MEDICAL PRACTICE,-0.174025,51.404579
901.9000000000002,WELLFIELD MEDICAL CENTRE,-2.242019,53.512545
906.71,WIGTON GROUP MEDICAL PRACTICE,-3.159002,54.820303
1148.2,VILLAGE SURGERY,-1.485797,52.896347
1133.14,THE MEDICAL CENTRE  DR JEFFERIES & PARTN,-0.212607,51.481206
504.97,MEANWHILE GARDEN MEDICAL CENTRE,-0.203126,51.522228
482.03,ROSERTON STREET SURGERY,-0.010049,51.498482
1272.3,ALBION PLACE MEDICAL PRACTICE,0.529542,51.274206
543.4999999999999,TRIVENI PMS,0.058438,51.490321
1555.5600000000004,THE HARVEY PRACTICE,-1.993525,50.761018
1413.62,THE MISBOURNE SURGERY,-0.558045,51.607786
1005.27,SHAY LANE MEDICAL CENTRE (KELMAN),-2.31556,53.372189
1571.7200000000007,MORRAB SURGERY,-5.538987,50.116924
8.519999999999998,CCG ACUTE VISITING SERVICE,-2.178123,53.021853
4.75,LGI GPS IN A+E,-1.551744,53.801445
1317.33,BARBOURNE HEALTH CENTRE,-2.224952,52.208752
772.59,LILFORD PARK SURGERY,-2.511455,53.503236
156.64,MALLING HEALTH AT STOKE ALDERMOOR,-1.479565,52.402142
733.2399999999999,MEIR PARK & WESTON COYNEY MEDICAL PRACT,-2.094889,52.966305
532.36,OAKWOOD SURGERY,-1.858645,52.444556
587.12,THE GROVE MEDICAL PRACTICE,-0.362401,51.55534
236.08,THE DURU PRACTICE,-2.116945,53.543824
1802.71,ASH GROVE,-1.245572,53.704968
1239.4399999999996,HOLLIES MEDICAL CENTRE,-1.494834,53.363179
2494.39,MID SUSSEX HEALTH CARE,-0.175279,50.933719
6398.52,PORTSDOWN GROUP PRACTICE,-1.080952,50.812876
1505.72,ABBEY MEDICAL GROUP,-1.119194,53.100674
276.31,HOLBORN MEDICAL CENTRE,-0.118539,51.522233
532.08,BRICK LANE SURGERY,-0.048612,51.657327
449.43,ELM LODGE SURGERY,-0.096232,51.451506
1600.36,THE LIGHTHOUSE GROUP PRACTICE,-1.0805049999999998,50.796551
1480.62,THE ORCHARD PARTNERSHIP,-1.865867,51.077878
987.25,PARKGATE SURGERY,-2.882743,53.564772
4.76,NEWARK ACUTE HOME VISITING SERVICE,-1.238124,52.98146
2447.1,WILLIAM BROWN CENTRE,-1.33142,54.757994
410.48,RED HOUSE MEDICAL CENTRE,-1.424063,54.925457
1478.58,COLNE VALLEY GROUP PRACTICE,-1.9282130000000002,53.602096
482.36000000000007,SOUTHEY GREEN MEDICAL CTR,-1.477666,53.419051
1160.61,IVRY STREET MEDICAL PRACTICE,1.148624,52.064021
1106.15,NEWBURY GROUP PRACTICE,0.085981,51.576435
510.22,BRAMPTON HEALTH CENTRE,-0.277386,51.586099
326.1500000000001,DOCKLANDS MEDICAL CENTRE,-0.021143,51.491152
964.38,ABBEY WOOD SURGERY,0.11653,51.497094
1385.63,STAFFORD MEDICAL GROUP,-2.914755,51.35259
2344.9,SEVERN VALLEY MEDICAL PRACTICE,-2.235045,52.190415
736.17,LIME SQUARE MEDICAL CENTRE,-2.164901,53.473649
122.39,HATTON MEDICAL PRACTICE,-0.433285,51.457879
2004.22,BIRBECK MEDICAL GROUP,-2.742581,54.656125
605.61,WENLOCK ROAD SURGERY,-1.455226,54.972635
925.81,CRICH MEDICAL PRACTICE,-1.482573,53.084327
1016.7300000000004,LUDHAM AND STALHAM GREEN SURGERIES,1.534423,52.709131
1784.9900000000002,WELL CLOSE MEDICAL GROUP,-2.006127,55.77245799999999
1460.98,THE BURNS PRACTICE,-1.12309,53.520707
606.1,KING GEORGE ROAD SURGERY,0.518518,51.348911
1547.5800000000006,CHURCHDOWN SURGERY,-2.171559,51.882487
573.5,VENTNOR MEDICAL CENTRE,-1.203791,50.594548
1318.55,WEST VIEW SURGERY,-2.50212,51.411923
864.3,CONCEPT HOUSE SURGERY,-2.98492,53.449136
599.3200000000002,HEATHROW MEDICAL CENTRE,-0.433924,51.49302
3.85,COMMUNITY GERIATRICIAN SERVICE,-1.568473,53.81497099999999
712.78,EAST PARADE SURGERY,-1.529793,53.996354
628.7000000000002,BASLOW HEALTH CENTRE,-1.617823,53.246144
350.57,ASQUITH SURGERY,-1.117116,52.601489
837.54,SUN LANE,1.087469,51.071536
891.5399999999998,THE CHURCH VIEW PRACTICE,0.609995,51.363412
308.76,TRIANGLE GROUP PRACTICE,-0.011071,51.457798
1568.29,BICESTER HEALTH CENTRE,-1.157239,51.896742
1488.65,BILBROOK MEDICAL CENTRE,-2.181749,52.624775
4338.100000000001,LANCASTER MEDICAL PRACTICE,-2.797202,54.047583
1266.5,NEW COURT SURGERY,-2.30878,52.113538
1129.85,SWANWOOD PARTNERSHIP,0.519034,51.613356
648.37,THE JUNCTION SURGERY,-1.759212,53.643662
7.26,BADGER GROUP OOH,-1.8778259999999998,52.477589
220.97,COMMUNITY NURSING (SOUTH TEES),-1.215564,54.570237
1407.01,MIDDLE CHARE MEDICAL GROUP,-1.573113,54.855636
1778.89,LEIGH VIEW MEDICAL PRACTICE,-1.558358,53.728574
1.64,NORTH NORFOLK HUB 2 (BIRCHWOOD),1.38334,52.820065
412.22,GILDERSOME HEALTH CENTRE,-1.6293,53.756554
1110.67,HAZELMERE MEDICAL CENTRE,-1.16453,52.57337
899.9099999999999,QUEENS PARK HEALTH CENTRE,-0.493075,52.133151
237.84,THE HEATHCOTE PRIMARY CARE CENTRE,0.062768,51.593832
1569.53,TRESCOBEAS SURGERY,-5.085333,50.15531
844.65,MITCHELDEAN SURGERY,-2.488369,51.865935
1809.24,HARESFIELD HOUSE SURGERY,-2.202996,52.194829
1723.06,LAUREL HOUSE SURGERY,-1.692825,52.636563
1215.6699999999996,LONGFORD PRIMARY CARE CENTRE,-1.48555,52.449933
2242.0,ROPE GREEN MEDICAL CENTRE,-2.453958,53.06655
2187.37,AINSDALE MEDICAL CENTRE,-3.03882,53.602403
783.62,QUEEN STREET MEDICAL PRACTICE,-3.589063,54.546567
460.13,THE MILLER PRACTICE,-0.092165,51.551419
1453.9900000000002,THE GROVES MEDICAL CENTRE,-0.26224,51.410048
1121.11,THE MARINE & OAKRIDGE PARTNERSHIP,-1.806532,50.722838
962.5,PORT ISAAC SURGERY,-4.824594,50.589808
1527.25,ST JOHNS HOUSE SURGERY,-2.25911,52.18874
837.22,ADDERLEY GREEN SURGERY,-2.135511,52.991714
355.0900000000001,DR BILAS,-2.063063,52.612824
2.46,HOSP.OF THE GOOD SHEPHERD,-2.901692,53.242544
277.74000000000007,DILL HALL SURGERY,-2.390844,53.754996
787.58,WEST TIMPERLEY MEDICAL CENTRE,-2.353117,53.402699
437.21,SUMMERLEE MEDICAL CENTRE,-0.652145,52.337022
221.26,THE GRANGE MEDICAL CENTRE,-0.262039,52.57839
1073.9799999999998,GREEN RIDGE SURGERY,-1.8710349999999998,52.428433
621.3800000000001,ROCK COURT SURGERY,-2.916187,53.411597
1014.43,HAVEN HEALTH,1.327039,51.96536
46.86,DANEHOUSE MEDICAL PRACTICE,-2.238948,53.791326
128.72,SHORTSTOWN MEDICAL CENTRE,-0.432463,52.110853
4.99,MK URGENT CARE SERVICES OOH,-0.7357599999999997,52.026384
101.46,LIMEFIELD ROAD MEDICAL PRACTICE,-2.26047,53.506995
62.34,THE MATTHEWMAN PRACTICE,-0.149281,51.545823
126.97,LAKESIDE SURGERY,-1.310932,53.52812
317.95,VALLEY VIEW SURGERY,-1.731903,53.806791
277.81,LICHFIELD GROVE SURGERY,-0.19329,51.599604
1222.6799999999996,ARBURY MEDICAL CENTRE,-1.497961,52.51662
555.94,CHURCH LANE - KHAN,-1.793962,52.487056
321.8,BEECHDALE CENTRE,-2.007339,52.600867
793.9299999999998,DINGLE PARK PRACTICE,-2.972885,53.38633
455.27,BEECHWOOD SURGERY,-3.009057,53.871568
1670.76,HEYWOOD HEALTH,-2.239335,53.58736999999999
796.37,GLOUCESTER HOUSE MEDICAL CENTRE,-2.352599,53.447337
595.88,FIR TREE,-2.878691,53.44930600000001
6.16,NELPCT OUT OF HOURS SERVICE,-0.096229,53.544858
3.28,WALK IN CENTRE (WIC),-1.784934,51.563016
1253.84,MAYNARD COURT SURGERY,0.020165,51.685605
1346.9399999999996,YARM MEDICAL PRACTICE,-1.355519,54.50530500000001
450.49,BENSHAM FAMILY PRACTICE,-1.617038,54.952781
299.3,EASTMOOR HEALTH CENTRE,-1.476864,53.690004
214.21,SPUR ROAD SURGERY,-0.086621,51.586597
338.6,ALBION STREET SURGERY,-0.133965,50.827627
1256.67,THE BANKS & BEARWOOD MEDICAL CENTRE,-1.9292169999999997,50.768326
457.5199999999999,MERE SURGERY,-2.265342,51.089873
1876.37,THE GROUP PRACTICE ALFRED SQUIRE ROAD,-2.080754,52.599417
1011.4400000000003,LANGWORTHY MEDICAL PRACTICE,-2.294771,53.489371
390.77,LEY HILL SURGERY,-1.983266,52.421346
188.39,CRESCENT SURGERY,0.106446,51.389854
476.36000000000007,GREEN CEDARS MEDICAL CENTRE,-0.073642,51.616071
562.39,WHITE HORSE SURGERY,0.343258,51.435153
1464.9299999999996,PARK HOUSE MEDICAL CENTRE,-2.805295,53.42670699999999
726.3400000000001,SOUTH KING STREET MEDICAL CENTRE,-3.047855,53.816775
38.87,ANN MARIE HOWES CENTRE,-1.7785380000000002,52.464805
6.15,AIREBOROUGH COMMUNITY CARE,-1.684881,53.866663
371.1700000000001,PEELER HOUSE SURGERY,-0.438756,53.72252
282.76,DR DHITAL PRACTICE,-0.003074,51.587786
1262.5500000000004,WOODLANDS HEALTH CENTRE,0.38485,51.18077
48.68000000000001,WEST KENT GROUP,1.118942,51.075872
6.16,BRAMHOPE DERMATOLOGY COMMUNITY CLINIC,-1.61581,53.881903
1659.9399999999996,DALTON SURGERY,-3.179816,54.155917
685.6100000000001,RAJ MEDICAL CENTRE,-0.113968,53.550655
1072.81,OAKWOOD LANE MEDICAL PRACTICE,-1.493931,53.819982
719.52,CADDINGTON SURGERY,-0.458179,51.864502
3.08,GREENWICH CCG GP ACCESS HUB,0.050556,51.457843
828.22,WEST ROAD MEDICAL CENTRE,-1.656263,54.976209
1018.61,FOREST PRACTICE,0.07523499999999998,51.654789
291.51,PRASAD,0.210579,51.600308
1329.01,NORTHDOWN SURGERY,1.368001,51.379866
2268.78,DARWEN HEALTHLINK,-2.471427,53.695744
456.16,DAVID MEDICAL CENTRE,-2.268652,53.43186
1107.16,EDLESBOROUGH SURGERY,-0.588625,51.868423
378.03,CHURCH VIEW MEDICAL CENTRE,-2.960328,50.935622
633.5500000000002,HENDON WAY SURGERY,-0.241873,51.579182
45.98,SPECIALIST NURSE,-1.517573,53.993807
2.25,NC GPA PLUS,-1.152649,52.954624
766.1300000000001,NETHERFIELD HOUSE,-1.548435,55.063632
1495.05,PRACTICE 3  MEDICAL CENTRE  BRIDLINGTON,-0.201064,54.084715
872.0,THE ALMONDBURY SURGERY,-1.751311,53.631868
559.07,NEWLAND SURGERY,-1.424247,53.695146
1044.36,TREETON MEDICAL CENTRE,-1.354708,53.384994
14.760000000000002,COMMUNITY MATRONS,-2.095555,52.599722
423.52,THE CHESTNUTS & HALLGATE SURGERY,-0.403621,53.778985
1684.12,SHIRES HEALTHCARE,-1.215692,53.202513
770.0999999999998,ORCHARD SURGERY,-1.278154,52.836522
967.24,ST GEORGES MED PRACTICE,-1.132346,52.930754
382.64,THE RANDOLPH SURGERY,-0.186852,51.529819
655.64,HEXTABLE SURGERY,0.182972,51.409182
573.9799999999998,THE ROEHAMPTON SURGERY,-0.242431,51.451154
466.15,CRICK MEDICAL PRACTICE,-1.135861,52.343212
1293.11,THE VILLAGE SURGERY,-2.219972,53.033945
670.1200000000001,STONE CROSS MEDICAL CENTRE,-1.982689,52.545444
747.38,ILEX VIEW MEDICAL PRACTICE,-2.280663,53.70081
335.8600000000001,PEEL CROFT,-1.6339549999999998,52.799271
2256.75,BEDLINGTONSHIRE MED.GROUP,-1.598682,55.1322
1392.41,MALTINGS SURGERY,-0.337918,51.751851
1198.43,RECTORY MEADOW SURGERY,-0.6175,51.669079
2.56,CARE UK OOH,1.210633,52.034014
560.45,KIRKBY COMMUNITY PRIMARY CARE CENTRE (3),-1.248741,53.10176
1481.17,BERKLEY PRACTICE,-2.024533,52.58916
1335.42,WOODLANDS MEDICAL PRACTICE,-2.142182,53.545559
867.35,BROOKS BAR MEDICAL CENTRE,-2.261969,53.461412
744.47,THE VILLAGE MEDICAL CTR,-0.512653,52.128152
4.87,GP COLLABORATIVE OOH,-1.455965,53.409821
377.75,ST NEOTS HEALTH CENTRE,-0.267116,52.228966
1239.62,MIDDLESTOWN,-1.600562,53.650545
695.06,AEGIS MEDICAL CENTRE,0.467525,51.57556
1407.85,LAVANT ROAD SURGERY,-0.781051,50.853385
202.63,BEGG PRACTICE,-0.179391,51.459968
1697.03,EMMER GREEN SURGERY,-0.972861,51.483584
2989.79,ST THOMAS MEDICAL GROUP,-3.54518,50.714472
1291.88,BOSWORTH MEDICAL CENTRE,-1.7536330000000002,52.480569
6.56,CBS OOH,-1.233579,53.134573
0.59,EASTBOURNE  HAILSHAM & SEAFORD OOH,0.891514,51.129106
59.66,INTERMEDIATE CARE (THE PEELE),-2.259671,53.385779
1476.29,WEM AND PREES MEDICAL PRACTICE,-2.722566,52.859338
548.0200000000002,ALL SAINTS SURGERY,-1.644121,52.794285
1276.5700000000004,DORRIDGE SURGERY,-1.752074,52.372757
359.88,QUEENS ROAD SURGERY,-1.474524,52.522119
2247.53,ASH TREES SURGERY,-2.769484,54.129481
335.46,FAMILY PRACTICE,-2.486748,53.750552
1098.4899999999998,LEESBROOK SURGERY,-2.07266,53.53879
1.03,ASHFORD HUB,-0.472813,51.444022
968.3,RADCLIFFE-ON-TRENT. HEALTH CENTRE,-1.03822,52.946139
653.55,MANCHESTER ROAD SURGERY,-1.521086,53.380573
902.83,PENSHURST GARDENS SURGERY,-0.272812,51.616129
143.11999999999995,ORCHARD END,0.539532,51.091415
119.54,BLOOMSBURY SURGERY,-1.871892,52.49324300000001
274.08,KHAN MEDICAL PRACTICE,-2.000799,52.613174
447.97,ASHURST PRIMARY CARE,-2.772723,53.563208
2086.96,PEASE WAY MEDICAL CENTRE,-1.576495,54.618581
276.67,ELSDON AVENUE SURGERY,-1.525885,55.07062
605.25,CROSLAND MOOR SURGERY,-1.809637,53.63841
1168.9,PARKGATE MEDICAL CENTRE,-1.342798,53.455454
320.41,QUEENS AVENUE PRACTICE,-0.147916,51.591852
375.97,DR RHK SINHA'S PRACTICE,-0.103058,51.482668
475.11,THE ADDISCOMBE SURGERY,-0.061851,51.376293
2836.1,THE CAMBRIDGE PRACTICE,-0.76565,51.254364
828.5399999999998,BRICKFIELDS SURGERY,0.605168,51.653143
1515.72,THE CEDARS SURGERY,1.403174,51.217619
1731.5800000000004,ORCHID HOUSE SURGERY,-1.894499,50.801788
1849.99,WEAVERS MEDICAL,-0.733538,52.401531
2388.25,BIDEFORD MEDICAL CENTRE,-4.211785,51.017201
1408.6699999999996,CORBETT MEDICAL PRACTICE,-2.148792,52.263269
710.74,COBRIDGE SURGERY,-2.187008,53.035377
1358.09,ALBION MEDICAL PRACTICE,-2.088476,53.48960400000001
472.16,LONGFIELD MEDICAL PRACTICE,-2.28357,53.533828
31.46,PALACCI (CASTELNAU),-0.238274,51.476873
461.37,BRERETON SURGERY,-1.924317,52.747482
112.43,THE LAWNS SURGERY,-0.502907,50.807746
3.78,BARNET COPD SERVICE,-0.271242,51.606493
301.77,BRIERLEY MEDICAL CENTRE,-1.382484,53.594188
608.8600000000001,TEMPLE FORTUNE MEDICAL GROUP,-0.197845,51.581101
1766.2,WEST MALLING GROUP PRACTICE,0.407707,51.293351
779.6099999999999,MOAT HOUSE SURGERY,-0.146361,51.259819
1048.84,DENHAM MEDICAL CENTRE,-0.502236,51.584564
1056.4300000000003,CHEW MEDICAL PRACTICE,-2.629195,51.35619
1228.2900000000004,CHARING SURGERY,0.791374,51.20971
2656.72,HEART OF BATH,-2.373947,51.376364
598.28,LOSTWITHIEL SURGERY,-4.668763,50.407892
871.9700000000001,THE GROVE ROAD PRACTICE,-0.202341,51.358201
348.17,HANLEY PRIMARY CARE CENTRE,-0.12083699999999999,51.567951
477.2600000000001,LEYLAND SURGERY,-2.709316,53.689645
6.35,HP NMP'S RUSH CCG,-1.143101,53.130244
330.07,DEARNE VALLEY HEALTH CENTRE,-1.626482,53.588349
2850.78,SEAFORD MEDICAL PRACTICE,0.099275,50.772678
550.57,THE WHITEHORSE PRACTICE,-0.097391,51.385869
1957.89,TOWER HOUSE SURGERY,-0.770004,51.636372
1833.68,CHURCH STREET PRACTICE,-1.425847,51.598763
2538.65,ROSEBANK HEALTH,-2.242194,51.852611
706.4700000000001,MAPLE VIEW MEDICAL PRACTICE,-1.905693,52.31659
1101.36,HOWDEN MEDICAL PRACTICE,-0.8694039999999998,53.744175
1769.19,THE WILSDEN MEDICAL PRACTICE,-1.86138,53.818377
682.69,GREASBROUGH MEDICAL CENTRE,-1.372776,53.452893
1135.72,WEST MERSEA SURGERY,0.9193420000000002,51.778349
1022.85,TWYFORD SURGERY,-1.314229,51.019421
1029.73,IDE LANE SURGERY,-3.534972,50.699471
746.73,THE ARROW SURGERY,-1.861382,52.218546
598.44,WILLENHAL OAK MEDICAL CENTRE,-1.463131,52.388988
2708.25,THE OVER-WYRE MED.CTR.,-2.976492,53.928203
157.96,FAMILY SURGERY,-2.346055,53.396194
81.34,CRANBROOK MEDICAL PRACTICE,-3.416198,50.746596
3142.34,MARKET HARBOROUGH MED.CTR,-0.924843,52.477084
583.0000000000001,PORTLAND ROAD PRACTICE,-0.208019,51.507366
310.4,THE STROUDLEY WLK HTH CTR,-0.017533,51.527214
663.61,ST JOHN'S MEDICAL PRACTICE,0.195249,51.285009
507.48,DERRY DOWNS SURGERY,0.116651,51.385174
650.4900000000001,DANES CAMP MEDICAL CENTRE,-0.904374,52.205152
1313.6999999999996,CULVERHAY SURGERY,-2.348649,51.638921
731.05,SPRINGFIELDS MEDICAL CENTRE,-2.597522,53.389256
450.99,HALLIWELL SURGERY 1,-2.431738,53.588322
152.73,FITZMAURICE (KEW),-0.283117,51.475875
3560.17,THE MEDICAL GROUP,-1.628911,54.748296
850.6500000000002,KINGS HEAD MEDICAL PRACTICE,-0.011448,51.635688
360.24999999999994,THE GLENDALE SURGERY,-2.01842,55.546525
1231.7099999999996,THORNE MOOR MEDICAL PRACTICE,-0.966348,53.613648
1134.0,ST.PETER'S MEDICAL CENTRE,-0.135237,50.831002
1374.0099999999998,YALDING,0.429804,51.221188
399.37,BIRDHURST MEDICAL PRACTICE,-0.092613,51.365279
1808.74,FORESTSIDE MEDICAL PRACTICE,-1.416173,50.851823
1520.6299999999994,GLASTONBURY SURGERY,-2.721853,51.148462
1443.7000000000005,MEDINA HEALTHCARE,-1.298686,50.697239
1391.64,GREENWAY COMMUNITY PRACTICE,-2.611274,51.499595
2624.42,HIGHBRIDGE MEDICAL CENTRE,-2.979117,51.227372
1131.66,CANTILUPE SURGERY,-2.712261,52.055418
698.1800000000002,DRS SHAH & TALPUR,-2.194635,52.974032
1742.45,WHALLEY MEDICAL CENTRE,-2.406348,53.819793
836.38,PIKES LANE 1,-2.446348,53.572728
757.92,SEASCALE HEALTH CENTRE,-3.479998,54.396756
609.85,RIPLEY MEDICAL CENTRE,-1.405723,53.04704
362.86,DENABY MEDICAL PRACTICE,-1.245792,53.490666
479.42,UPTON ROAD SURGERY,-0.401058,51.656689
1655.06,THE HOLLIES,0.610574,51.555461
331.72,THE LEIGH SURGERY,0.656153,51.555504
941.99,THE DOWNLAND PRACTICE,-1.312402,51.463442
431.33,EGERTON/DUNSCAR HEALTH CENTRE,-2.426383,53.617589
2.56,CARE UK COVENTRY OOH,-1.5080049999999998,52.413401
2.05,COASTAL HEALTH SOUTH,1.715177,52.478072
6.290000000000001,DONCASTER URGENT CARE & OUT OF HOURS,-1.109062,53.530806
805.5900000000001,FARROW MEDICAL CENTRE,-1.74312,53.802511
880.0,BRAMLEY VILLAGE HEALTH & WELLBEING CTR,-1.623032,53.80781999999999
1114.39,CUFFLEY AND GOFFS OAK MEDICAL PRACTICE,-0.113106,51.708171
0.13,NEAS SOUTH TYNESIDE CCG,-1.712365,54.969713
8.0,MERTON REHAB BEDS,-0.224115,51.437407
829.94,CAMPINGLAND SURGERY,0.690978,52.645997
1706.66,LEIGHTON ROAD SURGERY,-0.66795,51.915779
1349.46,WILLOW TREE FAMILY DOCTORS,-0.265224,51.589337
417.26,MAIDSTONE RD RAINHAM SURGERY,0.600379,51.36233
392.44999999999993,BANK HOUSE SURGERY,0.069949,51.359218
661.9,YORK MEDICAL PRACTICE,-0.325697,51.449369
578.07,CARRINGTON HOUSE SURGERY,-0.749217,51.632299
1108.59,HOLLYOAKS MEDICAL CENTRE,-1.869052,52.377979
456.05,GARSTON FAMILY HEALTH CENTRE,-2.89683,53.353909
569.6299999999999,COMMONFIELD RD SURGERY,-3.086369,53.370187
297.1,WERNETH MEDICAL PRACTICE,-2.126938,53.53497
418.87,DR VICTORIA MUIR'S PRACTICE,-0.151358,51.490651
290.5300000000001,THE FAMILY PRACTICE,-3.229282,54.116755
397.63,COWGILL SURGERY,-1.814543,53.781952
309.3299999999999,THE GLENSIDE COUNTRY PRACTICE,-0.537958,52.75451
266.51,NORTH AVENUE SURGERY,0.735187,51.546618
993.33,HAWTHORNS SURGERY,-0.175174,51.241163
976.63,TRINITY MEDICAL CENTRE,-0.158437,51.437554
2274.68,HOMEWELL.CURLEW PRACTICE,-0.978019,50.851067
736.13,SUNLIGHT GROUP PRACTICE,-3.00005,53.363076
630.0700000000002,BLYTH ROAD MEDICAL CENTRE,-1.20365,53.422231
855.87,HARBOUR MEDICAL PRACTICE,0.324489,50.797353
1.32,MEANWOOD GROUP PRACTICE ENT SERVICE,-1.565811,53.827167
2.05,M & A LTC PALLIATIVE CARE NURSE,-1.238124,52.98146
3.41,M&A AHVS (PICS),-1.238124,52.98146
2332.7899999999995,THE HAYMARKET HEALTH CTR,-2.211781,53.060343
467.99000000000007,HEATHERLANDS MED CTR,-3.089543,53.381475
869.42,CATHEDRAL MEDICAL CENTRE,0.275488,52.413145
1.49,NDUC NEWCASTLE GATESHEAD OOH,-1.58819,55.01931999999999
412.97,THE GAMSTON MEDICAL CTR.,-1.100495,52.924252
0.79,ERDINGTON GP HEALTH & WELLBEING WIC,-1.840871,52.522486
0.41,CRISIS RESPONSE TEAM,-2.186902,53.52264
5.739999999999999,CENTRAL DURHAM GP EXT'D ACCESS SERVICE,-1.56716,54.7787
2061.94,AUCKLAND MEDICAL GROUP,-1.678996,54.648085
4279.34,HAXBY GROUP PRACTICE,-1.081866,54.019329
226.4,VERITAS HEALTH CENTRE,-1.481026,53.354257
1543.1,THE NEVELLS ROAD SURGERY,-0.22942,51.980882
270.08,COLLINGWOOD ROAD SURGERY,0.638271,51.802938
1063.24,STOCK HILL SURGERY,0.031768,51.312089
490.27,CLAREMONT MEDICAL CENTRE,-0.306132,51.390808
951.82,WATERFRONT AND SOLENT SURGERY,-1.403379,50.870013
416.3,THE ABINGDON HEALTH CENTRE,-0.197138,51.496085
510.11000000000007,ELTHAM PALACE PMS,0.053714,51.449946
1237.66,CHAWTON PARK SURGERY,-0.989411,51.139814
1466.2,THE OAKS MEDICAL CENTRE,-1.895827,52.552454
542.1500000000001,NEWBRIDGE SURGERY,-2.155299,52.5936
231.54,ST.GEORGES MEDICAL CENTRE,-0.24612,51.558731
541.4599999999999,OAKWOOD MEDICAL CENTRE,-0.134269,51.646534
10.66,DCHS DERBY CITY,-1.441882,53.221288
501.23,REDBURN PARK MEDICAL CENTRE,-1.474775,55.00092
448.5,BARKEREND HC - EL ELIWI,-1.7218490000000002,53.797834
641.98,ROSEMEAD DRIVE SURGERY,-1.083088,52.5934
892.27,BRENTFORD GROUP PRACTICE,-0.310054,51.48676
2423.83,JUBILEE MEDICAL CENTRE,0.300332,51.3978
1192.14,LAMBETH WALK GROUP PRACTICE,-0.11259100000000001,51.495609
888.51,SOUTHMEAD SURGERY,-0.616953,51.552538
811.23,MALLING HEALTH BLUE SUITE,0.609995,51.363412
1211.4799999999998,FARNHAM DENE MEDICAL PRACTICE,-0.777405,51.200549
2235.2200000000007,BRUNEL MEDICAL PRACTICE,-3.516948,50.479349
1341.16,THE MANOR PRACTICE,-1.8236169999999998,52.55816
982.22,DUNCAN STREET PRIMARY CARE PARTNERSHIP,-2.126602,52.57346999999999
771.32,WESTOVER SURGERY,-5.07501,50.148927
186.2,LANGTHORNE SHARMA FAMILY PRACTICE,0.0021,51.555415
1079.36,WEST MEADS SURGERY,-0.701481,50.788299
1.32,PBORO WEEKEND HOURS GP PILOT,-0.279386,52.583921
1501.2400000000002,BUSHLOE SURGERY,-1.116921,52.583283
1055.6,LEISTON SURGERY,1.575953,52.207708
601.9100000000002,HEATHFIELDE MEDICAL CENTRE,-0.179797,51.585238
1459.13,MOTE,0.545625,51.246876
1277.82,WINSCOMBE SURGERY,-2.830537,51.315196
515.37,ELTHAM PARK SURGERY,0.061023,51.4547
883.32,JAMES O'RIORDAN MEDICAL CENTRE,-0.212686,51.385157
234.69,27 BEAUMONT STREET,-1.26216,51.755081
40.40000000000001,ST LUKES MEDICAL CENTRE,-3.517636,50.394313
1025.85,PRIMROSE SURGERY,-2.357311,53.456159
309.56999999999994,THE OLD DAIRY HEALTH CENTRE,-0.091201,51.436586
3.770000000000001,SUTTON COMMUNITY SERVICES,-0.183642,51.380313
1121.06,THE MANOR SURGERY,-1.216371,52.925036
1089.18,ESSEX LODGE,0.026685000000000004,51.527915
850.8300000000002,BRIDGE MEDICAL CENTRE,-0.166439,51.117364
1068.69,THE CRANBORNE PRACTICE,-1.9192779999999998,50.919773
999.51,NEW FOREST MEDICAL GROUP,-1.576665,50.81471
690.06,SWALLOWFIELD MEDICAL PRACTICE,-0.958531,51.378289
844.0799999999998,TALBOT MEDICAL CENTRE,-1.440661,54.973054
1272.68,NOVA SCOTIA MEDICAL CNTR,-1.373051,53.747561
2145.98,ABBEY SURGERY,-4.150401,50.546904
1158.97,WHITEACRES MEDICAL CENTRE,-2.300547,52.124716
680.55,AUDLEM MEDICAL PRACTICE,-2.508717,52.989615
585.44,KENNETH MACRAE MED CENTRE,-2.786435,53.49903
184.53000000000003,WOODLANDS MEDICAL PRACTICE,-0.170943,51.592914
916.33,VERNON STREET MEDICAL CTR,-1.49039,52.924019
2275.35,BRIDGE COTTAGE SURGERY,-0.215995,51.830002
1254.11,DR KRISHNAN & PTNR - KENT ELMS HC,0.664114,51.563831
435.25000000000006,CRANHAM HEALTH CENTRE,0.265291,51.568865
679.2099999999998,LEWISHAM MEDICAL CENTRE,0.004522,51.458513
1306.77,LYDNEY PRACTICE,-2.529867,51.727913
1689.56,ST. JOHNS SURGERY,-2.059728,52.337612
928.52,MONTAGUE MEDICAL PRACTICE,-0.872899,53.707031
716.8099999999998,HORTON BANK PRACTICE,-1.806018,53.774478
651.6400000000001,HIGH STREET PRACTICE,-1.458313,53.597926
833.1399999999999,DR BAKER & PARTNERS,0.548167,51.570733
331.35,INGREBOURNE MEDICAL CENTRE,0.210579,51.600308
389.27,CROUCH HALL ROAD SURGERY,-0.127301,51.579178
1616.86,CENTRAL SURGERY,-0.299929,51.390825
1856.52,ST PAUL'S SURGERY,-1.32139,51.065963
825.0000000000001,KINGTON MEDICAL PRACTICE,-3.022556,52.199361
1023.12,WEST GORTON MEDICAL PRACTICE,-2.203859,53.46720500000001
1121.0299999999997,THE LEEDS ROAD PRACTICE,-1.535156,53.980466
763.6499999999999,FOXHILL MEDICAL CENTRE,-1.501327,53.429911
568.37,CAULDWELL MEDICAL CENTRE,-0.472495,52.128265
499.42,SANDRINGHAM PRACTICE,-0.067207,51.547773
1449.61,LAKESIDE MEDICAL,0.122454,51.496518
1358.95,LEAP VALLEY MEDICAL CENTRE,-2.487852,51.496541
404.22,ST JAMES MEDICAL PRACTICE1,-2.097323,52.514234
692.07,MORETON MEDICAL CENTRE,-3.110005,53.39886
664.7099999999998,DRS HANIF &  BANNURU,-2.184157,53.484308
2933.9500000000007,SWALLOWNEST HEALTH CENTRE,-1.317097,53.362997
303.94,BOUNDARY HOUSE SURGERY,-0.054245,51.632475
2496.17,WESTBURY GROUP PRACTICE,-2.203558,51.252792
332.87,HIGHLEY MEDICAL CENTRE,-2.392978,52.456165
479.91,WOLSTON SURGERY,-1.392727,52.376806
691.0500000000002,BALLIOL ROAD SURGERY,-1.471449,52.415924
477.48,NEWTON MEDICAL CENTRE,-2.638386,53.457172
444.54,TIMPERLEY HEALTH CENTRE (WESTWOOD),-2.323566,53.397228
864.99,LIMES MEDICAL CENTRE,-1.387885,53.098493
560.4499999999998,SELSTON SURGERY,-1.299871,53.070196
1738.28,CRYSTAL PEAKS MEDICAL CENTRE,-1.354473,53.342881
276.31000000000006,CHURCH LANE SURGERY,-0.262165,51.574931
350.8400000000001,ACRE SURGERY,-0.411552,51.604465
485.56,CUMBERLAND MEDICAL CENTRE,0.026047,51.519716
301.6,MAIDSTONE RD CHATHAM SURGERY,0.516708,51.361226
707.2599999999999,LONG BARN LANE SURGERY,-0.967033,51.436181
674.31,OMBERSLEY MEDICAL CENTRE,-2.229023,52.276554
985.0299999999999,MAYFIELD MEDICAL CENTRE,-2.093284,52.583046
392.02,DR M GOYAL'S PRACTICE,0.156711,51.540066
1151.6199999999994,TOLLGATE MEDICAL CENTRE,0.056362,51.515573
730.0899999999998,WAKE GREEN SURGERY,-1.883357,52.446103
864.63,RAINHILL VILLAGE SURGERY,-2.763813,53.41631
373.25,NEW ISLINGTON MEDICAL CENTRE,-2.219472,53.4829
1314.09,CLARENDON MEDICAL CENTRE,-2.079951,53.45264
4.91,(FRACTURE CLINIC) NORTH OOH,-0.883829,52.236068
72.90999999999998,MERSEYCARE NHS TRUST - NMP,-2.933499,53.407265
1126.55,COLLEGE LANE SURGERY,-1.336292,53.644573
1011.9,THE ORCHARD MED PRACTICE,-1.231693,52.533972
3479.77,STANMORE MEDICAL GROUP,-0.204612,51.913274
637.0,KEATS GROUP PRACTICE,-0.17103,51.555534
1250.53,DOWNING STREET GROUP PRACTICE,-0.7989009999999998,51.212905
303.75,ASHBURTON PARK MEDICAL CENTRE,-0.064221,51.384147
235.88,NEATH HILL HEALTH CENTRE,-0.747321,52.060411
1545.58,BRINNINGTON SURGERY,-2.132367,53.427651
150.92000000000004,HALF PENNY STEPS HEALTH CENTRE,-0.206044,51.526213
4805.330000000001,CARLISLE HEALTHCARE,-2.930647,54.893714
890.97,THE GOLDEN BROOK PRACTICE,-1.272531,52.901553
1405.5000000000002,RUSKINGTON SURGERY,-0.400977,53.048226
2077.8099999999995,DUKE MEDICAL CENTRE,-1.455657,53.378576
637.08,THE TUDOR HOUSE MEDICAL CENTRE,-0.266689,51.564495
1213.6399999999996,LABURNUM HEALTH CENTRE,0.151208,51.560662
439.09,PRIMECARE PMS (SOUTH STREET),-0.012448,51.476194
374.11,THE GARDENS SURGERY,-0.066803,51.46061
644.9500000000002,NORDEN HOUSE SURGERY,-0.882727,51.944924
700.6199999999999,BREDON HILL SURGERY,-2.104857,52.030166
566.0599999999998,PHOENIX FAMILY CARE,-1.51543,52.390005
1202.64,CHURCH STREET PRACTICE,-0.459783,51.37345
485.25,LEYBOURNE SURGERY,-1.88721,50.758437
1616.3,PATFORD HOUSE PARTNERSHIP,-2.005519,51.437601
665.09,ESTOVER SURGERY,-4.0952,50.411271
933.06,NORTHGATE MEDICAL CENTRE,-2.892972,53.19509300000001
426.12,WESTLEIGH MEDICAL PRACTICE,-2.526024,53.510851
462.4100000000001,WINDMILL SURGERY,-1.48555,52.449933
522.57,ARNOS GROVE MEDICAL CENTR,-0.129838,51.615476
79.25999999999998,ST.QUINTIN HEALTH CENTRE,-0.220325,51.519199
383.44,PARK COMMUNITY PRACTICE,-1.871717,53.725678
0.8199999999999998,CHESTERFIELD HEALTH PROVIDER LTD,-1.43962,53.233943
249.38,MELROSE SURGERY,-1.287301,54.609397
770.48,LAKENHAM SURGERY,1.296577,52.6183
579.28,ISLAND HEALTH,-0.013513,51.495357
1005.35,STANFORD MEDICAL CENTRE,-0.148293,50.838378
1560.39,NEWINGTON ROAD SURGERY,1.399222,51.343459
899.52,THE WHITELEY SURGERY,-1.266072,50.88262
2174.2200000000007,THE ELMS PRACTICE,-0.976476,50.789794
512.01,CHILLINGTON HEALTH CENTRE,-3.693645,50.272623
272.26,AMBAR MEDICAL CENTRE,-1.991354,52.575093
837.9899999999997,RISEDALE SURGERY,-3.224778,54.109942
2327.9,BASLOW RD  SHOREHAM ST & YORK RD SRGIES,-1.531066,53.316325
986.1699999999998,MANOR DRIVE MEDICAL CENTRE,-0.24836599999999998,51.380785
8.15,NELFT SOUTH WEST ESSEX CS,0.496195,51.591456
2032.4100000000005,WIBSEY & QUEENSBURY MED P,-1.779715,53.767225
134.71,BROOK GREEN SURGERY,-0.218145,51.495291
381.39,DR MOHAMMED GREEN MAN MEDICAL CENTRE,0.015000999999999999,51.571506
560.63,NORK CLINIC,-0.215842,51.326429
711.6,QUEENHILL MEDICAL PRACTICE,-0.066791,51.34499
2660.74,THE BOSMERE MEDICAL PRACTICE,-0.990581,50.850232
815.1599999999999,THE LONG BUCKBY PRACTICE,-1.08255,52.30049
1000.89,GLOUCESTER CITY HEALTH CENTRE,-2.245328,51.860355
702.0,NORTHWAY MEDICAL CENTRE,-2.130997,52.54810500000001
1211.2200000000005,ASHBOURNE MEDICAL PRACTICE,-1.737589,53.012862
1584.6699999999994,BIRLEY HEALTH CENTRE,-1.396985,53.340317
1223.41,PARKFIELD MEDICAL CENTRE,-0.179588,51.695129
442.06,REDWOOD PRACTICE,-0.359614,51.461125
393.59,ABBEY COURT,0.26122,51.137755
1059.66,OPEN DOOR SURGERY,-0.155581,51.443166
623.15,BROSELEY MEDICAL PRACTICE,-2.481266,52.611554
669.6,BEECH TREE MEDICAL PRACTICE,-1.252936,52.377534
4.1,STORTHFIELD HOUSE,-1.332746,53.097559
1349.4699999999998,ROYSTON GROUP PRACTICE,-1.451018,53.600005
102.32,FULHAM CROSS MEDICAL CENTRE,-0.214067,51.482774
1057.52,BELMONT SURGERY,0.340829,51.061952
523.7900000000001,BANBURY ROAD MEDICAL CENTRE,-1.263535,51.774771
128.9,HILL TOP PRACTICE,-2.011775,52.537791
18.71,GREAT CHAPEL STREET MEDICAL CENTRE,-0.134097,51.51508
1505.1799999999996,WINTERTON MEDICAL PRACTICE,-0.606876,53.652511
529.1199999999999,THE OLD SCHOOL MEDICAL PRACTICE,-1.1424040000000002,53.916163
935.75,MEXBOROUGH HEALTH CENTRE,-1.279795,53.494237
33.4,UHMB COMMUNITY NMP,-2.799232,54.042726
1336.3199999999995,NORWOOD MEDICAL CENTRE,-3.222974,54.119201
466.61000000000007,PICTON MEDICAL CENTRE,-1.77624,53.807296
2140.09,ORCHARD MEDICAL PRACTICE,-1.206764,53.141121
562.49,THE VILLAGE SURGERY,-0.168135,51.648069
2525.28,ST. BARTHOLOMEWS SURGERY,0.051755,51.532409
5515.990000000002,THE WILLOW GROUP,-1.143034,50.800579
1097.14,PORT VIEW SURGERY,-4.214351,50.40735
1214.1999999999996,STANMORE HOUSE SURGERY,-2.231468,52.391138
3722.95,SOLIHULL HEALTHCARE PARTNERSHIP,-1.775235,52.419642
15.890000000000002,RICHARDSON COMMUNITY HOSPITAL,-1.9161529999999998,54.545708
9.5,BSUH DERMATOLOGY SERVICE,-0.115477,50.83046
1455.9,IVY GROVE SURGERY,-1.402822,53.042198
915.1899999999998,THE LINDEN MEDICAL GROUP,-1.273642,52.931099
484.51,BUTE HOUSE MEDICAL CENTRE,-0.423966,51.880162
734.9300000000003,GURU NANAK MEDICAL CENTRE,-0.387151,51.511774
359.19000000000005,SOUTH GREEN SURGERY,0.430504,51.613411
473.67999999999995,RICHMOND ROAD MEDICAL CENTRE,-0.065532,51.543051
1662.0,OLD SCHOOL SURGERY,0.100722,50.772062
827.6599999999999,LAMBTON ROAD MEDICAL PRACTICE,-0.231169,51.411219
2006.4,LORDSHILL HEALTH CENTRE,-1.448733,50.940999
1700.64,HOLES LANE MEDICAL CENTRE,-2.545107,53.399828
627.0099999999999,THE GILL MEDICAL PRACTICE,-2.398384,53.524288
218.91,PAK HEALTH CENTRE,-1.856091,52.490749
148.43,WALFORD STREET  TIVIDALE,-2.059752,52.513192
697.0500000000002,RUSHEY MEAD HEALTH CENTRE,-1.103823,52.663187
1583.13,BRAMHALL HEALTH CENTRE,-2.162929,53.36001
372.56000000000006,AYLESBURY SURGERY,-1.876053,52.542854
234.25000000000003,NEVILLE ROAD SURGERY,-0.443036,51.906419
547.81,THE PRACTICE BEAUMONT LEYS,-1.15392,52.662296
225.78,KINGSWAY SURGERY,-0.437208,51.517478
1725.4,BELLEGROVE SURGERY,0.09579,51.464561
1458.2799999999993,CHEAM GP CENTRE,-0.225239,51.368621
363.33,HANDSWORTH MEDICAL PRACT.,-1.941212,52.505377
394.87,BEARWOOD MEDICAL CENTRE,-1.97344,52.476903
240.66,BEEHIVE SURGERY,-2.419172,53.564161
892.0499999999998,THE CHEYLESMORE SURGERY,-1.503924,52.391324
1623.7799999999993,ST PETER'S SURGERY,-1.984855,52.594537
821.0699999999998,MANOR HEALTH CTR,-3.044493,53.421061
415.62,THE CROSSROADS SURGERY,-2.770123,53.417492
3.45,LAS S.E. LONDON IUC CAS,-0.10903099999999999,51.500174
1189.52,ADELAIDE STREET SURGERY,-3.048397,53.817351
203.93,CAVENDISH HEALTH CENTRE,-0.148092,51.519331
785.6300000000001,BROWNLOW GROUP PRACTICE,-2.96585,53.405021
1266.1799999999996,THE LAKES MEDICAL PRACTICE,-2.742581,54.656125
2572.55,OSMASTON SURGERY,-1.467954,52.911084
1693.9999999999993,HOLBEACH MEDICAL CENTRE,0.014430000000000002,52.804778
736.5799999999998,LAMBOURN SURGERY,-1.526933,51.504696
1403.2299999999998,KNOWLE HOUSE SURGERY,-4.134098,50.40863
450.89,VALE OF RED HORSE,-1.510351,52.15797
2140.15,BALSALL COMMON & MERIDEN GROUP PRACTICE,-1.643862,52.394956
1446.23,DINAS LANE MEDICAL CENTRE,-2.861513,53.417388
13.79,DORKING HEALTHCARE LLP,-0.333421,51.225985
18.35,DURNFORD DERMATOLOGY CATS,-2.197033,53.554038
653.6400000000001,GREAT BRIDGE HEALTH CENTRE,-2.02775,52.527792
35.12,NON MEDICAL PRESCRIBING SOUTHEND CCG,0.702782,51.583955
2052.98,ST ANN'S ROAD SURGERY,-0.08783399999999998,51.581428
12.239999999999998,TAURUS HEALTHCARE LTD,-2.71099,52.05708
287.5,CARTMEL SURGERY,-2.946985,54.199165
2139.78,MEADOWGREEN HEALTH CENTRE,-1.480804,53.326831
1257.36,CRUDDAS PARK SURGERY,-1.630965,54.968173
1171.44,HAWORTH MEDICAL PRACTICE,-1.954883,53.831322
204.65,WELBECK SURGERY,-1.147823,52.979645
1309.6699999999996,WICKHAM MARKET MEDICAL CENTRE,1.363674,52.151842
470.50000000000006,DR YADAVA N PRACTICE,0.334586,51.476703
1885.13,THORNHILLS MEDICAL PRACTICE,0.440958,51.300117
1525.7100000000007,BIDDULPH VALLEY SURGERY,-2.178498,53.116111
2370.9700000000007,STOCKTON HEATH MED.CENTRE,-2.582161,53.37195
1061.61,CHORLTON FAMILY PRACTICE,-2.279717,53.443773
325.7200000000001,DR R KAPUR & PARTNERS,-1.119092,52.631036
425.98,WESTBOURNE SURGERY,-1.8061,53.650937
395.41,DR WEBB AND PARTNERS,-1.308041,52.968251
582.46,SILVERDALE MEDICAL CENTRE,-1.090548,52.672318
1122.3100000000004,PARKBURY HOUSE SURGERY,-0.334063,51.756766
499.18,THORNTON & VALLEY PARK SURGERY,-0.120709,51.388871
839.8,MOORDOWN MEDICAL CENTRE,-1.874485,50.756212
1365.55,WOLVERTON HEALTH CENTRE,-0.814934,52.054197
196.31,GREET MEDICAL PRACTICE,-1.857778,52.453195
2114.3699999999994,THE PARK MEDICAL PRACTICE,-2.739045,53.77018
357.83,CROSSWAYS PRACTICE,-3.023992,53.484655
1600.33,CENTRAL SURGERY,-1.265473,52.371743
0.79,HMP BRISTOL,-2.591585,51.480902
412.0,BHF LUNDWOOD SURGERY,-1.438538,53.557711
1056.61,WOODLANDS PARK HEALTH CTR,-1.628825,55.04614
1196.6699999999996,MAYFORD HOUSE SURGERY,-1.446534,54.328376
836.3999999999999,HAVEN MEDICAL CENTRE,-1.416874,52.891498
1392.5400000000006,CASTLE HEALTHCARE PRACTICE,-1.144908,52.930476
358.75,IMEARY STREET PRACTICE,-1.424863,54.98753000000001
833.5900000000001,TRINITY & BOWTHORPE MEDICAL PRACTICE,1.280248,52.624411
208.02,WAKEMANS HILL SURGERY,-0.254209,51.587088
1290.07,HARROW ROAD GP CENTRE,0.012856,51.559538
2378.4800000000005,THE SWAN PRACTICE,-0.985664,52.001593
886.8199999999998,NESTON MEDICAL CENTRE,-3.064349,53.291818
1004.57,ST.MARY'S HEALTH CENTRE,-2.729589,53.747433
237.2,ASKAM SURGERY,-3.210918,54.183705
608.77,GRANGE PARK SURGERY,-1.7481080000000002,53.912695
1675.39,BEECHFIELD MEDICAL CENTRE,-0.145012,52.787253
931.82,GRIMETHORPE SURGERY,-1.378978,53.573614
594.0100000000001,HANWELL HEALTH CENTRE (NAISH),-0.334375,51.510263
1213.39,WEST ROAD SURGERY,0.70187,51.544989
549.81,PENN SURGERY,-2.145001,52.568567
228.93,SARAF MEDICAL PRACTICE,-2.076954,53.561455
510.62,DELL MEDICAL CENTRE,0.328114,51.480258
20.35,GATDOC OOH,-1.580781,54.93938000000001
390.99,THE TRINITY MEDICAL CENTRE,0.085815,51.478803
368.82000000000005,ASHVILLE SURGERY,-0.201145,51.476255
1.85,DR HANTSDOC N OOH,-1.109918,51.280633
5.76,HOLYWELL AT LANGLEY HOUSE HCT,-0.391206,51.683651
2.68,NEAS HAST CCG,-1.712365,54.969713
10.92,EN HERTS ACUTE IN-HOURS VISITING SERVICE,-0.191727,51.782567
1.64,PARTNERSHIP STOKE,-2.109085,52.810605
330.57,OAK GLEN SURGERY,-1.816352,53.854799
268.75,OAKWOOD SURGERY,-1.4290459999999998,52.941386
723.0499999999998,THE KAKOTY PRACTICE,-1.473444,53.5464
0.41,NEWCASTLE GP IN MOLINEUX WIC,-1.583491,54.977507
974.26,BURNGREAVE SURGERY,-1.459815,53.393327
3693.42,COLCHESTER MEDICAL PRACTICE,0.909325,51.890029
629.71,ESHER GREEN SURGERY,-0.370196,51.375782
1107.1400000000003,ASHFIELD MEDICAL CENTRE,-0.7382729999999998,52.019666
2705.66,TETTENHALL MEDICAL PRACTICE,-2.159502,52.600723
514.91,PENNY LANE SURGERY,-2.915004,53.389404
277.25,CORNERSTONE SURGERY,-2.457402,53.58815500000001
201.85,VICTORIA PARK HEALTH CENTRE,-1.1192,52.619071
461.06,OLD FORGE SURGERY,-2.079758,54.623041
752.2100000000002,VESPER ROAD,-1.615337,53.827318
481.2900000000001,GLADSTONE HOUSE SURGERY,-1.307927,52.968816
543.0799999999999,LANGSTONE WAY SURGERY,-0.210815,51.606981
370.78,ELMTREES SURGERY,-0.335968,51.550787
1454.78,SNODLAND MEDICAL PRACTICE,0.441488,51.326053
886.72,LEITH HILL PRACTICE,-0.322969,51.150452
405.35,MALTHOUSE MEADOWS SURGERY,-2.568038,50.668698
799.4799999999998,HARBURY SURGERY,-1.458027,52.236759
1412.09,QUEEN SQUARE MEDICAL PRACTICE,-2.800994,54.046219
527.99,MARUS BRIDGE PRACTICE,-2.643772,53.529393
40.46,HEALTH E1,-0.07152500000000002,51.518304
76.39000000000001,CAXTON HOUSE SURGERY,-1.382415,53.575347
1.22,OUT OF HOURS CENTRE,-1.842798,54.869081
3.53,ALEX CENTRE UNREGISTERED WIC,-0.369696,51.568372
870.01,WESTCOTES MEDICAL CENTRE,-1.153587,52.63133199999999
3.51,WEST MERTON ACCESS HUB,-0.210281,51.409967
12.43,SAFECARE NETWORK,-0.647232,53.568261
635.6399999999999,BUNBURY MEDICAL PRACTICE,-2.649377,53.116827
1251.85,CASTLETON HEALTH CENTRE,-2.18229,53.597034
2.02,SALFORD GP OUT OF HOURS,-2.323424,53.487545
43.51000000000001,NOTTINGHAM CITYCARE,-1.155769,52.951832
2.05,ASHTON PCC SEVEN DAY ACCESS OOH,-2.099981,53.485827
802.35,DR A CALOW'S PRACTICE,-2.503837,53.742584
1577.3199999999995,CHEADLE MEDICAL PRACTICE,-2.213539,53.393745
824.8399999999998,GREEN STREET GREEN MED CT,0.089996,51.354366
448.5,3/ST ANDREWS MEDICAL CENTRE,-2.339619,53.484875
206.13,BLACKFRIARS,-2.254244,53.484135
677.1699999999998,CALDBECK SURGERY,-3.050622,54.749864
1003.89,DR INGRAM & PTRS,-1.526892,54.136451
529.5500000000001,HOUNSFIELD SURGERY,-0.811033,53.183702
657.64,LENSFIELD MEDICAL PRACTICE,0.124449,52.198365
1025.22,CEDAR BROOK PRACTICE,-0.41413199999999994,51.534092
735.04,ROSE VILLA SURGERY,0.506616,51.566232
666.6700000000002,BOYATT WOOD SURGERY,-1.36001,50.977856
1639.5500000000006,RISING BROOK,-2.118782,52.787133
709.1900000000002,ST JAMES MEDICAL PRACTICE2,-2.097323,52.514234
254.81,LINGHOLME HEALTH CENTRE,-2.744752,53.457769
2440.13,PEEL HOUSE MEDICAL PRACTICE,-2.365995,53.75089200000001
1018.53,GRASMERE SURGERY,-2.511455,53.503236
4804.61,TELDOC,-2.435206,52.672614
58.15,GP EXTENDED ACCESS - HARROGATE,-1.529793,53.996354
1616.5700000000004,ST ANDREW'S MEDICAL PRACTICE,-1.598213,54.699634
1717.08,SPINNEY HILL MEDICAL CENTRE,-1.109212,52.637381
901.38,MARTLESHAM SURGERY,1.272068,52.061314
161.15,THE AVENUE SURGERY,-0.319031,51.518389
3500.64,ST.JAMES SURGERY,1.147433,51.787326
2016.78,SANDWICH MEDICAL PRACTICE,1.337364,51.274071
73.57,MODALITY ANN JONES FAMILY HEALTH CENTRE,-1.871333,52.462659
1016.78,CENTRAL SURGERY,-2.74261,53.456686
267.97,DALTON TM,-2.643772,53.529393
68.71,WIRRAL HEART SUPPORT,-3.026531,53.380029
710.4200000000002,BALDERTON SURGERY,-0.7864679999999998,53.052881
1053.8499999999997,NORTH ROAD SUITE RAVENSTHORPE HEALTH CTR,-1.661589,53.677829
1297.7199999999998,CASTLE MEAD MEDICAL CENTRE,-1.367743,52.541052
955.6400000000001,RISE PARK SURGERY,-1.174951,53.011477
1104.05,THE MEDICI MEDICAL PRACTICE,-0.418382,51.874494
681.4,ELLIS PRACTICE,-0.276552,51.563894
971.15,NEW ELTHAM AND BLACKFEN MEDICAL CENTRE,0.074199,51.434495
1962.28,THE GROVE MEDICAL CENTRE,-2.513702,50.953273
2312.75,THE HADLEIGH PRACTICE,-1.993525,50.761018
2323.7000000000007,THREE CHEQUERS MEDICAL PRACTICE,-1.794625,51.071924
402.82,CORNERSTONE SURGERY,-2.724149,53.454211
174.79,HIGHER HEYS SURGERY,-2.394094,53.740865
1656.63,DELAMERE MEDICAL PRACTICE,-2.307365,53.450887
555.29,OAK TREE HEALTH CENTRE,-1.2409629999999998,51.614986
509.86,THE TRINITY MEDICAL PRACTICE,0.760305,51.684982
1.12,BECKENHAM BEACON URGENT CARE CENTRE,-0.033209,51.405232
4.92,NORWICH IMPROVED ACCESS HUB,1.319958,52.632405
44.52,BRAMLEY COMMUNITY CARE BEDS,-1.623032,53.80781999999999
1484.7199999999998,BRIDGE VIEW MEDICAL GROUP,-1.401824,54.919455
1322.4299999999996,CAYTHORPE & ANCASTER MEDICAL PRACTICE,-0.536327,52.981851
146.21,BRAYFORD SQUARE SURGERY,-0.050404,51.514375
814.23,ELMDENE SURGERY,0.263153,51.446098
523.0500000000001,THAMES AVE SURGERY,0.603057,51.36344
224.48,TRAFALGAR SURGERY,-0.074414,51.485672
725.4199999999998,THE ORCHARD PRACTICE,-0.303542,51.369116
117.93,UNIVERSITY HEALTH SERVICE,-1.395714,50.934099
719.54,LINDEN MEDICAL CENTRE,-0.737415,51.530813
644.8500000000001,ST SAVIOURS SURGERY,-2.308488,52.130324
698.6800000000002,WEST HEATH SURGERY,-1.96202,52.401797
305.24,MOOR PARK MEDICAL PRACTICE,-1.7218490000000002,53.797834
2606.92,THE CENTRAL SURGERY BARTON,-0.439445,53.684236
871.6599999999999,MICKLEOVER MEDICAL CENTRE,-1.54633,52.907111
409.74999999999994,THE ELMS SURGERY,-0.404224,51.661642
1855.91,BUXTED MEDICAL CENTRE,0.132095,50.989406
1485.7700000000002,WEST END ROAD SURGERY,-1.359281,50.916702
1411.35,PINHOE SURGERY,-3.469622,50.737528
575.0199999999999,PRESCOTT SURGERY,-2.852689,52.784345
555.86,HEATON ROAD SURGERY,-1.579814,54.978269
425.25,HANCOCKS ME,-0.41296400000000005,53.782123
289.47,COLSTERWORTH SURGERY,-0.619356,52.806388
174.57999999999996,SOMERSET MEDICAL CENTRE,-0.371127,51.522244
2399.17,DOWNLANDS MEDICAL CENTRE,0.244085,50.822919
972.95,OTFORD MEDICAL PRACTICE,0.191446,51.31358
654.0500000000002,BURNEY STREET PMS,-0.009168,51.479034
3117.6800000000007,ROYAL CRESCENT SURGERY,-2.452679,50.616587
117.97,ABBEY MEDICAL CENTRE,-0.982406,51.453949
570.09,ST.BARTHOLOMEWS MEDICAL CENTRE,-1.232108,51.747668
1163.67,DR SN CLAY AND PARTNERS,-1.832005,52.528641
1154.63,WORDSLEY GREEN HEALTH CENTRE,-2.164692,52.480602
2.05,URGENT CARE,0.475497,50.850706
2078.74,SAFFRON HEALTH PARTNERSHIP,-0.264459,52.084232
725.5300000000002,GLADSTONE MEDICAL CENTRE,-0.24612,51.558731
359.30000000000007,ST MARTINS MEDICAL CENTRE,-0.424566,51.577646
654.47,ABRIDGE SURGERY,0.12458,51.653631
1005.82,WEAVER VALE PRACTICE,-2.696866,53.325561
1248.4899999999996,GLOVERS LANE SURGERY,-2.971961,53.488314
370.81,VILLAGE SURGERY,-0.255874,51.399503
371.82,DR KHALIQ,-1.799612,53.663276
517.66,NEWHOLME SURGERY,-2.74261,53.456686
0.41,CCCT 2,-2.019013,53.955694
4.1,FELIXSTOWE HOSPITAL,1.35594,51.963766
719.4400000000002,LUNESDALE SURGERY,-2.602213,54.200573
1264.2399999999998,SPILSBY SURGERY,0.098963,53.173049
464.99,BRIDGEWAY PRACTICE,-1.147343,52.943574
1766.62,LITTLE WALTHAM & GT NOTLEY SURGERY,0.477622,51.787396
738.25,DR KUMAR & PARTNER STUDFALL MEDICAL CTR,-0.704816,52.495882
2540.17,CASTLE PLACE PRACTICE,-3.492865,50.908884
1372.35,NUNWELL SURGERY,-2.507177,52.187931
1576.46,THREE SPIRES MEDICAL PRACTICE,-5.055864,50.259982
671.0,MYTTON OAK MEDICAL PRACT.,-2.797762,52.707667
1248.89,DR VSR CHADALAVADA,-2.139143,53.0416
109.65,KEYNELL COVERT,-1.911857,52.408441
7.64,STRELLEY HEALTH CENTRE (COCKRILL),-1.227726,52.973231
542.7499999999999,PHOENIX MEDICAL PRACTICE,0.48126899999999995,51.328805
147.52,KIRKHOLT MEDICAL PRACTICE,-2.162243,53.59832
669.99,DR AZIM & PARTNERS,-0.225729,51.579655
311.0,BHF HIGHGATE SURGERY,-1.378978,53.573614
1263.11,DOLPHIN HOUSE SURGERY,-0.029818,51.810791
308.26,THE CIVIC MEDICAL CENTRE,-0.337497,51.587155
1130.89,CHANCERY LANE SURGERY,-1.521755,52.536173
476.7,NECHELLS PRACTICE,-1.876618,52.493743
1274.38,THE LIMES MEDICAL CENTRE,-1.974677,52.58065500000001
117.38,PRINGLE STREET SURGERY,-2.467594,53.742039
1640.2200000000007,BROADWAY MEDICAL CENTRE,-3.033843,53.912667
192.43,EASTGATE SURGERY,-0.519836,51.886145
613.5199999999999,PHOENIX PRIMARY CARE (SOUTH) LTD,-0.441597,51.88973
3.28,PATIENT FIRST SOCIAL ENTERPRISE,0.006461,51.542096
30.16,CWP (WEST) PHYSICAL HEALTH,-2.897884,53.2088
2.46,NSC BOSWORTH HUB,-1.7536330000000002,52.480569
1219.9899999999998,THE NEW SPRINGWELLS PRACTICE,-0.340804,52.893623
0.29,SAME DAY HEALTH CNTRE COASTAL HEALTHCARE,-2.859565,54.072841
1.84,THE CONFEDERATION HILLINGDON CIC,-0.47790600000000005,51.547653
2.87,ARC,-3.002931,53.801771
1618.5299999999993,THE GARTH,-1.055444,54.532597
628.5700000000002,THE GABLES MEDICAL GROUP,-1.564429,55.140811
974.81,PRACTICE ONE,-0.201064,54.084715
1224.39,CHURCH STREET SURGERY,-1.583343,53.681523
