total_cost,name,longitude,latitude
542.54,GREEN PRACTICE,-0.371755,51.468263
565.16,THE ABBOTSBURY PRACTICE,-0.397406,51.579266
1448.9799999999998,NUFFIELD HOUSE HEALTH CENTRE,0.112828,51.774439
1223.4999999999998,MARTINS OAK SURGERY,0.483675,50.91716
430.4600000000001,THE GLEBE FAMILY PRACTICE,0.544473,51.383164
811.23,MALLING HEALTH BLUE SUITE,0.609995,51.363412
1165.6099999999994,KNOLL MEDICAL PRACTICE,0.101068,51.375411
671.16,CLIFTON RISE FAMILY PRACTICE,-0.03143300000000001,51.476334
316.86,BLACKFRIARS MEDICAL PRACTICE,-0.105775,51.505364
2154.13,HASLEMERE HEALTH CENTRE,-0.707586,51.092107
1211.4799999999998,FARNHAM DENE MEDICAL PRACTICE,-0.777405,51.200549
965.5100000000001,THE DORCHESTER RD SURGERY,-2.457512,50.625193
494.44999999999993,CRONDALL NEW SURGERY,-0.858386,51.237211
855.5799999999998,ST.JAMES SURGERY,-1.989956,51.352926
322.05,CORDWALLIS ROAD SURGERY,-0.7240259999999998,51.528097
1996.1900000000005,BOTLEY MEDICAL CENTRE,-1.299442,51.753753
608.22,ST. MARY'S SURGERY,-2.479869,51.326082
1194.8000000000004,QUEEN'S MEDICAL CENTRE,-4.057196,51.080161
2235.22,BRUNEL MEDICAL PRACTICE,-3.516948,50.479349
608.88,EXMOOR MEDICAL CENTRE,-3.544825,51.038507
346.67,CHADDESLEY SURGERY,-2.158038,52.361961
1341.16,THE MANOR PRACTICE,-1.8236169999999998,52.55816
408.93,CHARLES ROAD SURGERY,-1.850621,52.4722
982.22,DUNCAN STREET PRIMARY CARE PARTNERSHIP,-2.126602,52.57346999999999
684.1000000000001,DR JUDE'S PRACTICE - RIVERSIDE,-2.943016,53.398876
771.3199999999998,WESTOVER SURGERY,-5.07501,50.148927
186.2,LANGTHORNE SHARMA FAMILY PRACTICE,0.0021,51.555415
356.0400000000001,THE MANOR PARK PRACTICE,0.057339,51.55393
1079.36,WEST MEADS SURGERY,-0.701481,50.788299
526.53,TRENTHAM MEWS MEDICAL CENTRE,-2.189898,52.970452
462.3,WILLESDEN GREEN SURGERY,-0.216091,51.553773
276.83,THE SUMMITT PRACTICE,0.04536,51.539588
6.640000000000001,SELDOC HEALTHCARE,-0.283378,51.412517
2.89,PRUH URGENT CARE CENTRE,0.059146,51.366243
1.32,PBORO WEEKEND HOURS GP PILOT,-0.279386,52.583921
6.17,WIDNES GP EXTRA SERVICE,-2.735705,53.362158
596.64,DR THORNILEY-WALKER & PARTNERS,-1.460703,54.949762
428.42999999999995,DR U AKBAR,-1.777945,53.803569
1711.7199999999998,BROOKROYD HOUSE,-1.67818,53.707224
812.84,AIREBOROUGH FAMILY PRACTICE,-1.684881,53.866663
1501.2400000000002,BUSHLOE SURGERY,-1.116921,52.583283
1835.89,THE BURBAGE SURGERY,-1.361645,52.53009599999999
292.3,PASLEY ROAD HEALTH CENTRE (TK KHONG),-1.146741,52.591287
1907.46,NETTLEHAM MEDICAL PRACTICE,-0.476253,53.262865
316.0400000000001,HAROLD STREET MEDICAL CENTRE,-1.492871,53.393121
1055.6,LEISTON SURGERY,1.575953,52.207708
601.9100000000002,HEATHFIELDE MEDICAL CENTRE,-0.179797,51.585238
749.6699999999998,BRENTFIELD MEDICAL CENTRE,-0.260251,51.550588
750.3400000000001,DR NAVIN KUMAR,0.70187,51.544989
363.73,RUSTON STREET CLINIC,-0.027306,51.536264
1062.28,SCHOOL HILL MEDICAL PRACTICE,0.012064,50.873469
1459.13,MOTE,0.545625,51.246876
1706.76,SHEPPERTON MEDICAL PRACTICE,-0.453153,51.396402
2453.92,GRAYSHOTT SURGERY,-0.745626,51.110093
1359.03,THE MANOR PRACTICE,-0.234983,50.835138
574.53,HAMPTON HILL MEDICAL CENTRE,-0.354892,51.427508
209.47000000000003,CLAPHAM JUNCTION MEDICAL PRACTICE,-0.173908,51.465969
407.44999999999993,OLD SCHOOL HOUSE SURGERY,-1.604408,51.376032
1277.8199999999995,WINSCOMBE SURGERY,-2.830537,51.315196
3509.2499999999995,PEMBROKE MEDICAL GROUP,-3.560246,50.445527
3.31,ST PETER'S URGENT TREATMENT CENTRE,-0.52706,51.377832
436.73,PRIORY ROAD SURGERY,0.589253,50.860828
1844.49,SWANSCOMBE HEALTH CENTRE,0.28731,51.424657
515.37,ELTHAM PARK SURGERY,0.061023,51.4547
883.32,JAMES O'RIORDAN MEDICAL CENTRE,-0.212686,51.385157
2645.21,WISTARIA & MILFORD SURGERIES,-1.547285,50.760041
234.69000000000003,27 BEAUMONT STREET,-1.26216,51.755081
662.17,WIDCOMBE SURGERY,-2.354321,51.376371
40.40000000000001,ST LUKES MEDICAL CENTRE,-3.517636,50.394313
759.83,FRITHWOOD SURGERY,-2.162379,51.729707
1158.0499999999995,HILLVIEW MEDICAL CENTRE,-1.951153,52.305568
866.0700000000002,GORDON STREET SURGERY,-1.644613,52.810998
778.64,LONGTON MEDICAL CENTRE,-2.770123,53.417492
1025.85,PRIMROSE SURGERY,-2.357311,53.456159
646.42,DR AHMAD & PTNRS,-2.595925,53.522279
309.57000000000005,THE OLD DAIRY HEALTH CENTRE,-0.091201,51.436586
1326.9499999999996,THE ISLAND SURGERY,0.591014,51.520226
707.43,JS MEDICAL PRACTICE,-0.078706,51.589103
878.3,GATEWAY PRIMARY CARE,-1.352431,53.429997
367.02,ESSINGTON MEDICAL CENTRE,-2.056915,52.63194
18.58,SUMMERFIELD GP SURG & URGENT CARE CENTRE,-1.937353,52.487686
39.16,HAVERING CCG,0.179796,51.579247
534.3499999999999,THE WILLASTON SURGERY,-3.011643,53.292908
3.95,SOUTH KENT GROUP,1.118942,51.075872
3.77,SUTTON COMMUNITY SERVICES,-0.183642,51.380313
19.52,WHITTINGTON HEALTH (ISLINGTON),-0.139066,51.566482
5.61,URGENT CARE CENTRE NORTHWICK PARK HOSP,-0.322037,51.575407
1.23,SLEAFORD EXTENDED ACCESS K2,-0.406507,52.997784
886.81,STONELEIGH SURGERY,-2.770704,54.227277
384.44000000000005,BROWNEY HOUSE SURGERY,-1.670679,54.800313
1428.0400000000004,TOWNHEAD SURGERY,-2.276903,54.070534
246.35,HORNE STREET SURGERY,-1.871717,53.725678
927.12,HONLEY SURGERY,-1.791936,53.602386
1231.8399999999995,GOSBERTON MEDICAL CENTRE,-0.159263,52.869915
1121.0600000000004,THE MANOR SURGERY,-1.216371,52.925036
709.05,PROSPECT MEDICAL PRACTICE,1.285656,52.643921
1031.55,THE GARDEN CITY PRACTICE,-0.209287,51.797151
412.78,MAPESBURY MEDICAL GROUP,-0.209473,51.551496
1129.9799999999998,RIVERMEAD GATE MED.CTR.,0.472887,51.740849
399.19,ROMAN WAY MEDICAL CENTRE,-0.10550599999999999,51.544561
345.19,CHOLMLEY GARDENS SURGERY,-0.195423,51.552261
1089.1800000000003,ESSEX LODGE,0.026685000000000004,51.527915
1273.6699999999996,GROVELANDS MEDICAL CENTRE,-0.112028,51.620685
2201.02,HIGH GLADES MEDICAL CENTRE,0.551301,50.878354
830.4000000000002,ST JAMES' SURGERY,1.315702,51.128516
590.1,OXSHOTT MEDICAL PRACTICE,-0.360843,51.333099
850.8300000000002,BRIDGE MEDICAL CENTRE,-0.166439,51.117364
564.23,LAVENDER HILL GROUP PRACTICE,-0.15683,51.466044
1068.69,THE CRANBORNE PRACTICE,-1.9192779999999998,50.919773
1200.87,ST.MARY'S SURGERY,-1.397475,50.905746
999.51,NEW FOREST MEDICAL GROUP,-1.576665,50.81471
690.06,SWALLOWFIELD MEDICAL PRACTICE,-0.958531,51.378289
805.76,CHERRYMEAD SURGERY,-0.700228,51.608271
1902.81,HORFIELD HC,-2.576275,51.489998
646.87,CARNON DOWNS SURGERY,-5.091905,50.22345
822.7999999999998,WHITE HOUSE SURGERY,-1.705957,51.983554
1010.23,SPRINGMEAD SURGERY  CHARD,-2.967972,50.869562
1190.5700000000004,CHURCH STRETTON MEDICAL CENTRE,-2.806169,52.537286
1113.77,DR KS UPTON'S PRACTICE,-1.986582,52.988358
1132.05,KINGSWAY MEDICAL CENTRE,-1.289009,54.606459
743.8,WARWICK ROAD SURGERY,-2.928541,54.893858
445.21,PRUDHOE MEDICAL GROUP,-1.853822,54.96186
844.08,TALBOT MEDICAL CENTRE,-1.440661,54.973054
1272.6799999999996,NOVA SCOTIA MEDICAL CNTR,-1.373051,53.747561
950.0399999999997,ARTHUR MEDICAL CENTRE,-1.422636,53.001503
839.89,WOODVILLE SURGERY,-1.5365030000000002,52.770685
1611.48,NEWBOLD VERDON MED.PRACT.,-1.34334,52.634612
921.38,PORTLAND MEDICAL PRACTICE,-0.539074,53.22371999999999
1677.49,TORKARD HILL MEDICAL CTRE,-1.207389,53.029901
715.86,BAKERSFIELD MEDICAL CENTRE,-1.104957,52.960219
651.6400000000001,HIGH STREET PRACTICE,-1.458313,53.597926
1210.89,VILLAGE SURGERY,-1.251934,53.39421
252.18,ALLENBY CLINIC,-0.376261,51.531514
2397.9500000000007,DR PUZEY DR KOTHARI AND DR NANDA,0.705992,51.582107
833.1399999999999,DR BAKER & PARTNERS,0.548167,51.570733
331.35,INGREBOURNE MEDICAL CENTRE,0.210579,51.600308
771.4899999999999,THE ORDNANCE UNITY CENTRE FOR HEALTH,-0.039073,51.672653
389.27,CROUCH HALL ROAD SURGERY,-0.127301,51.579178
1616.86,CENTRAL SURGERY,-0.299929,51.390825
1856.52,ST PAUL'S SURGERY,-1.32139,51.065963
1034.81,SHEET STREET SURGERY,-0.605507,51.479648
1892.8,HEDENA HEALTH,-1.204547,51.76203
779.73,BLOXHAM SURGERY,-1.372977,52.018108
825.0000000000001,KINGTON MEDICAL PRACTICE,-3.022556,52.199361
793.04,GREENFORD ROAD MED.CTR.,-0.345702,51.537697
667.1600000000002,THE OAKLAND MEDICAL CENTRE,-0.45129300000000006,51.546055
326.91,QUEENS WALK MEDICAL CENTRE,-0.393155,51.562716
416.3,THE ABINGDON HEALTH CENTRE,-0.197138,51.496085
867.2699999999999,THE ARDLEIGH SURGERY,0.985096,51.927073
1325.6699999999996,ADDISON HOUSE - HAQUE PRACTICE,0.088979,51.770891
757.0299999999999,ST PETER'S STREET MEDICAL PRACTICE,-0.100772,51.535597
221.91000000000003,ABERFELDY PRACTICE,-0.004927,51.514483
2073.6500000000005,STONE CROSS SURGERY,0.289944,50.816757
510.11,ELTHAM PALACE PMS,0.053714,51.449946
771.9,BROCKBANK (PARK ROAD),-0.334596,51.423912
1237.66,CHAWTON PARK SURGERY,-0.989411,51.139814
998.07,STOKENCHURCH MEDICAL CTRE,-0.904033,51.660479
877.9600000000002,MARSHALLS ROAD SURGERY,-0.539225,52.344743
350.77,HOLLINSWOOD SURGERY,-2.437453,52.673936
531.08,ABBOTS BROMLEY SURGERY,-1.880966,52.819974
2508.7,DARWIN MEDICAL CENTRE,-1.831505,52.694061
1466.2,THE OAKS MEDICAL CENTRE,-1.895827,52.552454
924.43,VICTORIA ROAD MEDICAL CTR,-1.887197,52.501868
1359.4399999999996,ST JOHN'S MEDICAL CENTRE,-1.932532,52.626307
542.15,NEWBRIDGE SURGERY,-2.155299,52.5936
1628.0699999999995,THE CORNERSTONE PRACTICE,-2.4524,53.739201
555.49,TOWNSIDE SURGERY,-2.29898,53.59031
478.82000000000005,GOODMAYES MEDICAL CENTRE,0.10990599999999999,51.567626
230.04,PARK GRANGE MEDICAL CENTRE,-1.775929,53.789415
231.54,ST.GEORGES MEDICAL CENTRE,-0.24612,51.558731
649.23,HETHERINGTON AT THE PAVILION,-0.116397,51.461633
541.46,OAKWOOD MEDICAL CENTRE,-0.134269,51.646534
957.55,SOUTH HERMITAGE SURGERY,-2.752497,52.699728
2.46,PCEC,-2.227711,53.462436
10.66,DCHS DERBY CITY,-1.441882,53.221288
501.23,REDBURN PARK MEDICAL CENTRE,-1.474775,55.00092
358.50000000000006,CASTLETOWN MEDICAL CENTRE,-1.450848,54.913341
447.7000000000001,ALDBROUGH ST JOHN SURGERY,-1.684645,54.496518
274.61,EAST PARADE MEDICAL PRACTICE,-1.061835,53.965993
448.50000000000006,BARKEREND HC - EL ELIWI,-1.7218490000000002,53.797834
2639.93,SHAFTESBURY MEDICAL CTR.,-1.497858,53.800234
1017.73,GROBY ROAD MEDICAL CENTRE (ID PATCHETT),-1.150468,52.644337
641.98,ROSEMEAD DRIVE SURGERY,-1.083088,52.5934
95.39,AR-RAZI MEDICAL CENTRE,-1.101204,52.623926
673.9100000000002,BRANSTON & HEIGHINGTON FAMILY PRACTICE,-0.467988,53.195831
1589.05,FOUNTAIN MEDICAL CENTRE,-0.8043829999999998,53.07286
724.9,OAKENHALL MEDICAL PRACT,-1.199437,53.03661700000001
1461.73,SCAWSBY HEALTH CENTRE PRACTICE,-1.167843,53.53678299999999
2492.2,ST. GEORGE'S MEDICAL CENTRE,0.298817,52.458085
714.01,LAWNS PRACTICE,1.109092,52.378889
1371.93,CENTRAL SURGERY,0.147747,51.812546
709.8100000000002,CHURCH END MEDICAL CENTRE,-0.253241,51.54757
892.2700000000002,BRENTFORD GROUP PRACTICE,-0.310054,51.48676
800.27,THE DEVONSHIRE LODGE PRACTICE,-0.397406,51.579266
253.12000000000003,THE HOXTON SURGERY,-0.086829,51.533527
554.93,LL MEDICAL CARE LTD,0.0021,51.555415
2423.83,JUBILEE MEDICAL CENTRE,0.300332,51.3978
1192.14,LAMBETH WALK GROUP PRACTICE,-0.11259100000000001,51.495609
524.5999999999999,STANWELL ROAD SURGERY,-0.470567,51.438013
4170.14,THE ADAM PRACTICE,-2.07822,50.757881
888.51,SOUTHMEAD SURGERY,-0.616953,51.552538
414.82000000000005,CLIFTON HAMPDEN SURGERY,-1.211451,51.658625
734.01,GROOMBRIDGE AND HARTFIELD MED GRP,0.184416,51.113952
1230.65,POND TAIL SURGERY,-0.066728,51.246436
1216.53,THE WALL HOUSE SURGERY,-0.208192,51.241304
288.0200000000001,THE HALING PARK PARTNERSHIP,-0.098109,51.357113
1089.69,THE PRINCE OF WALES SURGERY,-2.457579,50.713502
1456.38,BRANKSOMEWOOD H/CARE CTR,-0.8448069999999998,51.281888
416.64,THE GROVE SURGERY,-0.735114,52.023651
1220.37,PROBUS SURGERY,-4.948542,50.290121
2145.98,ABBEY SURGERY,-4.150401,50.546904
1158.9699999999998,WHITEACRES MEDICAL CENTRE,-2.300547,52.124716
548.49,WOODSIDE MEDICAL PRACTICE,-2.466175,52.637949
1072.39,LYME VALLEY MEDICAL CENTRE,-2.22375,53.006305
680.55,AUDLEM MEDICAL PRACTICE,-2.508717,52.989615
585.4400000000002,KENNETH MACRAE MED CENTRE,-2.786435,53.49903
1393.77,BODEY MEDICAL CENTRE,-2.214798,53.440636
1213.55,WOODLANDS MEDICAL PRACTICE,-2.31213,53.406624
261.49,DR PAL,-2.595495,53.47988
560.8800000000001,BATH ROAD SURGERY,-0.37684,51.469395
534.1600000000001,CHAPEL ROW SURGERY,-1.17086,51.425877
184.53000000000003,WOODLANDS MEDICAL PRACTICE,-0.170943,51.592914
31.77,NORTH LINCOLNSHIRE OOH,-0.667599,53.587582
2.05,EPUT COMMUNITY CARDIOLOGY,0.12393,51.704295
30.53,SOUTH YORK HEART FAILURE NURSES,-1.082907,53.951837
1.77,NCH&C COMMUNITY NURSES (WEST),0.410147,52.749129
3.8,HEALTHBRIDGE DIRECT,0.020102,51.608432
3.79,TAMESIDE & GLOSSOP IC NHS FT,-2.071433,53.49153
1.64,EXTENDED HOURS SERVICE-ONE LIFE,-1.214164,54.682342
592.2000000000002,CRAMLINGTON MEDICAL GROUP,-1.591516,55.084481
1378.23,KINGSTON MEDICAL GROUP,-0.349365,53.756137
442.9,WESTFIELD MEDICAL CENTRE,-1.531703,53.817673
916.33,VERNON STREET MEDICAL CTR,-1.49039,52.924019
810.3599999999999,STUBLEY MEDICAL CENTRE,-1.488541,53.304986
2275.35,BRIDGE COTTAGE SURGERY,-0.215995,51.830002
995.42,GRANGE STREET SURGERY,-0.335878,51.757298
557.99,CHICHELE ROAD SURGERY,-0.216241,51.55483
491.09,SHIRLAND ROAD MEDICAL CENTRE,-0.203904,51.5292
1254.11,DR KRISHNAN & PTNR - KENT ELMS HC,0.664114,51.563831
435.25,CRANHAM HEALTH CENTRE,0.265291,51.568865
569.3000000000002,ST PETER'S SURGERY,1.41893,51.362936
679.21,LEWISHAM MEDICAL CENTRE,0.004522,51.458513
465.4500000000001,STEWKLEY ROAD SURGERY,-0.71666,51.898041
214.95000000000005,SIBFORD SURGERY,-1.479244,52.037614
1986.1,NEW COURT SURGERY,-2.958059,51.345794
2394.390000000001,AXMINSTER MEDICAL PRACTICE,-2.999226,50.780899
2447.28,COLERIDGE MEDICAL CENTRE,-3.2835660000000004,50.751704
1306.77,LYDNEY PRACTICE,-2.529867,51.727913
1362.71,PRICES MILL SURGERY,-2.224938,51.693801
1689.5600000000004,ST. JOHNS SURGERY,-2.059728,52.337612
1254.53,THE ALDERGATE MED.PRACT.,-1.695644,52.639079
1563.9399999999994,YARDLEY WOOD HEALTH CENTRE,-1.859168,52.418648
928.5199999999999,MONTAGUE MEDICAL PRACTICE,-0.872899,53.707031
1803.14,EASTGATE MEDICAL GROUP,-1.462815,54.006795
716.81,HORTON BANK PRACTICE,-1.806018,53.774478
1248.4599999999996,MARSH MEDICAL PRACTICE,0.143689,53.445069
1751.08,HUDDERSFIELD ROAD SURGERY,-1.485631,53.558165
2933.9500000000007,SWALLOWNEST HEALTH CENTRE,-1.317097,53.362997
2015.15,SHERINGHAM MEDICAL PRACTICE,1.214777,52.939688
1525.6499999999994,KNEBWORTH & MARYMEAD MEDICAL PRACTICE,-0.184972,51.866323
312.94000000000005,THE HODFORD ROAD PRACTICE,-0.199318,51.569038
919.49,HAZELDENE MEDICAL CENTRE,-0.275394,51.547592
416.86,CLOISTER ROAD SURGERY,-0.265589,51.521352
756.17,ABBEY ROAD MEDICAL PRACTICE,0.005881,51.534784
303.94,BOUNDARY HOUSE SURGERY,-0.054245,51.632475
1488.82,MANOR PARK MEDICAL CENTRE,0.24261,50.819107
1321.5300000000002,CHURCH LANE HEALTH CENTRE,0.941162,50.984187
2531.8,BETHESDA MEDICAL CENTRE,1.414787,51.390277
819.8199999999998,WOODLANDS SURGERY,0.088913,51.439755
1355.6900000000005,LILLIPUT SURGERY,-1.954229,50.711523
2496.17,WESTBURY GROUP PRACTICE,-2.203558,51.252792
1459.27,PENRYN SURGERY,-5.10336,50.167504
759.67,CROWN MEDICAL CENTRE,-3.080969,51.029111
1882.23,BARN CLOSE SURGERY,-1.859248,52.03627
332.86999999999995,HIGHLEY MEDICAL CENTRE,-2.392978,52.456165
325.06,ALVELEY MEDICAL PRACTICE,-2.353309,52.454738
479.9099999999999,WOLSTON SURGERY,-1.392727,52.376806
691.0500000000002,BALLIOL ROAD SURGERY,-1.471449,52.415924
477.48,NEWTON MEDICAL CENTRE,-2.638386,53.457172
782.1100000000001,GREASBY GROUP PRACTICE,-3.121417,53.377628
572.0899999999998,LOSTOCK HALL MEDICAL CTR.,-2.688037,53.727502
559.76,KNOWSLEY MEDICAL CENTRE,-2.300551,53.588497
444.5399999999999,TIMPERLEY HEALTH CENTRE (WESTWOOD),-2.323566,53.397228
47.38,ST JOSEPH'S HOSPICE  HACKNEY,-0.056255,51.537053
3.94,SUMMERFIELD URGENT CARE CENTRE WIC,-1.937353,52.487686
628.71,PENINSULA MEDICAL PRACTICE,-2.915665,54.18795600000001
629.06,ROSEWORTH SURGERY,-1.61867,55.001366
1884.11,SEVERN FIELDS MEDICAL PRACTICE,-2.721619,52.728047
726.4099999999999,SELLY OAK HEALTH CENTRE,-1.939144,52.438251
2050.8,PEELHOUSE MEDICAL PLAZA,-2.72256,53.372135
1033.1799999999996,CUMBERLAND HOUSE SURGERY,-2.990437,53.638743
852.0,LANE ENDS SURGERY,-2.727014,53.770173
298.83,HOLLINS GROVE SURGERY,-2.477472,53.705346
664.4200000000002,WHITTAKER LANE MED CENTRE,-2.268645,53.528488
1023.12,WEST GORTON MEDICAL PRACTICE,-2.203859,53.46720500000001
244.64,OLDHAM FAMILY PRACTICE,-2.116945,53.543824
574.99,SHAY LANE MEDICAL CENTRE (PATEL),-2.31556,53.372189
25.8,AT HOME SERVICE,-0.10603,51.438104
35.8,NMP CASTLE POINT AND ROCHFORD CCG,0.702782,51.583955
8.92,GP HUBS - GP HEALTH PARTNERS LTD,-0.266331,51.334184
0.41,SALFORD ACUTE HOME VISITING SERVICE,-2.33763,53.484827
4.1,NORTH COTSWOLDS IMPROVED ACCESS,-2.239997,51.862659
2277.94,BIRTLEY MEDICAL GROUP,-1.576441,54.891881
1121.03,THE LEEDS ROAD PRACTICE,-1.535156,53.980466
719.73,APOLLO COURT MEDICAL CENTRE,-1.524816,53.542364
920.92,THE LAKESIDE PRACTICE,-1.148909,53.61549599999999
763.65,FOXHILL MEDICAL CENTRE,-1.501327,53.429911
284.92999999999995,WESTWOOD CLINIC,-0.269054,52.591395
815.87,THEOBALD MEDICAL CENTRE,-0.285584,51.661381
849.0,SUDBURY & ALPERTON MEDICAL CENTRE,-0.298046,51.536916
92.39,THE SURGERY,-0.184519,51.497627
1682.76,CHURCHILL MEDICAL CENTRE,-0.018466,51.618226
1465.0700000000004,THE CHESTERFIELD DRIVE PRACTICE,1.132012,52.07623
1092.4200000000003,COMBS FORD SURGERY,0.995999,52.180181
568.3699999999999,CAULDWELL MEDICAL CENTRE,-0.472495,52.128265
1163.39,PRIORY MEDICAL CENTRE,-0.50567,52.167181
887.88,HILLVIEW SURGERY,-0.318331,51.540536
248.31,DR HAFFIZ,-0.119262,51.539321
499.4200000000001,SANDRINGHAM PRACTICE,-0.067207,51.547773
129.11,ESK ROAD MEDICAL CENTRE,0.024266,51.522454
324.88000000000005,MONTPELIER SURGERY,-0.149079,50.827148
638.74,THE AVENUE SURGERY,-0.113425,50.844357
2512.67,REACH HEALTHCARE,0.52408,51.337756
807.13,SELLINDGE SURGERY,1.002785,51.103536
1449.61,LAKESIDE MEDICAL,0.122454,51.496518
1625.0600000000004,CAMBERLEY HEALTH CENTRE,-0.754069,51.324435
1980.29,HARBOUR VIEW HEALTHCARE,-0.27437,50.833817
1186.6600000000005,NEW POND ROW SURGERY,-0.322292,50.824911
443.4200000000001,FLOOD (ESSEX HOUSE),-0.247469,51.472541
1856.46,WILSON PRACTICE,-0.966958,51.153736
522.72,WOLLASTON AND BOZEAT SURGERIES,-0.674311,52.252471
1358.9499999999996,LEAP VALLEY MEDICAL CENTRE,-2.487852,51.496541
1224.7899999999995,KINGSTEIGNTON MEDICAL PRACTICE,-3.597395,50.54898
685.24,ST.LEVAN SURGERY,-4.177328,50.383921
2286.249999999999,STIRCHLEY MEDICAL PRACTICE,-2.433777,52.655188
1223.09,LUDLOW - PORTCULLIS,-2.715958,52.368905
907.11,BARTON,-1.725223,52.761751
765.2700000000002,RED LION SURGERY,-2.030614,52.693241
165.78000000000003,DADHANIA SURGERY,-1.491047,52.405815
404.22,ST JAMES MEDICAL PRACTICE1,-2.097323,52.514234
159.35000000000005,HAWTHORNS MEDICAL CENTRE,-1.967268,52.501507
208.79,BROWNLOW AT MARYBONE,-2.987806,53.411269
692.07,MORETON MEDICAL CENTRE,-3.110005,53.39886
476.7200000000001,LITTLE LEVER HEALTH CENTRE 1,-2.370624,53.55981800000001
352.04,WOODBANK SURGERY,-2.308802,53.60507
664.71,DRS HANIF &  BANNURU,-2.184157,53.484308
143.96,4/LOWER BROUGHTON MEDICAL PRACTICE,-2.258808,53.49359
1545.58,BRINNINGTON SURGERY,-2.132367,53.427651
917.0799999999998,CONWAY ROAD MEDICAL PRACTICE,-2.303561,53.417873
460.83,DESFORD MEDICAL CENTRE,-1.296116,52.627473
149.82999999999996,DR VIJE'S SURGERY,-1.650877,52.617569
116.48,HIGHFIELD HEALTH,-1.395746,50.932777
15.71,ALICE HOUSE HOSPICE,-1.224421,54.704049
197.43,DR R SHARMA'S PRACTICE,-0.096482,51.499125
150.92000000000004,HALF PENNY STEPS HEALTH CENTRE,-0.206044,51.526213
2260.95,NORTON MEDICAL CENTRE,-1.308737,54.588737
4805.330000000001,CARLISLE HEALTHCARE,-2.930647,54.893714
198.37000000000003,PEEL PARK SURGERY,-1.731903,53.806791
1042.57,MAYBUSH MEDICAL CENTRE,-1.489249,53.670273
890.9700000000001,THE GOLDEN BROOK PRACTICE,-1.272531,52.901553
1211.2599999999998,IBSTOCK HOUSE SURGERY,-1.401818,52.684869
1405.5,RUSKINGTON SURGERY,-0.400977,53.048226
1397.14,BARNBY GATE SURGERY,-0.8049699999999999,53.074931
2077.81,DUKE MEDICAL CENTRE,-1.455657,53.378576
472.88000000000005,FALKLAND HOUSE SURGERY,-1.514423,53.359728
1621.9299999999996,PRIORY FIELDS SURGERY,-0.179856,52.332272
503.13000000000005,BOURN SURGERY,-0.063404,52.193155
570.62,COACHMANS MEDICAL PRACTICE,-0.203875,51.096335
656.3400000000001,MILTON KEYNES VILLAGE SURG,-0.697865,52.043891
636.58,DRS DE ROSA & WILLIAMS,-2.167857,52.569265
1.08,GPSI PALLIATIVE CARE,-3.007792,53.502483
5.739999999999999,COMMUNITY CARDIOLOGY SERVICE,0.15356,51.455555
20.98,INTERMEDIATE CARE-GP SERVICE,-2.130253,53.548188
54.52,BASSETLAW HEALTH PARTNERSHIP,-0.950634,53.325451
1716.0499999999995,FIELDHOUSE MEDICAL GROUP,-0.112579,53.564436
1478.0700000000006,HEREWARD MEDICAL CENTRE,-0.380913,52.768626
848.56,SAXON CROSS SURGERY,-1.273642,52.931099
2693.4700000000007,PENISTONE GROUP PMS PRACTICE,-1.630732,53.523565
514.1099999999999,THE NAYAR PRACTICE,-1.1933790000000002,53.480824
537.64,DR RAOLU'S PRACTICE,-1.204348,53.423549
1048.78,THE PARK SURGERY,1.7292759999999998,52.606218
1717.7099999999996,EAST BARNET HEALTH CENTRE,-0.166424,51.646339
482.45,LANFRANC MEDICAL CENTRE,-0.332746,51.561586
637.0799999999998,THE TUDOR HOUSE MEDICAL CENTRE,-0.266689,51.564495
1213.64,LABURNUM HEALTH CENTRE,0.151208,51.560662
179.61999999999995,NEW NORTH HEALTH CENTRE,-0.091592,51.537534
1323.61,HOVE MEDICAL CENTRE,-0.19539,50.845024
439.09,PRIMECARE PMS (SOUTH STREET),-0.012448,51.476194
374.11,THE GARDENS SURGERY,-0.066803,51.46061
925.86,FORT HOUSE SURGERY,-0.412578,51.37881
1673.36,OXTED HEALTH CENTRE,9.9e-05,51.257686
1239.39,THE WRYTHE GREEN SURGERY,-0.171312,51.371749
581.39,THE LAWN MEDICAL CENTRE,-1.7619029999999998,51.547821
644.9500000000002,NORDEN HOUSE SURGERY,-0.882727,51.944924
226.45,ST MARY'S HEALTH CENTRE,-6.308668,49.911605
1773.9800000000002,TOPSHAM SURGERY,-3.462097,50.683825
1467.64,BAMPTON SURGERY,-1.55034,51.729032
1501.44,WOODLANDS MEDICAL CENTRE,-1.258898,51.603637
2066.05,PETROC GROUP PRACTICE,-4.943163,50.430739
1545.3,TAVYSIDE HEALTH CENTRE,-4.145976,50.545824
1944.69,EAST QUAY MEDICAL CENTRE,-3.000471,51.135669
700.62,BREDON HILL SURGERY,-2.104857,52.030166
939.3900000000001,HAGLEY SURGERY,-2.144103,52.420783
417.73,KNOCKIN MEDICAL CENTRE,-2.993042,52.79343
113.82,YARDLEY MEDICAL CENTRE,-1.828397,52.463189
566.0600000000002,PHOENIX FAMILY CARE,-1.51543,52.390005
2782.19,ASHTON MEDICAL GROUP,-2.089184,53.489361
1135.9299999999996,BRADSHAW MEDICAL CENTRE,-2.688594,53.537889
107.98,SAVILE TOWN MEDICAL CTR.,-1.625804,53.68222900000001
101.46,LIMEFIELD ROAD MEDICAL PRACTICE,-2.26047,53.506995
724.71,THE ORCHARD SURGERY,-0.324352,50.828062
62.34,THE MATTHEWMAN PRACTICE,-0.149281,51.545823
15.890000000000002,RICHARDSON COMMUNITY HOSPITAL,-1.9161529999999998,54.545708
126.96999999999998,LAKESIDE SURGERY,-1.310932,53.52812
9.5,BSUH DERMATOLOGY SERVICE,-0.115477,50.83046
314.72,THE DANBY PRACTICE,-0.907874,54.468317
317.95,VALLEY VIEW SURGERY,-1.731903,53.806791
1417.2299999999998,THE NORTH LEEDS MEDICAL PRACTICE,-1.534037,53.843332
1455.9,IVY GROVE SURGERY,-1.402822,53.042198
414.68000000000006,FRIAR GATE SURGERY,-1.485624,52.924816
1233.81,NAVENBY CLIFF VILLAGES SURGERY,-0.526297,53.103518
915.19,THE LINDEN MEDICAL GROUP,-1.273642,52.931099
1140.9799999999998,ASKERN MEDICAL PRACTICE,-1.148909,53.61549599999999
484.5100000000001,BUTE HOUSE MEDICAL CENTRE,-0.423966,51.880162
277.81,LICHFIELD GROVE SURGERY,-0.19329,51.599604
734.9299999999998,GURU NANAK MEDICAL CENTRE,-0.387151,51.511774
359.18999999999994,SOUTH GREEN SURGERY,0.430504,51.613411
473.68,RICHMOND ROAD MEDICAL CENTRE,-0.065532,51.543051
771.22,THE LAWSON PRACTICE,-0.079465,51.533775
901.03,LEYTON HEALTHCARE 4TH FLOOR,-0.013313,51.559894
490.29,FRANCIS ROAD MEDICAL CENTRE,-0.003831,51.561975
3278.45,GREENGATES MEDICAL GROUP,-0.418494,53.844343
1801.1999999999996,HEBDEN BRIDGE GROUP PRACTICE,-2.010942,53.744036
864.9900000000001,LIMES MEDICAL CENTRE,-1.387885,53.098493
835.8600000000001,CHURCHSIDE MEDICAL PRACTICE,-1.203539,53.146592
560.45,SELSTON SURGERY,-1.299871,53.070196
1738.28,CRYSTAL PEAKS MEDICAL CENTRE,-1.354473,53.342881
1221.9199999999996,LINCOLN HOUSE SURGERY,-0.469093,51.737355
1108.38,STOCKWELL LODGE MED.CTR.,-0.055287,51.713792
320.85,SOUTHEND MEDICAL CENTRE,0.708516,51.540069
447.57000000000005,DR DEVARAJA VC PRACTICE,0.44359,51.520015
634.7099999999998,DR PM PATEL,0.219281,51.55632
258.6,THE MITCHISON ROAD SURGERY,-0.087357,51.544992
595.64,FOUNTAYNE ROAD HEALTH CENTRE,-0.065145,51.56442
1418.8100000000004,FRAMLINGHAM SURGERY,1.334192,52.227216
114.05,ARCHWAY SURGERY,-0.532167,51.72275
276.31000000000006,CHURCH LANE SURGERY,-0.262165,51.574931
150.01,CHISWICK FAMILY DRS PRACTICE,-0.259879,51.493563
350.8400000000001,ACRE SURGERY,-0.411552,51.604465
314.28,CHOWDHURY,0.233898,51.592339
485.56,CUMBERLAND MEDICAL CENTRE,0.026047,51.519716
923.5300000000002,ILFORD MEDICAL CENTRE,0.07431899999999998,51.556823
1394.6300000000006,RYE MEDICAL CENTRE,0.730363,50.961944
301.6,MAIDSTONE RD CHATHAM SURGERY,0.516708,51.361226
417.0,VASSALL MEDICAL CENTRE,-0.10851199999999998,51.477558
1113.8300000000004,WITLEY SURGERY,-0.650163,51.156457
989.1999999999998,FARMHOUSE SURGERY,-1.7595,50.736437
984.6099999999999,JENNER HOUSE SURGERY,-0.7745189999999998,51.294302
707.26,LONG BARN LANE SURGERY,-0.967033,51.436181
3282.7700000000004,WESTONGROVE PARTNERSHIP,-0.74378,51.76588
963.0299999999997,MILBORNE PORT SURGERY,-2.471962,50.967502
674.3100000000002,OMBERSLEY MEDICAL CENTRE,-2.229023,52.276554
1870.82,FURLONG MEDICAL CENTRE,-2.208139,53.063325
1154.09,NORFOLK STREET SURGERY,-2.182794,53.01602
669.0900000000001,PARADISE MEDICAL CENTRE,-1.494835,52.426778
985.0299999999997,MAYFIELD MEDICAL CENTRE,-2.093284,52.583046
803.5699999999998,LEVENSHULME MEDICAL PRACTICE,-2.188524,53.446352
883.85,HEALD GREEN HEALTH CENTRE 2,-2.229276,53.369878
413.5100000000001,SMITH (RICHMOND LOCK),-0.322897,51.464517
512.0100000000001,CHILLINGTON HEALTH CENTRE,-3.693645,50.272623
394.23,JUBILEE GARDENS MEDICAL CENTRE,-0.368739,51.521097
658.03,BLACKHEATH MED CTR,-3.104694,53.412239
272.26,AMBAR MEDICAL CENTRE,-1.991354,52.575093
213.25,GOLDINGTON ROAD SURGERY,-0.456174,52.140172
1413.0199999999998,DMC ST MARYS ISLAND SURGERY,0.538105,51.406776
442.88,POPLAR PRIMARY CARE CENTRE,-1.890326,52.43631
2324.11,THORNABY & BARWICK MEDICAL GROUP,-1.292128,54.538149
1904.52,BRAMPTON MEDICAL PRACTICE,-2.734846,54.94237
837.9899999999999,RISEDALE SURGERY,-3.224778,54.109942
775.13,ROWLANDS GILL MEDICAL CENTRE,-1.742896,54.91936
1022.64,THE SUTTON MANOR SURGERY,-0.315294,53.785759
849.72,PLANE TREES GROUP PRACTICE,-1.894437,53.730448
1238.7099999999996,THORNTON MEDICAL CENTRE,-1.576209,53.791908
1754.3899999999994,JESSOP MEDICAL PRACTICE,-1.372226,53.074348
2250.9100000000008,THE PARK MEDICAL PRACTICE,-1.432644,52.928801
869.36,BRAILSFORD & HULLAND MEDICAL PRACTICE,-1.624927,52.96943
1504.47,MERRIDALE MEDICAL CENTRE (RP TEW),-1.160752,52.620146
849.54,THE MAYFLOWER MEDICAL PRACTICE,-1.01945,53.431872
2327.9000000000005,BASLOW RD  SHOREHAM ST & YORK RD SRGIES,-1.531066,53.316325
862.7900000000003,OVER SURGERY,0.012018,52.314809
1085.2399999999998,DR TUN & PARTNERS,-2.583571,53.532102
852.2999999999998,ST.ANTHONY'S HEALTH CENTRE,-1.55655,54.966674
986.1699999999997,MANOR DRIVE MEDICAL CENTRE,-0.24836599999999998,51.380785
14.25,SMS COMMUNITY DERMATOLOGY CLINIC,-1.398499,50.913503
5.11,WESTCALL OOH,-0.8315749999999998,51.410524
8.15,NELFT SOUTH WEST ESSEX CS,0.496195,51.591456
4.92,EAST STAFFS IMPROVING LIVES,-1.6480290000000002,52.798809
1381.19,BISHOPS CLOSE MEDICAL PRACTICE,-1.599142,54.699817
2105.93,CLEE MEDICAL CENTRE,-0.041433,53.566223
2032.4100000000005,WIBSEY & QUEENSBURY MED P,-1.779715,53.767225
461.57,SOUTHOWRAM SURGERY,-1.831696,53.712293
418.4099999999999,WHITWICK HEALTH CENTRE,-1.3606790000000002,52.742576
1636.17,MARKET SURGERY,-1.345958,53.502635
390.55000000000007,BALDWINS LANE SURGERY,-0.448705,51.654076
621.75,DERWENT CRESCENT MEDICAL CENTRE,-0.175285,51.622908
1509.58,THE STANMORE MEDICAL CENTRE,-0.304021,51.60154
1175.93,NEASDEN MEDICAL CENTRE,-0.247382,51.559667
134.71,BROOK GREEN SURGERY,-0.218145,51.495291
1848.64,ABBEY FIELD MEDICAL CENTRE,0.898575,51.877487
159.16999999999996,JOHN SMITH MEDICAL CENTRE,0.112125,51.538899
570.7900000000002,TOTTENHAM HEALTH CENTRE,-0.068474,51.604755
381.39,DR MOHAMMED GREEN MAN MEDICAL CENTRE,0.015000999999999999,51.571506
708.8899999999999,FAIRFIELD PMS,0.038949,51.483908
457.91,PARKSIDE MEDICAL CENTRE,-0.092642,51.475826
560.6299999999999,NORK CLINIC,-0.215842,51.326429
711.6,QUEENHILL MEDICAL PRACTICE,-0.066791,51.34499
544.65,GRAND DRIVE SURGERY,-0.228811,51.402155
2660.74,THE BOSMERE MEDICAL PRACTICE,-0.990581,50.850232
2631.83,BURNHAM HEALTH CENTRE,-0.662137,51.5349
815.16,THE LONG BUCKBY PRACTICE,-1.08255,52.30049
3571.090000000001,ASPEN MEDICAL PRACTICE,-2.225797,51.865969
1000.89,GLOUCESTER CITY HEALTH CENTRE,-2.245328,51.860355
2230.140000000001,ABBEY HOUSE MEDICAL PRACTICE,-1.160725,52.260319
1204.36,NORTON BROOK MEDICAL CENTRE,-3.782122,50.288739
306.86,SOMERSET BRIDGE MEDICAL CENTRE,-2.995883,51.115105
1066.32,TRENT VALE MEDICAL PRACTICE,-2.201785,52.987386
317.54,BROOKSIDE SURGERY,-1.399088,52.35048
701.9999999999999,NORTHWAY MEDICAL CENTRE,-2.130997,52.54810500000001
1116.93,MARTON MEDICAL PRACTICE,-3.034524,53.812843
904.25,CORNISHWAY GROUP PRACTICE,-2.265017,53.379925
1583.1299999999994,BRAMHALL HEALTH CENTRE,-2.162929,53.36001
1253.84,MAYNARD COURT SURGERY,0.020165,51.685605
372.56000000000006,AYLESBURY SURGERY,-1.876053,52.542854
234.25000000000009,NEVILLE ROAD SURGERY,-0.443036,51.906419
2.74,UNIV HOSP NORTH DURHAM OOH,-1.593834,54.788497
132.13,BOWLING GREEN STREET SURGERY,-1.133096,52.63304599999999
154.77,BCHC MEDICINES MANAGEMENT,-1.9537779999999998,52.398207
1346.94,YARM MEDICAL PRACTICE,-1.355519,54.50530500000001
450.49000000000007,BENSHAM FAMILY PRACTICE,-1.617038,54.952781
2242.21,BURTON CROFT SURGERY,-1.57692,53.820807
299.3,EASTMOOR HEALTH CENTRE,-1.476864,53.690004
275.41,HARTINGTON SURGERY,-1.810816,53.142488
547.8100000000001,THE PRACTICE BEAUMONT LEYS,-1.15392,52.662296
909.6400000000001,TASBURGH LODGE SURGERY,-0.21375,53.151242
1649.17,SOTHALL & BEIGHTON HEALTH CENTRES,-1.340221,53.337895
225.78,KINGSWAY SURGERY,-0.437208,51.517478
648.59,FIVE ELMS MEDICAL PRACTICE,0.14235,51.553315
214.21,SPUR ROAD SURGERY,-0.086621,51.586597
1021.01,THE MEADS SURGERY,0.091624,50.969686
338.6,ALBION STREET SURGERY,-0.133965,50.827627
1725.4,BELLEGROVE SURGERY,0.09579,51.464561
925.61,SOUTH VIEW PARTNERSHIP,0.026125,51.405111
656.46,CORNERWAYS SURGERY,-0.404519,50.81566
1458.2800000000002,CHEAM GP CENTRE,-0.225239,51.368621
354.76,WALLINGTON MEDICAL CENTRE,-0.129285,51.357345
1256.67,THE BANKS & BEARWOOD MEDICAL CENTRE,-1.9292169999999997,50.768326
457.5199999999999,MERE SURGERY,-2.265342,51.089873
334.81999999999994,RAGSTONE ROAD SURGERY,-0.601832,51.503747
986.88,COMBE DOWN SURGERY,-2.345599,51.361003
1194.86,WADEBRIDGE & CAMEL ESTUARY PRACTICE,-4.835729,50.514816
778.5799999999998,NORTH PETHERTON SURGERY,-3.013922,51.09139
363.33,HANDSWORTH MEDICAL PRACT.,-1.941212,52.505377
1005.9699999999997,EVE HILL MEDICAL PRACTICE,-2.096805,52.512922
394.87,BEARWOOD MEDICAL CENTRE,-1.97344,52.476903
1876.37,THE GROUP PRACTICE ALFRED SQUIRE ROAD,-2.080754,52.599417
1225.21,WEST DERBY MEDICAL CENTRE,-2.895944,53.431273
240.66,BEEHIVE SURGERY,-2.419172,53.564161
204.46,QUEENS MEDICAL CENTRE,-2.235847,53.50081899999999
1011.4400000000003,LANGWORTHY MEDICAL PRACTICE,-2.294771,53.489371
390.77,LEY HILL SURGERY,-1.983266,52.421346
892.05,THE CHEYLESMORE SURGERY,-1.503924,52.391324
109.77,DR. B. K. PRASHARA,-2.114816,52.456326
1623.78,ST PETER'S SURGERY,-1.984855,52.594537
780.0000000000001,ORMSKIRK HOUSE SURGERY,-2.74261,53.456686
821.0699999999998,MANOR HEALTH CTR,-3.044493,53.421061
1783.52,THE PENDLE MEDICAL PARTNERSHIP,-2.144307,53.915882
895.02,3/SPRINGFIELD HOUSE MEDICAL PRACTICE,-2.362019,53.480252
1307.06,PENNINE MEDICAL CENTRE,-2.040966,53.515337
415.62,THE CROSSROADS SURGERY,-2.770123,53.417492
188.39,CRESCENT SURGERY,0.106446,51.389854
476.36,GREEN CEDARS MEDICAL CENTRE,-0.073642,51.616071
172.37,THE KINGSWAY PRACTICE,-2.135588,53.612168
562.39,WHITE HORSE SURGERY,0.343258,51.435153
3.45,LAS S.E. LONDON IUC CAS,-0.10903099999999999,51.500174
0.79,HMP BRISTOL,-2.591585,51.480902
48.68,WEST KENT GROUP,1.118942,51.075872
230.36,CHAPELFORD PRIMARY CARE CENTRE,-2.633066,53.39615799999999
6.16,BRAMHOPE DERMATOLOGY COMMUNITY CLINIC,-1.61581,53.881903
412.00000000000006,BHF LUNDWOOD SURGERY,-1.438538,53.557711
1659.9400000000005,DALTON SURGERY,-3.179816,54.155917
900.84,THE SELE MEDICAL PRACTICE,-2.095702,54.970372
1056.61,WOODLANDS PARK HEALTH CTR,-1.628825,55.04614
805.27,CONCORD MEDICAL PRACTICE,-1.524864,54.913411
1195.3200000000004,MARKET WEIGHTON GROUP PRACTICE,-0.674786,53.864903
685.6100000000001,RAJ MEDICAL CENTRE,-0.113968,53.550655
1196.6699999999996,MAYFORD HOUSE SURGERY,-1.446534,54.328376
1072.81,OAKWOOD LANE MEDICAL PRACTICE,-1.493931,53.819982
3207.990000000001,HEALTH CARE FIRST PARTNERSHIP,-1.393615,53.736872
836.4,HAVEN MEDICAL CENTRE,-1.416874,52.891498
1615.5499999999995,COUNTESTHORPE HEALTH CENTRE,-1.136767,52.554536
1392.5400000000004,CASTLE HEALTHCARE PRACTICE,-1.144908,52.930476
2101.330000000001,BROOM LANE MEDICAL CENTRE,-1.332311,53.417383
719.5199999999999,CADDINGTON SURGERY,-0.458179,51.864502
1087.05,ANNANDALE MEDICAL CENTRE,-0.17421099999999998,51.698571
3.08,GREENWICH CCG GP ACCESS HUB,0.050556,51.457843
828.22,WEST ROAD MEDICAL CENTRE,-1.656263,54.976209
358.75,IMEARY STREET PRACTICE,-1.424863,54.98753000000001
229.42,THE KILLINGHOLME SURGERY,-0.260335,53.62990799999999
1147.75,DR SINHA & PARTNERS,0.100204,53.030138
608.0500000000002,THE HEALTH CARE SURGERY,-1.487911,53.42172
1093.59,COMBERTON SURGERY,0.018614,52.189811
833.59,TRINITY & BOWTHORPE MEDICAL PRACTICE,1.280248,52.624411
998.3700000000001,THE LIMES SURGERY,-0.010842,51.759413
1053.91,SHEPHALL HEALTH CENTRE,-0.167642,51.890799
208.02,WAKEMANS HILL SURGERY,-0.254209,51.587088
182.37,WESTBOURNE GROVE MEDICAL CENTRE,-0.200361,51.514211
1018.61,FOREST PRACTICE,0.07523499999999998,51.654789
291.51,PRASAD,0.210579,51.600308
1290.0700000000004,HARROW ROAD GP CENTRE,0.012856,51.559538
586.7700000000002,SEVEN DIALS MEDICAL CENTRE,-0.147743,50.829681
1329.01,NORTHDOWN SURGERY,1.368001,51.379866
427.61,MILTON REGIS SURGERY,0.7321839999999998,51.349193
1141.93,BARCROFT MEDICAL CENTRE,-1.780526,51.172939
485.54,BURBAGE SURGERY,-1.669545,51.348496
2378.48,THE SWAN PRACTICE,-0.985664,52.001593
3206.380000000001,PIONEER MEDICAL GROUP,-2.617628,51.510306
821.12,THE CREST FAMILY PRACTICE,-2.596274,51.428746
229.19000000000003,WORTHEN MEDICAL PRACTICE,-3.000165,52.635224
886.82,NESTON MEDICAL CENTRE,-3.064349,53.291818
338.08,KIRKDALE MEDICAL CENTRE,-2.973842,53.433523
566.9500000000002,WITHNELL HEALTH CENTRE,-2.556663,53.692491
2268.78,DARWEN HEALTHLINK,-2.471427,53.695744
1004.57,ST.MARY'S HEALTH CENTRE,-2.729589,53.747433
456.16,DAVID MEDICAL CENTRE,-2.268652,53.43186
981.5,DR ABBAS,-0.841253,52.26834
591.28,FACCINI HOUSE SURGERY,-0.189379,51.389682
1107.16,EDLESBOROUGH SURGERY,-0.588625,51.868423
688.1500000000002,DR GS KALKAT'S PRACTICE,0.103861,51.527941
671.7800000000002,JRB HEALTHCARE BEECHDALE SURGERY,-1.198142,52.961504
91.83,THE LYNWOOD SURGERY,-0.29964,51.528594
378.03,CHURCH VIEW MEDICAL CENTRE,-2.960328,50.935622
1400.59,WOODLANDS FAMILY MEDICAL CENTRE,-1.321204,54.561215
237.2,ASKAM SURGERY,-3.210918,54.183705
2265.4,FERRYHILL AND CHILTON MEDICAL PRACTICE,-1.556828,54.689838
834.7800000000002,COLLIERY COURT MEDICAL GROUP,-1.460703,54.949762
608.7700000000002,GRANGE PARK SURGERY,-1.7481080000000002,53.912695
1495.68,THE COUNTY PRACTICE,-1.069884,52.70073000000001
1675.39,BEECHFIELD MEDICAL CENTRE,-0.145012,52.787253
931.82,GRIMETHORPE SURGERY,-1.378978,53.573614
732.51,THE OAKWOOD SURGERY,-1.073937,53.506609
689.58,PAPWORTH SURGERY,-0.11749200000000001,52.252071
1179.93,ORCHARD SURGERY,0.944176,52.678309
1097.29,DR JK MARSDEN'S PRACTICE,-0.436528,51.894968
1392.41,MALTINGS SURGERY,-0.337918,51.751851
594.0100000000001,HANWELL HEALTH CENTRE (NAISH),-0.334375,51.510263
1083.19,WHITLEY HOUSE SURGERY,0.455723,51.726539
1213.39,WEST ROAD SURGERY,0.70187,51.544989
269.04,JOYDENS WOOD MEDICAL CENTRE,0.166397,51.42449
2317.6599999999994,TRAFALGAR MEDICAL GROUP PRACTICE,-1.092485,50.785331
1038.79,EASTFIELD HOUSE SURGERY,-1.323251,51.395555
1198.4299999999996,RECTORY MEADOW SURGERY,-0.6175,51.669079
1378.32,TUDOR LODGE SURGERY,-2.975378,51.332396
1021.09,PRAZE-AN-BEEBLE SURGERY,-5.309264,50.173753
1621.3299999999995,CAMBRIAN MEDICAL PRACTICE,-3.047774,52.86281
549.81,PENN SURGERY,-2.145001,52.568567
913.81,FIRDALE MEDICAL CENTRE,-2.537387,53.253804
1059.79,HALL GREEN SURGERY,-2.741349,53.540745
228.93,SARAF MEDICAL PRACTICE,-2.076954,53.561455
258.47,LATIMER HEALTH CENTRE,-0.049503,51.54659
510.62,DELL MEDICAL CENTRE,0.328114,51.480258
654.93,KIRKSTALL LANE MEDICAL CENTRE,-1.587333,53.816942
1375.6100000000006,WHITCHURCH SURGERY,-1.340372,51.230256
481.28,DR NEWMAN,-1.975441,50.719722
20.35,GATDOC OOH,-1.580781,54.93938000000001
390.99,THE TRINITY MEDICAL CENTRE,0.085815,51.478803
2.56,CARE UK OOH,1.210633,52.034014
2.89,PONTELAND RD WIC,-1.656804,54.991604
8.63,BURNLEY LOCALITY NMPS,-2.238948,53.791326
560.45,KIRKBY COMMUNITY PRIMARY CARE CENTRE (3),-1.248741,53.10176
2.64,DMC COMMUNITY DERMATOLOGY ERY,-0.872594,53.695801
1481.1700000000005,BERKLEY PRACTICE,-2.024533,52.58916
1223.12,BELLE VALE HEALTH CENTRE,-2.859752,53.392035
398.76,ELIZABETH STREET SURGERY,-3.043658,53.820839
1045.15,RAMSBOTTOM MEDICAL PRACTICE,-2.319287,53.64878
291.9600000000001,THE WHITSWOOD PRACTICE,-2.253502,53.455769
1335.4199999999996,WOODLANDS MEDICAL PRACTICE,-2.142182,53.545559
867.35,BROOKS BAR MEDICAL CENTRE,-2.261969,53.461412
523.6600000000001,BROOK HOUSE SURGERY,-1.445882,50.921794
368.82,ASHVILLE SURGERY,-0.201145,51.476255
744.4700000000001,THE VILLAGE MEDICAL CTR,-0.512653,52.128152
1.85,DR HANTSDOC N OOH,-1.109918,51.280633
4.87,GP COLLABORATIVE OOH,-1.455965,53.409821
377.75,ST NEOTS HEALTH CENTRE,-0.267116,52.228966
7.48,HMR BARDOC OOH,-2.288591,53.59553
5.76,HOLYWELL AT LANGLEY HOUSE HCT,-0.391206,51.683651
2.05,GATESHEAD HEALTH COMMUNITY SERVICES,-1.580781,54.93938000000001
2.68,NEAS HAST CCG,-1.712365,54.969713
1918.01,PRIORY MEDICAL CENTRE,-1.588641,52.285051
73.57,MODALITY ANN JONES FAMILY HEALTH CENTRE,-1.871333,52.462659
381.0999999999999,BALDWINS LANE SURGERY,-1.846405,52.414514
399.21,TUDOR PRACTICE STOCKLAND GREEN,-1.857329,52.52388199999999
1016.78,CENTRAL SURGERY,-2.74261,53.456686
2247.5299999999993,ASH TREES SURGERY,-2.769484,54.129481
335.4599999999999,FAMILY PRACTICE,-2.486748,53.750552
270.25,MONARCH MEDICAL CENTRE,-2.316823,53.564198
1098.49,LEESBROOK SURGERY,-2.07266,53.53879
738.9299999999998,WALTON SURGERY,1.335453,51.973564
351.7999999999999,LINCOLN GREEN MEDICAL CENTRE,-1.525196,53.802098
556.93,PARKGATE SURGERY,-1.548606,54.523273
267.97,DALTON TM,-2.643772,53.529393
220.49000000000004,POLLARD ROW SURGERY,-0.064328,51.528266
5.19,HARROGATE OOH,-1.517573,53.993807
1.03,ASHFORD HUB,-0.472813,51.444022
68.71,WIRRAL HEART SUPPORT,-3.026531,53.380029
1.64,PML NEIGHBOURHOOD HUB (BANBURY),-1.349027,52.057771
710.42,BALDERTON SURGERY,-0.7864679999999998,53.052881
512.97,ULVERSTON COMMUNITY HEALTH CENTRE,-3.097833,54.198882
1053.85,NORTH ROAD SUITE RAVENSTHORPE HEALTH CTR,-1.661589,53.677829
1297.7199999999998,CASTLE MEAD MEDICAL CENTRE,-1.367743,52.541052
968.3,RADCLIFFE-ON-TRENT. HEALTH CENTRE,-1.03822,52.946139
955.6399999999999,RISE PARK SURGERY,-1.174951,53.011477
653.5500000000002,MANCHESTER ROAD SURGERY,-1.521086,53.380573
915.35,CHERRY HINTON MEDICAL CENTRE,0.177635,52.187459
1104.05,THE MEDICI MEDICAL PRACTICE,-0.418382,51.874494
902.83,PENSHURST GARDENS SURGERY,-0.272812,51.616129
681.4000000000002,ELLIS PRACTICE,-0.276552,51.563894
143.12,ORCHARD END,0.539532,51.091415
971.1499999999997,NEW ELTHAM AND BLACKFEN MEDICAL CENTRE,0.074199,51.434495
1962.2800000000007,THE GROVE MEDICAL CENTRE,-2.513702,50.953273
1811.68,BISHOPS WALTHAM SURGERY,-1.212149,50.95528
1662.0,OLD SCHOOL SURGERY,0.100722,50.772062
82.14,UNIVERSITY MEDICAL CENTRE,1.062127,51.296198
914.61,ST STEPHENS HOUSE SURGERY,-0.305726,51.31772
482.3499999999999,PARK VIEW HEALTH PARTNERSHIP,-0.137252,50.961825
827.6599999999999,LAMBTON ROAD MEDICAL PRACTICE,-0.231169,51.411219
2006.4,LORDSHILL HEALTH CENTRE,-1.448733,50.940999
1199.6500000000005,BYFIELD MEDICAL CENTRE,-1.242893,52.174071
554.47,CAMBRIDGE HOUSE,-2.144827,53.024433
1222.68,ARBURY MEDICAL CENTRE,-1.497961,52.51662
555.94,CHURCH LANE - KHAN,-1.793962,52.487056
676.65,SOHO ROAD PRIMARY CARE CENTRE,-1.934945,52.503094
309.9000000000001,PARK HOUSE SURGERY,-1.942965,52.54446
321.8,BEECHDALE CENTRE,-2.007339,52.600867
1700.64,HOLES LANE MEDICAL CENTRE,-2.545107,53.399828
943.09,LACHE HEALTH CENTRE,-2.914326,53.173615
793.9299999999998,DINGLE PARK PRACTICE,-2.972885,53.38633
1778.19,RAINBOW MEDICAL CENTRE,-2.705931,53.435389
455.27,BEECHWOOD SURGERY,-3.009057,53.871568
1670.7600000000002,HEYWOOD HEALTH,-2.239335,53.58736999999999
627.0099999999999,THE GILL MEDICAL PRACTICE,-2.398384,53.524288
796.37,GLOUCESTER HOUSE MEDICAL CENTRE,-2.352599,53.447337
218.91,PAK HEALTH CENTRE,-1.856091,52.490749
148.43,WALFORD STREET  TIVIDALE,-2.059752,52.513192
1421.08,LITTLE LONDON SURGERY,-1.979284,52.574984
780.13,STRETTON MEDICAL CENTRE,-2.577017,53.339489
192.8,THE DALE MEDICAL PRACTICE,-2.154239,53.611617
234.29,WALNUT ST MED CTR (LEICESTER MED GROUP),-1.138855,52.624601
595.88,FIR TREE,-2.878691,53.44930600000001
29.8,CAMBRIDGE ACCESS SURGERY,0.138701,52.20875
6.16,NELPCT OUT OF HOURS SERVICE,-0.096229,53.544858
1.98,ANGEL LODGE,-1.50929,53.683308
338.5200000000001,ETTINGSHALL MEDICAL CENTRE,-2.092879,52.570364
3.28,WALK IN CENTRE (WIC),-1.784934,51.563016
2.05,HP NMP'S NN & E CCG,-1.143101,53.130244
697.0500000000002,RUSHEY MEAD HEALTH CENTRE,-1.103823,52.663187
2052.98,ST ANN'S ROAD SURGERY,-0.08783399999999998,51.581428
1094.7999999999997,LEIGH FAMILY PRACTICE,-2.511927,53.493519
307.59,THE PRACTICE FELTHAM,-0.411086,51.446367
633.55,HENDON WAY SURGERY,-0.241873,51.579182
3.41,NHS FYLDE & WYRE CCG,-2.881037,53.789498
45.98,SPECIALIST NURSE,-1.517573,53.993807
4.99,VIRGIN CARE SPECIALIST NURSING SHCCG,-0.7846419999999998,51.220491
12.239999999999998,TAURUS HEALTHCARE LTD,-2.71099,52.05708
2.25,NC GPA PLUS,-1.152649,52.954624
287.5,CARTMEL SURGERY,-2.946985,54.199165
2555.63,ALNWICK MEDICAL GROUP,-1.6967470000000002,55.410086
766.1300000000001,NETHERFIELD HOUSE,-1.548435,55.063632
1495.05,PRACTICE 3  MEDICAL CENTRE  BRIDLINGTON,-0.201064,54.084715
872.0,THE ALMONDBURY SURGERY,-1.751311,53.631868
559.07,NEWLAND SURGERY,-1.424247,53.695146
4467.160000000002,BEACON MEDICAL PRACTICE,0.331219,53.157472
211.63,GREENFIELDS MEDICAL CENTRE (YVS RAO),-1.168583,52.966506
1044.36,TREETON MEDICAL CENTRE,-1.354708,53.384994
2139.78,MEADOWGREEN HEALTH CENTRE,-1.480804,53.326831
3099.3100000000004,BOROUGHBURY MEDICAL CENTRE,-0.245486,52.577858
1845.55,THE ROOKERY MEDICAL CENTRE,0.405573,52.245158
14.760000000000002,COMMUNITY MATRONS,-2.095555,52.599722
1.03,IC24-THANET CCG OOH,0.891514,51.129106
3.33,MID CLUSTER IAGPS,-1.9731169999999998,50.721987
2.08,SJUH GPS IN A+E,-1.520359,53.806869
1257.36,CRUDDAS PARK SURGERY,-1.630965,54.968173
423.52,THE CHESTNUTS & HALLGATE SURGERY,-0.403621,53.778985
1171.4399999999996,HAWORTH MEDICAL PRACTICE,-1.954883,53.831322
883.8999999999999,FIELDHEAD SURGERY,-1.854229,53.641358
1695.27,CROFTON AND SHARLSTON MED PRAC,-1.427042,53.656573
1684.12,SHIRES HEALTHCARE,-1.215692,53.202513
770.0999999999997,ORCHARD SURGERY,-1.278154,52.836522
967.24,ST GEORGES MED PRACTICE,-1.132346,52.930754
204.65,WELBECK SURGERY,-1.147823,52.979645
1309.67,WICKHAM MARKET MEDICAL CENTRE,1.363674,52.151842
506.04,TODDINGTON MEDICAL CENTRE,-0.530482,51.945856
382.64,THE RANDOLPH SURGERY,-0.186852,51.529819
470.5,DR YADAVA N PRACTICE,0.334586,51.476703
528.06,ST.PAUL'S WAY MEDICAL CTR,-0.024483,51.517862
1885.13,THORNHILLS MEDICAL PRACTICE,0.440958,51.300117
2008.47,OAKLANDS HEALTH CENTRE,1.08253,51.069106
655.64,HEXTABLE SURGERY,0.182972,51.409182
1275.11,LONGCROFT CLINIC,-0.192332,51.325314
573.98,THE ROEHAMPTON SURGERY,-0.242431,51.451154
2097.14,WYKE REGIS & LANEHOUSE MEDICAL PRACTICE,-2.475127,50.594634
542.7099999999999,WHITCHURCH SURGERY,-0.8426209999999998,51.882174
466.15,CRICK MEDICAL PRACTICE,-1.135861,52.343212
1471.5199999999998,KINGSWOOD HEALTH CENTRE,-2.499974,51.462895
1293.11,THE VILLAGE SURGERY,-2.219972,53.033945
1525.7099999999996,BIDDULPH VALLEY SURGERY,-2.178498,53.116111
312.0799999999999,RIVERSIDE SURGERY,-1.699518,52.632337
1027.23,THREE VILLAGES MEDICAL PRACTICE,-2.146398,52.465406
670.1199999999999,STONE CROSS MEDICAL CENTRE,-1.982689,52.545444
2370.9699999999993,STOCKTON HEATH MED.CENTRE,-2.582161,53.37195
999.24,THE VILLAGE SURGERIES GROUP,-2.771265,53.124246
747.3799999999997,ILEX VIEW MEDICAL PRACTICE,-2.280663,53.70081
610.23,SHIFA SURGERY,-2.475999,53.757295
1061.61,CHORLTON FAMILY PRACTICE,-2.279717,53.443773
373.0100000000001,OLDHAM MEDICAL SERVICES,-2.111235,53.52535699999999
1208.39,MELROSE SURGERY,-0.9598620000000002,51.451692
325.7200000000001,DR R KAPUR & PARTNERS,-1.119092,52.631036
715.6300000000001,LEADGATE SURGERY,-1.805988,54.860562
1062.09,ACLE MEDICAL PARTNERSHIP,1.548667,52.640969
335.8600000000001,PEEL CROFT,-1.6339549999999998,52.799271
1520.23,MARTONSIDE MEDICAL CENTRE,-1.220329,54.553175
650.4399999999998,ROCKLIFFE COURT SURGERY,-1.544074,54.483444
2256.7500000000005,BEDLINGTONSHIRE MED.GROUP,-1.598682,55.1322
425.98,WESTBOURNE SURGERY,-1.8061,53.650937
1239.62,MIDDLESTOWN,-1.600562,53.650545
395.41,DR WEBB AND PARTNERS,-1.308041,52.968251
1075.8100000000004,GOYT VALLEY MEDICAL PRACTICE,-1.983113,53.3305
500.58,CASTLE STREET MEDICAL CENTRE,-1.293753,53.229627
582.4599999999998,SILVERDALE MEDICAL CENTRE,-1.090548,52.672318
1992.75,HOLT MEDICAL PRACTICE,1.116042,52.914476
1771.39,HOWARD HOUSE SURGERY,1.349626,51.96149
1122.3099999999997,PARKBURY HOUSE SURGERY,-0.334063,51.756766
679.82,UXENDON CRESCENT SURGERY,-0.292809,51.572063
184.76,STERNDALE SURGERY,-0.221441,51.498326
695.06,AEGIS MEDICAL CENTRE,0.467525,51.57556
497.88,AMWELL GROUP PRACTICE,-0.11081700000000001,51.528043
1289.92,MEOPHAM MEDICAL CENTRE,0.359744,51.368901
832.3199999999998,WESTERHAM PRACTICE,0.070437,51.266465
447.61,FORGE CLOSE SURGERY,0.016555,51.377137
1265.32,STEYNING HEALTH CENTRE,-0.329972,50.890666
1407.85,LAVANT ROAD SURGERY,-0.781051,50.853385
499.18,THORNTON & VALLEY PARK SURGERY,-0.120709,51.388871
819.09,JOHNSON (SHEEN LANE),-0.267239,51.465848
202.63,BEGG PRACTICE,-0.179391,51.459968
839.8,MOORDOWN MEDICAL CENTRE,-1.874485,50.756212
709.12,LITTLEDOWN SURGERY,-1.833439,50.741638
1697.0299999999993,EMMER GREEN SURGERY,-0.972861,51.483584
1365.55,WOLVERTON HEALTH CENTRE,-0.814934,52.054197
2989.79,ST THOMAS MEDICAL GROUP,-3.54518,50.714472
676.4500000000002,YOXALL,-1.7931740000000003,52.767984
196.31,GREET MEDICAL PRACTICE,-1.857778,52.453195
749.7999999999998,PEDMORE MEDICAL PRACTICE,-2.118211,52.457029
1291.88,BOSWORTH MEDICAL CENTRE,-1.7536330000000002,52.480569
2114.37,THE PARK MEDICAL PRACTICE,-2.739045,53.77018
357.83000000000015,CROSSWAYS PRACTICE,-3.023992,53.484655
444.12,THE OLD DISPENSARY,-1.987226,50.803427
180.48,STROUD GREEN MEDICAL CENTRE,-0.114328,51.570059
6.5600000000000005,CBS OOH,-1.233579,53.134573
0.59,EASTBOURNE  HAILSHAM & SEAFORD OOH,0.891514,51.129106
59.66,INTERMEDIATE CARE (THE PEELE),-2.259671,53.385779
2185.99,WEST SOMERSET HEALTHCARE,-3.3186760000000004,51.161419
1476.29,WEM AND PREES MEDICAL PRACTICE,-2.722566,52.859338
548.02,ALL SAINTS SURGERY,-1.644121,52.794285
1600.3300000000004,CENTRAL SURGERY,-1.265473,52.371743
1048.33,OMNIA PRACTICE,-1.839082,52.475709
367.23,SCHOOLACRE ROAD SURGERY,-1.785797,52.497659
1276.5700000000004,DORRIDGE SURGERY,-1.752074,52.372757
792.7399999999999,MORETON CROSS GROUP PRACTICE,-3.111975,53.403551
1339.15,WITTON MEDICAL CENTRE,-2.507553,53.740232
170.07999999999996,WALMERSLEY ROAD MEDICAL PRACTICE,-2.289525,53.599849
1298.9999999999998,WEST COMMON LANE TEACHING PRACTICE,-0.682441,53.57473100000001
359.88,QUEENS ROAD SURGERY,-1.474524,52.522119
154.15,BEVAN HEALTHCARE CIC,-1.753352,53.795581
711.46,RIVERSIDE MEDICAL PRACTICE,-1.315584,54.56887
433.44,MEDICUS HEALTH PARTNERS-ENFIELD ISLAND,-0.016992,51.668586
78.28,MERSEYCARE NHS TRUST,-2.826417,53.424035
1639.5499999999995,RISING BROOK,-2.118782,52.787133
119.54000000000002,BLOOMSBURY SURGERY,-1.871892,52.49324300000001
709.1900000000002,ST JAMES MEDICAL PRACTICE2,-2.097323,52.514234
274.08,KHAN MEDICAL PRACTICE,-2.000799,52.613174
254.81,LINGHOLME HEALTH CENTRE,-2.744752,53.457769
2440.13,PEEL HOUSE MEDICAL PRACTICE,-2.365995,53.75089200000001
447.97,ASHURST PRIMARY CARE,-2.772723,53.563208
1452.4699999999993,RED BANK GROUP PRACTICE,-2.323706,53.560143
824.58,MARPLE BRIDGE SURGERY,-2.053323,53.400594
1018.53,GRASMERE SURGERY,-2.511455,53.503236
997.5,GRAVESEND MEDICAL CENTRE,0.369986,51.443932
2086.96,PEASE WAY MEDICAL CENTRE,-1.576495,54.618581
276.67,ELSDON AVENUE SURGERY,-1.525885,55.07062
1165.33,DR WICKREMESINGHE SSG,-0.123521,51.469491
4804.61,TELDOC,-2.435206,52.672614
6.44,HAROLD WOOD WIC,0.225699,51.593184
0.44,HOUNSLOW CCG - HRCH (NMP),-0.326599,51.427449
605.2499999999999,CROSLAND MOOR SURGERY,-1.809637,53.63841
10.16,SOUTH LAKES PRIMARY CARE SERVICES,-2.737133,54.312706
58.15,GP EXTENDED ACCESS - HARROGATE,-1.529793,53.996354
856.9799999999998,THE ROSEBERRY PRACTICE,-1.292215,54.611726
1616.5700000000004,ST ANDREW'S MEDICAL PRACTICE,-1.598213,54.699634
1696.35,TANFIELD VIEW MEDICAL GROUP,-1.701373,54.869939
133.95,DR MITCHELL,-0.503581,53.72075
890.9099999999999,BEECH HOUSE SURGERY,-1.465892,54.010836
1853.44,MANOR PARK SURGERY,-1.628914,53.814076
1182.78,PARKSIDE SURGERY,-1.391868,53.097732
1717.0800000000004,SPINNEY HILL MEDICAL CENTRE,-1.109212,52.637381
260.14,SPRINGFIELD MEDICAL CENTRE,-1.195502,53.003599
1168.9,PARKGATE MEDICAL CENTRE,-1.342798,53.455454
832.93,BURWELL SURGERY,0.331841,52.273327
901.38,MARTLESHAM SURGERY,1.272068,52.061314
161.15,THE AVENUE SURGERY,-0.319031,51.518389
625.78,THE LILYVILLE SURGERY,-0.199155,51.47377
283.75,WEST LONDON MEDICAL CENTRE,-0.454699,51.525731
3500.6399999999994,ST.JAMES SURGERY,1.147433,51.787326
561.65,WITHAM HEALTH CENTRE,0.642876,51.800559
320.41,QUEENS AVENUE PRACTICE,-0.147916,51.591852
2016.78,SANDWICH MEDICAL PRACTICE,1.337364,51.274071
375.97,DR RHK SINHA'S PRACTICE,-0.103058,51.482668
475.11,THE ADDISCOMBE SURGERY,-0.061851,51.376293
1004.7,ADELAIDE MEDICAL CENTRE,-1.475274,51.208539
2836.1000000000013,THE CAMBRIDGE PRACTICE,-0.76565,51.254364
1074.86,THE WILLESDEN MEDICAL CENTRE,-0.233873,51.547532
571.16,EASTMEAD AVENUE SURGERY,-0.36274,51.531443
216.93,KINCORA DOCTORS SURGERY,-0.412216,51.511666
392.02,DR M GOYAL'S PRACTICE,0.156711,51.540066
1151.62,TOLLGATE MEDICAL CENTRE,0.056362,51.515573
674.3499999999998,HETHERINGTON GROUP PRACTICE,-0.12823,51.460932
290.35,SELHURST MEDICAL PRACTICE,-0.088969,51.390012
1041.91,THE WATERFIELD PRACTICE,-0.733923,51.409204
247.88,JERICHO HEALTH CENTRE,-1.265958,51.760293
1198.67,PONTESBURY MEDICAL PRAC,-2.887922,52.650521
907.1500000000002,TUTBURY HEALTH CENTRE,-1.686361,52.858454
758.0300000000003,TEAN SURGERY,-1.988036,52.954415
730.0899999999998,WAKE GREEN SURGERY,-1.883357,52.446103
731.69,THORNLEY STREET MEDICAL CENTRE,-2.125789,52.58843
747.25,MEREPARK MEDICAL CENTRE,-2.300747,53.093285
864.63,RAINHILL VILLAGE SURGERY,-2.763813,53.41631
494.03,MILE LANE HEALTH CENTRE,-2.335248,53.587814
373.25,NEW ISLINGTON MEDICAL CENTRE,-2.219472,53.4829
1314.09,CLARENDON MEDICAL CENTRE,-2.079951,53.45264
735.3299999999998,BRAITHWAITE RD SURGERY,-2.574985,53.477412
593.13,WOODGRANGE MEDICAL PRACTICE,0.025253,51.548596
326.58,JARVIS MEDICAL PRACTICE,-2.095095,53.537786
172.68999999999997,DR SP TALPAHEWA,-0.260303,51.616115
43.85,IC24 LTD (NORFOLK & WISBECH OOH),0.891514,51.129106
424.1,BRANDON MEDICAL PRACTICE,0.6233,52.448489
365.32000000000005,BOLTON MEDICAL CENTRE,-2.431399,53.56543
331.42,THE MANSELL ROAD PRACTICE,-0.358969,51.525654
793.0599999999998,WESTCROFT HEALTH CENTRE,-0.795699,52.006367
112.3,FOUNDATIONS,-1.257899,54.563441
4.91,(FRACTURE CLINIC) NORTH OOH,-0.883829,52.236068
265.04,READING WALK-IN HEALTH CENTRE,-0.9758960000000002,51.454809
72.90999999999998,MERSEYCARE NHS TRUST - NMP,-2.933499,53.407265
10.79,BRADFORD DISTRICT CARE TRUST,-1.788605,53.839675
7.67,PUBLIC HEALTH SERVICES,0.020377,51.403879
3.75,NORTH TYNESIDE CARE PLUS,-1.456596,55.011193
0.66,8 TO 8 TOP-UP HUB QMH,0.101687,51.419041
7.34,SUFFOLK GP FEDERATION OOH,1.164244,52.044508
1404.8199999999995,LOWTHER MEDICAL CENTRE,-3.586392,54.545056
1126.55,COLLEGE LANE SURGERY,-1.336292,53.644573
1070.0400000000004,THE SURGERY CLIFTON ROAD,-1.737497,53.013356
1011.9,THE ORCHARD MED PRACTICE,-1.231693,52.533972
4367.239999999999,MUNRO MEDICAL CENTRE,-0.147427,52.794037
983.96,MOSBOROUGH HEALTH CENTRE,-1.364873,53.325238
790.06,ORCHARD SURGERY MELBOURN,0.020092,52.080651
1716.7299999999998,HIGH STREET SURGERY,1.756043,52.482123
805.9899999999999,ANDAMAN SURGERY,1.715485,52.45691600000001
3479.7700000000004,STANMORE MEDICAL GROUP,-0.204612,51.913274
1354.3200000000004,PUCKERIDGE & STANDON SURGERY,0.019374,51.888296
1405.96,KING GEORGE SURGERY,-0.206096,51.907416
793.4699999999997,COMMONWEALTH HEALTH CENTRE,0.36308,51.463166
636.9999999999999,KEATS GROUP PRACTICE,-0.17103,51.555534
492.3,BURNT ASH SURGERY,0.009913000000000002,51.452782
1106.2,HILLVIEW MEDICAL CENTRE,-0.557727,51.315501
1250.53,DOWNING STREET GROUP PRACTICE,-0.7989009999999998,51.212905
303.75,ASHBURTON PARK MEDICAL CENTRE,-0.064221,51.384147
1073.02,TAMWORTH HOUSE MEDICAL CENTRE.,-0.146254,51.40122
1106.1899999999996,PARKSIDE PRACTICE,-1.353169,50.970948
683.88,ST.PETERS SURGERY,-1.372792,50.897829
235.88,NEATH HILL HEALTH CENTRE,-0.747321,52.060411
584.9599999999998,BATHEASTON MEDICAL CENTRE,-2.317387,51.406032
1410.2,DARTMOUTH MEDICAL PRACTICE,-3.580811,50.351157
1160.46,DARTFORD EAST HEALTH CENTRE,0.236914,51.440747
1202.64,CHURCH STREET PRACTICE,-0.459783,51.37345
831.98,THE GREYSWOOD PRACTICE,-0.144853,51.419489
791.57,BOLINGBROKE MEDICAL CENTRE (THMP),-0.168282,51.45617
485.25,LEYBOURNE SURGERY,-1.88721,50.758437
1193.73,THE BORDER PRACTICE,-0.740565,51.240995
1616.3,PATFORD HOUSE PARTNERSHIP,-2.005519,51.437601
618.16,CHATHAM STREET SURGERY,-0.981895,51.455924
2514.79,THE CROSS KEYS PRACTICE,-0.830848,51.723655
1292.9199999999996,WHITELADIES MEDICAL GROUP,-2.612382,51.465097
591.18,HILLCREST SURGERY,-2.431687,51.311982
978.52,DEVON SQUARE SURGERY,-3.60508,50.529985
665.09,ESTOVER SURGERY,-4.0952,50.411271
802.29,THE ROYAL WELL SURGERY,-2.0815,51.906706
767.13,APSLEY SURGERY,-2.187008,53.035377
1166.29,THE LIMES SURGERY MEDICAL CENTRE,-2.114052,52.456884
610.1299999999999,ASHFIELD ROAD SURGERY,-2.132841,52.62604399999999
933.06,NORTHGATE MEDICAL CENTRE,-2.892972,53.19509300000001
1126.2199999999998,RIVERSIDE SURGERY,-3.006197,53.372004
766.32,LAYTON MEDICAL CENTRE,-3.027291,53.827425
826.33,HT PRACTICE,-2.110496,53.478305
426.12,WESTLEIGH MEDICAL PRACTICE,-2.526024,53.510851
7.76,MEDICUS HEALTH PARTNERS-CURZON AVENUE,-0.036518,51.645435
462.41,WINDMILL SURGERY,-1.48555,52.449933
522.57,ARNOS GROVE MEDICAL CENTR,-0.129838,51.615476
79.26000000000003,ST.QUINTIN HEALTH CENTRE,-0.220325,51.519199
383.44,PARK COMMUNITY PRACTICE,-1.871717,53.725678
174.61999999999995,NT&H COMM CARDIAC N,-1.227837,54.702398
86.40999999999998,CAMDEN COMMUNITY NURSING,-0.131658,51.53665
20.26,CHELTENHAM LOCALITY NURSE PRESCRIBER,-2.176389,51.847073
101.75,CARDIAC SERVICE STOKE AND NORTH,-2.109085,52.810605
0.8199999999999998,CHESTERFIELD HEALTH PROVIDER LTD,-1.43962,53.233943
249.38,MELROSE SURGERY,-1.287301,54.609397
963.38,BLACKETTS MEDICAL PRACTICE,-1.559007,54.527221
448.19,DR A SINHA,-0.108523,53.567689
808.76,WILLINGTON SURGERY,-1.566835,52.850285
794.5,UPWELL STREET SURGERY,-1.434724,53.406424
770.48,LAKENHAM SURGERY,1.296577,52.6183
1068.0099999999998,MANOR FARM MEDICAL CENTRE,0.690513,52.648544
989.0300000000002,PLOWRIGHT MEDICAL CENTRE,0.686691,52.655577
1303.55,REGAL CHAMBERS SURGERY,-0.275959,51.952843
683.5900000000001,STANHOPE SURGERY,-0.032073,51.688002
267.37,THE GARWAY MEDICAL PRACTICE,-0.185494,51.515392
981.2800000000002,BEECHWOOD SURGERY,0.292731,51.608567
950.48,THE NIGHTINGALE PRACTICE,-0.062434,51.558261
602.9000000000002,THE GRAHAM PRACTICE,0.048721,51.541534
579.28,ISLAND HEALTH,-0.013513,51.495357
1005.35,STANFORD MEDICAL CENTRE,-0.148293,50.838378
1560.39,NEWINGTON ROAD SURGERY,1.399222,51.343459
1678.4299999999996,BELVEDERE MEDICAL CENTRE,0.144376,51.482567
1745.1699999999994,ST.LAWRENCE SURGERY,-0.390026,50.823979
2494.39,MID SUSSEX HEALTH CARE,-0.175279,50.933719
899.52,THE WHITELEY SURGERY,-1.266072,50.88262
3985.47,ACORN HEALTH PARTNERSHIP,-1.114058,51.245047
6398.52,PORTSDOWN GROUP PRACTICE,-1.080952,50.812876
2174.2200000000007,THE ELMS PRACTICE,-0.976476,50.789794
1400.89,ESPLANADE SURGERY,-1.158697,50.731943
473.26,GLASTONBURY HEALTH CENTRE,-2.712893,51.148733
2256.53,MAYFIELD SURGERY,-2.13456,52.982709
756.65,BRIDGE MEDICAL,-1.506726,55.038077
260.32,WINDSOR MEDICAL CENTRE,-1.622157,53.693875
1211.22,ASHBOURNE MEDICAL PRACTICE,-1.737589,53.012862
1170.73,THE UPPINGHAM SURGERY,-0.723557,52.594972
1505.72,ABBEY MEDICAL GROUP,-1.119194,53.100674
995.55,LOWMOOR ROAD SURGERY,-1.244634,53.100062
1584.6699999999996,BIRLEY HEALTH CENTRE,-1.396985,53.340317
1223.41,PARKFIELD MEDICAL CENTRE,-0.179588,51.695129
442.06,REDWOOD PRACTICE,-0.359614,51.461125
252.52,SUNRISE MEDICAL CENTRE,-0.382255,51.51087
1172.0700000000004,THE THORPE BAY SURGERY,0.757986,51.534599
276.31,HOLBORN MEDICAL CENTRE,-0.118539,51.522233
532.0799999999999,BRICK LANE SURGERY,-0.048612,51.657327
393.59,ABBEY COURT,0.26122,51.137755
449.43,ELM LODGE SURGERY,-0.096232,51.451506
1183.6999999999996,HUDSON (SEYMOUR HOUSE),-0.292773,51.462401
1059.66,OPEN DOOR SURGERY,-0.155581,51.443166
1600.3599999999994,THE LIGHTHOUSE GROUP PRACTICE,-1.0805049999999998,50.796551
1480.6199999999994,THE ORCHARD PARTNERSHIP,-1.865867,51.077878
1760.8300000000004,WHADDON MEDICAL CENTRE,-0.7662759999999998,52.000308
728.7799999999999,SONNING COMMON HEALTH CTR,-0.982114,51.515603
1777.5600000000004,LANDER MEDICAL PRACTICE,-5.055864,50.259982
623.15,BROSELEY MEDICAL PRACTICE,-2.481266,52.611554
351.87000000000006,BONEY HAY SURGERY,-1.926768,52.690328
669.6,BEECH TREE MEDICAL PRACTICE,-1.252936,52.377534
435.34,ALUM ROCK MEDICAL CENTRE,-1.850664,52.489901
124.96999999999998,GREENFIELD MEDICAL CENTRE,-1.855764,52.491684
470.88999999999993,THE SURGERY,-2.605295,53.024859
987.25,PARKGATE SURGERY,-2.882743,53.564772
720.3200000000002,MARPLE MEDICAL PRACTICE,-2.064954,53.39495
4.1,STORTHFIELD HOUSE,-1.332746,53.097559
121.14,CLOVER CITY PRACTICE,-1.46659,53.38187
4.76,NEWARK ACUTE HOME VISITING SERVICE,-1.238124,52.98146
823.0699999999998,ASPATRIA MEDICAL GROUP,-3.337992,54.762123
2447.1,WILLIAM BROWN CENTRE,-1.33142,54.757994
709.36,WELLSPRING MEDICAL PRACT.,-1.564066,55.037289
410.48,RED HOUSE MEDICAL CENTRE,-1.424063,54.925457
1478.5799999999995,COLNE VALLEY GROUP PRACTICE,-1.9282130000000002,53.602096
294.13,FAMILY DOCTORS,-1.440964,53.798248
1349.4700000000005,ROYSTON GROUP PRACTICE,-1.451018,53.600005
482.36000000000007,SOUTHEY GREEN MEDICAL CTR,-1.477666,53.419051
1160.61,IVRY STREET MEDICAL PRACTICE,1.148624,52.064021
590.57,NORTH FULHAM SURGERY,-0.199224,51.486415
102.32,FULHAM CROSS MEDICAL CENTRE,-0.214067,51.482774
185.62000000000003,LAI CHUNG FONG QUEENS PARK HEALTH CENTRE,-0.205826,51.530911
1106.15,NEWBURY GROUP PRACTICE,0.085981,51.576435
2656.63,HARDWICKE HOUSE GROUP PRACTICE,0.725792,52.0382
1734.78,WHEATFIELD SURGERY,-0.495144,51.904445
510.22,BRAMPTON HEALTH CENTRE,-0.277386,51.586099
326.15,DOCKLANDS MEDICAL CENTRE,-0.021143,51.491152
1057.52,BELMONT SURGERY,0.340829,51.061952
452.6499999999999,LONG CATLIS ROAD SURGERY,0.595579,51.348325
964.38,ABBEY WOOD SURGERY,0.11653,51.497094
517.3700000000001,WOOLSTONE MEDICAL CENTRE,-0.036776,51.438421
1082.75,MINET GREEN HEALTH PRACTICE,-0.105204,51.475715
727.7300000000001,SOUTHGATE MEDICAL GROUP,-0.194559,51.102316
1387.12,NEW ADDINGTON GROUP PRACTICE,-0.018557,51.344382
523.79,BANBURY ROAD MEDICAL CENTRE,-1.263535,51.774771
3033.53,THE ARMADA FAMILY PRACTICE,-2.571861,51.413438
1385.63,STAFFORD MEDICAL GROUP,-2.914755,51.35259
1078.01,BROCKWORTH SURGERY,-2.156696,51.844575
2344.9,SEVERN VALLEY MEDICAL PRACTICE,-2.235045,52.190415
2232.76,DAWLEY MEDICAL PRACTICE,-2.466781,52.664322
1153.3000000000004,LEEK HEALTH CENTRE,-2.019347,53.105691
538.7800000000001,CHASE MEADOW HEALTH CENTRE,-1.608604,52.268838
128.9,HILL TOP PRACTICE,-2.011775,52.537791
556.95,MAGHULL HEALTH CENTRE (DR SAPRE),-2.943932,53.515597
736.17,LIME SQUARE MEDICAL CENTRE,-2.164901,53.473649
212.23,WINDERMERE SURGERY,-2.205709,53.55956
493.6499999999999,BEESTON VILLAGE SURGERY,-1.569152,53.772415
122.39,HATTON MEDICAL PRACTICE,-0.433285,51.457879
490.29,BLURTON MEDICAL CENTRE,-2.156565,52.972002
18.71,GREAT CHAPEL STREET MEDICAL CENTRE,-0.134097,51.51508
2.02,HASTINGS AND ROTHER OOH,0.891514,51.129106
2004.22,BIRBECK MEDICAL GROUP,-2.742581,54.656125
552.8299999999999,BEWICK ROAD SURGERY,-1.601653,54.956398
605.61,WENLOCK ROAD SURGERY,-1.455226,54.972635
1505.1799999999996,WINTERTON MEDICAL PRACTICE,-0.606876,53.652511
529.12,THE OLD SCHOOL MEDICAL PRACTICE,-1.1424040000000002,53.916163
1078.9499999999996,KEIGHLEY ROAD SURGERY,-1.893907,53.754239
1195.5,MULBERRY STREET MEDICAL PRACTICE,-1.66397,53.794738
1038.0199999999998,CHATSWORTH ROAD MEDICAL CENTRE,-1.467337,53.231374
925.81,CRICH MEDICAL PRACTICE,-1.482573,53.084327
935.75,MEXBOROUGH HEALTH CENTRE,-1.279795,53.494237
1729.7799999999993,ST VINCENT MEDICAL CENTRE,-1.124029,53.525476
1016.7300000000004,LUDHAM AND STALHAM GREEN SURGERIES,1.534423,52.709131
5.74,HAVEN COURT,-1.428468,54.971208
1011.34,BENTHAM ROAD HEALTH CENTRE,-2.50627,53.73058399999999
714.9,CRESWELL AND LANGWITH MEDICAL CENTRE,-1.215835,53.262654
33.39999999999999,UHMB COMMUNITY NMP,-2.799232,54.042726
1336.3200000000004,NORWOOD MEDICAL CENTRE,-3.222974,54.119201
803.12,BEECHWOOD GROUP PRACTICE,-3.545472,54.642376
1902.74,DENMARK STREET SURGERY,-1.552252,54.538825
1784.9900000000002,WELL CLOSE MEDICAL GROUP,-2.006127,55.77245799999999
1225.1100000000004,PALLION FAMILY PRACTICE,-1.414195,54.908604
466.61,PICTON MEDICAL CENTRE,-1.77624,53.807296
1692.6899999999996,PARKSIDE MEDICAL CENTRE,-0.021998,52.981526
2140.09,ORCHARD MEDICAL PRACTICE,-1.206764,53.141121
1460.9799999999998,THE BURNS PRACTICE,-1.12309,53.520707
1181.5500000000004,WINCOBANK MEDICAL CENTRE,-1.416316,53.419405
394.3,UEA MEDICAL CENTRE,1.241391,52.622369
562.49,THE VILLAGE SURGERY,-0.168135,51.648069
391.71,THE STREATFIELD MEDICAL CENTRE,-0.30083,51.595343
501.77,THE CHELSEA PRACTICE,-0.166915,51.486814
2525.28,ST. BARTHOLOMEWS SURGERY,0.051755,51.532409
1257.54,RYDAL,0.020102,51.608432
1283.84,GROSVENOR & ST JAMES MEDICAL CENTRE,0.264349,51.137424
606.1000000000001,KING GEORGE ROAD SURGERY,0.518518,51.348911
413.8299999999999,THE THREE ZERO SIX MEDICAL CENTRE,-0.076403,51.450741
848.93,VIRGINIA WATER MEDICAL PRACTICE,-0.568235,51.403367
780.18,NEW OTTERSHAW SURGERY,-0.526005,51.361938
271.61,THE ALTON PRACTICE,-0.239471,51.44914
5515.99,THE WILLOW GROUP,-1.143034,50.800579
1214.4399999999996,ALEXANDER HOUSE SURGERY,-0.7520019999999998,51.293749
1452.97,RIDGEWAY VIEW FAMILY PRACTICE,-1.7915709999999998,51.524175
922.16,GREEN MEADOWS SURGERY,-0.677163,51.426939
1097.14,PORT VIEW SURGERY,-4.214351,50.40735
1547.58,CHURCHDOWN SURGERY,-2.171559,51.882487
1214.2000000000005,STANMORE HOUSE SURGERY,-2.231468,52.391138
1357.34,WARGRAVE HOUSE SURGERY,-2.712261,52.055418
573.5000000000001,VENTNOR MEDICAL CENTRE,-1.203791,50.594548
1031.9700000000003,THE HALL PRACTICE,-0.561016,51.606986
1318.55,WEST VIEW SURGERY,-2.50212,51.411923
570.4200000000002,HARTLAND SURGERY,-4.482549,50.992721
1887.18,STATION DRIVE SURGERY,-2.715141,52.370132
3722.95,SOLIHULL HEALTHCARE PARTNERSHIP,-1.775235,52.419642
864.3,CONCEPT HOUSE SURGERY,-2.98492,53.449136
1189.52,ADELAIDE STREET SURGERY,-3.048397,53.817351
1025.45,LOCKWOOD GP SURGERY,-2.989833,53.850947
203.93,CAVENDISH HEALTH CENTRE,-0.148092,51.519331
785.6300000000001,BROWNLOW GROUP PRACTICE,-2.96585,53.405021
599.32,HEATHROW MEDICAL CENTRE,-0.433924,51.49302
474.25999999999993,THE ENTERPRISE PRACTICE,-0.320613,51.601113
1009.11,ODDFELLOWS HALL & ST CLEMENTS,0.327906,51.480703
3.85,COMMUNITY GERIATRICIAN SERVICE,-1.568473,53.81497099999999
729.47,CHAUCER SURGERY,-1.45237,52.515151
855.0,THE ENDEAVOUR PRACTICE,-1.235397,54.575047
1266.1799999999996,THE LAKES MEDICAL PRACTICE,-2.742581,54.656125
712.78,EAST PARADE SURGERY,-1.529793,53.996354
419.84,FIELDHEAD SURGERY,-1.639379,53.831787
628.7000000000002,BASLOW HEALTH CENTRE,-1.617823,53.246144
2572.5499999999993,OSMASTON SURGERY,-1.467954,52.911084
350.56999999999994,ASQUITH SURGERY,-1.117116,52.601489
1693.9999999999998,HOLBEACH MEDICAL CENTRE,0.014430000000000002,52.804778
416.51,YEADING MEDICAL CENTRE,-0.397019,51.533634
206.97,MAYFAIR MEDICAL CENTRE,-0.150172,51.513536
837.5399999999998,SUN LANE,1.087469,51.071536
613.82,LYDDEN SURGERY,1.23991,51.163193
891.5399999999998,THE CHURCH VIEW PRACTICE,0.609995,51.363412
308.76,TRIANGLE GROUP PRACTICE,-0.011071,51.457798
1348.76,SELSDON PARK MEDICAL PRACTICE,-0.06457300000000002,51.342409
736.58,LAMBOURN SURGERY,-1.526933,51.504696
1568.2900000000004,BICESTER HEALTH CENTRE,-1.157239,51.896742
1008.57,FOWEY RIVER PRACTICE,-4.635394,50.337915
1403.2300000000002,KNOWLE HOUSE SURGERY,-4.134098,50.40863
1206.12,HOLTS HEALTH CENTRE,-2.406966,51.931555
1561.2899999999993,CUMBERLAND HOUSE,-2.145844,52.901549
1488.65,BILBROOK MEDICAL CENTRE,-2.181749,52.624775
450.89,VALE OF RED HORSE,-1.510351,52.15797
2140.15,BALSALL COMMON & MERIDEN GROUP PRACTICE,-1.643862,52.394956
838.0599999999998,LANCE LANE MEDICAL CENTRE,-2.911916,53.396196
400.01,DR A GUPTA BENIM MEDICAL CENTRE,-2.947804,53.419395
1446.2299999999998,DINAS LANE MEDICAL CENTRE,-2.861513,53.417388
4338.1,LANCASTER MEDICAL PRACTICE,-2.797202,54.047583
330.96,DR GWD BHIMA,-2.154239,53.611617
1667.5099999999998,RIVERSIDE MEDICAL CENTRE,-2.672299,53.748112
443.85,LITTLETOWN FAMILY MED PRACT,-2.134298,53.529137
1266.5,NEW COURT SURGERY,-2.30878,52.113538
559.07,THE BARHAM & CLAYDON SURGERY,1.109866,52.110175
1129.85,SWANWOOD PARTNERSHIP,0.519034,51.613356
230.63,NIGHTINGALE HOUSE,-0.159747,51.449354
431.9700000000001,CROWN WOOD MEDICAL CENTRE,-0.736934,51.395919
7.79,CITY REACH HEALTH SERVICES,1.288137,52.633042
648.37,THE JUNCTION SURGERY,-1.759212,53.643662
13.79,DORKING HEALTHCARE LLP,-0.333421,51.225985
7.26,BADGER GROUP OOH,-1.8778259999999998,52.477589
18.35,DURNFORD DERMATOLOGY CATS,-2.197033,53.554038
653.64,GREAT BRIDGE HEALTH CENTRE,-2.02775,52.527792
18.74,PELC REDBRIDGE OOH,0.066648,51.55684
35.12,NON MEDICAL PRESCRIBING SOUTHEND CCG,0.702782,51.583955
220.97000000000003,COMMUNITY NURSING (SOUTH TEES),-1.215564,54.570237
829.39,GREENWOOD SURGERY,0.605168,51.653143
10.92,EN HERTS ACUTE IN-HOURS VISITING SERVICE,-0.191727,51.782567
1.64,PARTNERSHIP STOKE,-2.109085,52.810605
18.54,MERTON CCG-CLCH (NMP),-0.199155,51.47377
1407.01,MIDDLE CHARE MEDICAL GROUP,-1.573113,54.855636
617.7500000000001,I J HEALTHCARE,-1.531354,54.88104
330.57000000000005,OAK GLEN SURGERY,-1.816352,53.854799
1398.9499999999994,WELLINGTON HOUSE,-1.634561,53.714775
1392.46,SKELMANTHORPE FAMILY DOCTORS,-1.650686,53.591604
1778.8900000000006,LEIGH VIEW MEDICAL PRACTICE,-1.558358,53.728574
268.75,OAKWOOD SURGERY,-1.4290459999999998,52.941386
723.0499999999998,THE KAKOTY PRACTICE,-1.473444,53.5464
449.07,PHOENIX PRIMARY CARE (SOUTH) LTD,-0.435422,51.918016
0.41,NEWCASTLE GP IN MOLINEUX WIC,-1.583491,54.977507
1.64,NORTH NORFOLK HUB 2 (BIRCHWOOD),1.38334,52.820065
412.22,GILDERSOME HEALTH CENTRE,-1.6293,53.756554
1110.67,HAZELMERE MEDICAL CENTRE,-1.16453,52.57337
974.2600000000001,BURNGREAVE SURGERY,-1.459815,53.393327
698.73,FELTWELL SURGERY,0.527056,52.48268
899.9099999999999,QUEENS PARK HEALTH CENTRE,-0.493075,52.133151
554.27,ALBANY PRACTICE,-0.310054,51.48676
340.49,CASSIDY ROAD MEDICAL CENTRE,-0.199015,51.479154
3693.42,COLCHESTER MEDICAL PRACTICE,0.909325,51.890029
753.85,ROWHEDGE SURGERY,0.945058,51.85767
390.52000000000015,DR VM PATEL,0.228776,51.561113
237.84000000000003,THE HEATHCOTE PRIMARY CARE CENTRE,0.062768,51.593832
629.71,ESHER GREEN SURGERY,-0.370196,51.375782
128.3,CHILDS (THAMESIDE),-0.326599,51.427449
699.4300000000002,THE CHESSER SURGERY,-0.177303,51.374927
1388.6699999999994,MOREDON MEDICAL CENTRE,-1.8070689999999998,51.582197
1107.14,ASHFIELD MEDICAL CENTRE,-0.7382729999999998,52.019666
1389.87,BUGBROOKE MEDICAL PRACTICE,-1.005426,52.211409
1569.53,TRESCOBEAS SURGERY,-5.085333,50.15531
790.5600000000002,BUDSHEAD MEDICAL PRACTICE,-4.150289,50.417443
670.1,TEIGN ESTUARY MEDICAL GROUP,-3.496462,50.5456
844.6500000000002,MITCHELDEAN SURGERY,-2.488369,51.865935
1272.3000000000004,LUSON,-3.229566,50.977398
1809.24,HARESFIELD HOUSE SURGERY,-2.202996,52.194829
523.61,HEDNESFORD MEDICAL PRACTICE,-2.000697,52.71233
1723.06,LAUREL HOUSE SURGERY,-1.692825,52.636563
1419.2799999999993,HANDSWORTH WOOD MED.CTR.,-1.928196,52.51303299999999
375.56000000000006,ROTTON PARK MEDICAL CENTRE,-1.947079,52.482162
1215.67,LONGFORD PRIMARY CARE CENTRE,-1.48555,52.449933
2705.66,TETTENHALL MEDICAL PRACTICE,-2.159502,52.600723
2264.4,READESMOOR MEDICAL GROUP PRACTICE,-2.216792,53.163762
929.95,NEWTOWN SURGERY,-2.735705,53.362158
2242.0,ROPE GREEN MEDICAL CENTRE,-2.453958,53.06655
514.91,PENNY LANE SURGERY,-2.915004,53.389404
598.65,ABINGDON FAMILY HEALTH CARE CENTRE,-2.943503,53.440571
1608.6400000000006,WINGATE MEDICAL CENTRE,-2.874647,53.488385
2187.37,AINSDALE MEDICAL CENTRE,-3.03882,53.602403
277.25,CORNERSTONE SURGERY,-2.457402,53.58815500000001
719.44,BARLBOROUGH MEDICAL PRACTICE,-1.284471,53.289528
201.85,VICTORIA PARK HEALTH CENTRE,-1.1192,52.619071
828.5199999999999,THE WRAGBY SURGERY,-0.301337,53.287948
2289.97,SOUTH GRANGE MEDICAL GROUP PRACTICE,-1.166506,54.56995500000001
783.62,QUEEN STREET MEDICAL PRACTICE,-3.589063,54.546567
461.06,OLD FORGE SURGERY,-2.079758,54.623041
364.77,EGTON SURGERY,-0.7552379999999999,54.445555
752.2099999999998,VESPER ROAD,-1.615337,53.827318
481.2900000000001,GLADSTONE HOUSE SURGERY,-1.307927,52.968816
289.28,THE PRACTICE-SAYEED,-1.106589,52.63081700000001
1045.87,GLEADLESS MEDICAL CENTRE,-1.451325,53.356551
864.8700000000001,TRAMWAYS AND MIDDLEWOOD MEDICAL CENTRES,-1.515268,53.418958
543.0799999999999,LANGSTONE WAY SURGERY,-0.210815,51.606981
370.78,ELMTREES SURGERY,-0.335968,51.550787
2239.870000000001,TULASI MEDICAL CENTRE,0.12448900000000002,51.561005
460.13000000000005,THE MILLER PRACTICE,-0.092165,51.551419
1149.9300000000005,WARRIOR SQUARE SURGERY,0.562007,50.852963
1454.78,SNODLAND MEDICAL PRACTICE,0.441488,51.326053
1114.35,SUTTON VALENCE GROUP PRACTICE,0.59403,51.211195
886.72,LEITH HILL PRACTICE,-0.322969,51.150452
1453.9899999999998,THE GROVES MEDICAL CENTRE,-0.26224,51.410048
1121.11,THE MARINE & OAKRIDGE PARTNERSHIP,-1.806532,50.722838
405.35,MALTHOUSE MEADOWS SURGERY,-2.568038,50.668698
1073.91,THE STAUNTON SURGERY,-0.978019,50.851067
962.5,PORT ISAAC SURGERY,-4.824594,50.589808
809.9399999999998,THE CORINTHIAN SURGERY,-2.0815,51.906706
1527.25,ST JOHNS HOUSE SURGERY,-2.25911,52.18874
954.9,CASTLEFIELDS,-2.129518,52.801013
837.2199999999998,ADDERLEY GREEN SURGERY,-2.135511,52.991714
799.4799999999998,HARBURY SURGERY,-1.458027,52.236759
355.0900000000001,DR BILAS,-2.063063,52.612824
2.46,HOSP.OF THE GOOD SHEPHERD,-2.901692,53.242544
1492.47,BLUNDELLSANDS SURGERY,-3.041273,53.484452
1412.0899999999995,QUEEN SQUARE MEDICAL PRACTICE,-2.800994,54.046219
277.74,DILL HALL SURGERY,-2.390844,53.754996
787.5800000000002,WEST TIMPERLEY MEDICAL CENTRE,-2.353117,53.402699
527.9899999999999,MARUS BRIDGE PRACTICE,-2.643772,53.529393
437.2099999999999,SUMMERLEE MEDICAL CENTRE,-0.652145,52.337022
40.46000000000001,HEALTH E1,-0.07152500000000002,51.518304
388.44000000000005,SLAG LANE MC,-2.575634,53.47856899999999
221.26,THE GRANGE MEDICAL CENTRE,-0.262039,52.57839
76.39,CAXTON HOUSE SURGERY,-1.382415,53.575347
1.22,OUT OF HOURS CENTRE,-1.842798,54.869081
3.53,ALEX CENTRE UNREGISTERED WIC,-0.369696,51.568372
870.01,WESTCOTES MEDICAL CENTRE,-1.153587,52.63133199999999
3.51,WEST MERTON ACCESS HUB,-0.210281,51.409967
12.43,SAFECARE NETWORK,-0.647232,53.568261
885.57,REDGATE MEDICAL CENTRE,-2.987659,51.126385
983.0299999999999,GREAT WITLEY SURGERY,-2.361004,52.291152
926.44,MADELEY PRACTICE,-2.345126,52.999856
1073.98,GREEN RIDGE SURGERY,-1.8710349999999998,52.428433
764.6699999999998,RIVER BROOK MEDICAL CENTRE,-1.913809,52.43303
635.6400000000001,BUNBURY MEDICAL PRACTICE,-2.649377,53.116827
714.3000000000002,MURDISHAW,-2.662128,53.323997
621.3799999999999,ROCK COURT SURGERY,-2.916187,53.411597
880.34,POPLAR HOUSE SURGERY,-3.03076,53.754721
1687.37,QUEENSWAY MEDICAL CENTRE,-2.995384,53.846569
1251.85,CASTLETON HEALTH CENTRE,-2.18229,53.597034
1014.43,HAVEN HEALTH,1.327039,51.96536
912.54,DR KK CHAN & PARTNERS,-2.489022,53.524185
46.85999999999999,DANEHOUSE MEDICAL PRACTICE,-2.238948,53.791326
895.0100000000001,SWANSWELL MEDICAL CENTRE,-1.816529,52.432515
450.30000000000007,DR MALIK - KENT ELMS HC,0.664114,51.563831
469.46,CITY ROAD MEDICAL CENTRE,-0.091116,51.527895
2.02,SALFORD GP OUT OF HOURS,-2.323424,53.487545
25.83,LEICESTER CITY ASSIST PRACTICE,-1.136115,52.637338
545.44,BOTOLPH BRIDGE COMMUNITY HEALTH CENTRE,-0.261557,52.562595
128.72000000000003,SHORTSTOWN MEDICAL CENTRE,-0.432463,52.110853
4.99,MK URGENT CARE SERVICES OOH,-0.7357599999999997,52.026384
43.51000000000001,NOTTINGHAM CITYCARE,-1.155769,52.951832
2.05,ASHTON PCC SEVEN DAY ACCESS OOH,-2.099981,53.485827
1.03,VC SKELMERSDALE UCC,-2.773401,53.549935
1560.5400000000004,THE HAWTHORNS SURGERY,-1.825965,52.538746
1464.9299999999996,PARK HOUSE MEDICAL CENTRE,-2.805295,53.42670699999999
726.34,SOUTH KING STREET MEDICAL CENTRE,-3.047855,53.816775
802.3499999999998,DR A CALOW'S PRACTICE,-2.503837,53.742584
724.1,GUTTERIDGE MEDICAL CENTRE,-2.691248,53.769881
645.2099999999998,ST MARY'S MEDICAL CENTRE,-2.108554,53.543625
1577.3199999999995,CHEADLE MEDICAL PRACTICE,-2.213539,53.393745
824.84,GREEN STREET GREEN MED CT,0.089996,51.354366
448.5,3/ST ANDREWS MEDICAL CENTRE,-2.339619,53.484875
955.47,HORIZON HEALTH CENTRE,-2.965121,51.331294
38.87,ANN MARIE HOWES CENTRE,-1.7785380000000002,52.464805
206.13,BLACKFRIARS,-2.254244,53.484135
73.45999999999998,BEDSER HUB,-0.556304,51.315132
0.62,HARROW RAPID RESPONSE SERVICE,-0.294546,51.596988
6.15,AIREBOROUGH COMMUNITY CARE,-1.684881,53.866663
677.1700000000002,CALDBECK SURGERY,-3.050622,54.749864
947.65,OXFORD STREET SURGERY,-3.5505760000000004,54.64373
61.98,WRAYSDALE HOUSE SURGERY,-3.076077,54.367247
1728.11,SAVILLE MEDICAL GROUP,-1.609598,54.976095
534.14,COOK BF,-0.357512,53.780969
371.17,PEELER HOUSE SURGERY,-0.438756,53.72252
1003.89,DR INGRAM & PTRS,-1.526892,54.136451
2123.46,LINGWELL CROFT SURGERY,-1.535053,53.749986
529.5500000000001,HOUNSFIELD SURGERY,-0.811033,53.183702
657.6400000000001,LENSFIELD MEDICAL PRACTICE,0.124449,52.198365
1025.2199999999998,CEDAR BROOK PRACTICE,-0.41413199999999994,51.534092
16.84,THE ROYAL MEWS SURGERY,-0.145223,51.498764
735.0399999999998,ROSE VILLA SURGERY,0.506616,51.566232
884.0299999999999,ADELAIDE MEDICAL CENTRE,-0.161257,51.543548
282.7600000000001,DR DHITAL PRACTICE,-0.003074,51.587786
331.77,HOLLINGTON SURGERY,0.872487,51.151423
1262.5500000000004,WOODLANDS HEALTH CENTRE,0.38485,51.18077
310.11,NORHEADS LANE SURGERY,0.026739,51.314542
579.63,HARTLAND WAY SURGERY,-0.045782,51.374372
666.6700000000002,BOYATT WOOD SURGERY,-1.36001,50.977856
625.55,COLVILLE HEALTH CENTRE,-0.206231,51.515837
828.5399999999998,BRICKFIELDS SURGERY,0.605168,51.653143
668.19,TYNEMOUTH MEDICAL PRACTICE,-0.068331,51.586253
2224.96,TRINITY MEDICAL CENTRE,-0.172008,50.831228
1515.7200000000007,THE CEDARS SURGERY,1.403174,51.217619
518.9300000000001,THE KINGS FAMILY PRACTICE,0.534548,51.377821
900.2200000000001,FOUNTAIN PRACTICE,-0.252307,51.350378
512.0899999999999,ST ALBANS MEDICAL CENTRE,-0.302479,51.42195
1731.58,ORCHID HOUSE SURGERY,-1.894499,50.801788
2312.75,THE HADLEIGH PRACTICE,-1.993525,50.761018
2323.7,THREE CHEQUERS MEDICAL PRACTICE,-1.794625,51.071924
1849.99,WEAVERS MEDICAL,-0.733538,52.401531
1918.78,NUFFIELD HEALTH CENTRE,-1.486793,51.786441
3301.58,BARTON SURGERY,-3.473818,50.579848
2388.2500000000005,BIDEFORD MEDICAL CENTRE,-4.211785,51.017201
1408.67,CORBETT MEDICAL PRACTICE,-2.148792,52.263269
3239.09,THE WESTGATE PRACTICE,-1.821176,52.683537
710.74,COBRIDGE SURGERY,-2.187008,53.035377
214.26,BURBURY MEDICAL CENTRE,-1.9103740000000002,52.502215
1400.29,PLECK HEALTH CENTRE,-1.9980380000000002,52.574248
402.82,CORNERSTONE SURGERY,-2.724149,53.454211
174.79,HIGHER HEYS SURGERY,-2.394094,53.740865
1358.0900000000004,ALBION MEDICAL PRACTICE,-2.088476,53.48960400000001
1656.6299999999994,DELAMERE MEDICAL PRACTICE,-2.307365,53.450887
576.5899999999998,240 WEXHAM ROAD,-0.57838,51.516902
472.1600000000001,LONGFIELD MEDICAL PRACTICE,-2.28357,53.533828
1201.4399999999996,THISTLEMOOR MEDICAL CENTRE,-0.254566,52.595274
31.46,PALACCI (CASTELNAU),-0.238274,51.476873
363.73,CANTERBURY HEALTH CENTRE,1.082981,51.274249
249.31,BANBURY HEALTH CENTRE,-1.334014,52.062032
461.37,BRERETON SURGERY,-1.924317,52.747482
112.43,THE LAWNS SURGERY,-0.502907,50.807746
555.29,OAK TREE HEALTH CENTRE,-1.2409629999999998,51.614986
509.86,THE TRINITY MEDICAL PRACTICE,0.760305,51.684982
378.05,SOHO HEALTH CENTRE,-1.934945,52.503094
3.78,BARNET COPD SERVICE,-0.271242,51.606493
1.12,BECKENHAM BEACON URGENT CARE CENTRE,-0.033209,51.405232
301.77,BRIERLEY MEDICAL CENTRE,-1.382484,53.594188
4.92,NORWICH IMPROVED ACCESS HUB,1.319958,52.632405
44.52,BRAMLEY COMMUNITY CARE BEDS,-1.623032,53.80781999999999
480.97,METRO INTERCHANGE SURGERY,-1.602943,54.961848
1484.7199999999993,BRIDGE VIEW MEDICAL GROUP,-1.401824,54.919455
843.4699999999998,QUAKERS LANE SURGERY,-1.741713,54.406363
1826.69,HOLLYNS HEALTH & WELLBEING - CLAYTON,-1.81454,53.779166
988.09,BRIDGE STREET MEDICAL PRACTICE,-1.20716,52.774841
1322.43,CAYTHORPE & ANCASTER MEDICAL PRACTICE,-0.536327,52.981851
1139.3399999999995,PARSON DROVE SURGERY,0.050459,52.660947
643.42,PRIORS FIELD SURGERY,0.124169,52.388951
865.8600000000001,DAVENPORT HOUSE SURGERY,-0.354549,51.816177
1420.4,MILLWAY MEDICAL PRACTICE,-0.24359099999999997,51.614985
608.86,TEMPLE FORTUNE MEDICAL GROUP,-0.197845,51.581101
1.64,MOULSHAM LODGE SURGERY,0.475137,51.716565
229.7,WARRIOR SQUARE SURGERY,0.716503,51.539534
146.20999999999995,BRAYFORD SQUARE SURGERY,-0.050404,51.514375
501.80000000000007,YORK ROAD SURGERY,0.065859,51.559165
1766.1999999999996,WEST MALLING GROUP PRACTICE,0.407707,51.293351
814.23,ELMDENE SURGERY,0.263153,51.446098
779.6099999999999,MOAT HOUSE SURGERY,-0.146361,51.259819
375.22,ALEXANDRA SURGERY,-0.205887,51.422912
1048.84,DENHAM MEDICAL CENTRE,-0.502236,51.584564
1056.43,CHEW MEDICAL PRACTICE,-2.629195,51.35619
1311.4199999999996,ST.GEORGE'S SURGERY,-2.0815,51.906706
1228.29,CHARING SURGERY,0.791374,51.20971
523.05,THAMES AVE SURGERY,0.603057,51.36344
2438.4,CANTERBURY MEDICAL PRACTICE,1.128982,51.245539
224.48,TRAFALGAR SURGERY,-0.074414,51.485672
725.4199999999998,THE ORCHARD PRACTICE,-0.303542,51.369116
1314.8,BALHAM PARK SURGERY,-0.155715,51.440487
117.93,UNIVERSITY HEALTH SERVICE,-1.395714,50.934099
719.5400000000002,LINDEN MEDICAL CENTRE,-0.737415,51.530813
597.2000000000002,OBSERVATORY MEDICAL PRACTICE,-1.265958,51.760293
288.3400000000001,CROPREDY SURGERY,-1.320027,52.116731
2656.72,HEART OF BATH,-2.373947,51.376364
964.3900000000001,BIRCHWOOD MEDICAL PRACTICE,-2.547938,51.446246
598.28,LOSTWITHIEL SURGERY,-4.668763,50.407892
644.85,ST SAVIOURS SURGERY,-2.308488,52.130324
1805.64,WERRINGTON VILLAGE SURGERY,-2.098023,53.021659
698.6799999999998,WEST HEATH SURGERY,-1.96202,52.401797
325.76,WEST PARK SURGERY,-2.141256,52.587783
429.7000000000001,THE MARSHSIDE SURGERY,-2.963125,53.67143299999999
798.1899999999998,MERSEYBANK SURGERY,-2.263012,53.42276
871.9700000000001,THE GROVE ROAD PRACTICE,-0.202341,51.358201
305.24,MOOR PARK MEDICAL PRACTICE,-1.7218490000000002,53.797834
285.4100000000001,UPTON ROCKS PRIMARY CARE,-2.754371,53.373367
348.1700000000001,HANLEY PRIMARY CARE CENTRE,-0.12083699999999999,51.567951
477.26,LEYLAND SURGERY,-2.709316,53.689645
41.95,COMMUNITY NURSING,-0.670796,53.57972
6.35,HP NMP'S RUSH CCG,-1.143101,53.130244
804.1799999999998,WELLSBOURNE HEALTHCARE CIC,-0.107386,50.825445
493.02,CHEVIOT MEDICAL GROUP,-2.01842,55.546525
2606.92,THE CENTRAL SURGERY BARTON,-0.439445,53.684236
330.07,DEARNE VALLEY HEALTH CENTRE,-1.626482,53.588349
871.66,MICKLEOVER MEDICAL CENTRE,-1.54633,52.907111
164.26,THE UNIV OF NOTTINGHAM HEALTH SERV,-1.195942,52.942177
727.1499999999999,LISTER HOUSE SURGERY,-0.4515,51.89192
409.75,THE ELMS SURGERY,-0.404224,51.661642
767.05,HOUNSLOW MEDICAL CENTRE,-0.37684,51.469395
365.6,P A PATEL SURGERY,0.582273,51.56978
242.88,SANCTA MARIA MEDICAL CENTRE,0.284011,51.507882
2850.78,SEAFORD MEDICAL PRACTICE,0.099275,50.772678
1855.91,BUXTED MEDICAL CENTRE,0.132095,50.989406
132.26,NEW INN SURGERY,-0.545657,51.257698
550.57,THE WHITEHORSE PRACTICE,-0.097391,51.385869
776.83,THE HEALTH CENTRE,-0.19711,51.363031
1485.7699999999998,WEST END ROAD SURGERY,-1.359281,50.916702
1957.89,TOWER HOUSE SURGERY,-0.770004,51.636372
1833.6800000000005,CHURCH STREET PRACTICE,-1.425847,51.598763
483.87000000000006,CLINTON ROAD SURGERY,-5.224966,50.23093
1411.35,PINHOE SURGERY,-3.469622,50.737528
2538.65,ROSEBANK HEALTH,-2.242194,51.852611
706.4700000000001,MAPLE VIEW MEDICAL PRACTICE,-1.905693,52.31659
575.02,PRESCOTT SURGERY,-2.852689,52.784345
154.84,BLOOMSBURY HEALTH CENTRE,-1.876618,52.493743
555.86,HEATON ROAD SURGERY,-1.579814,54.978269
802.39,49 MARINE AVENUE SURGERY,-1.451082,55.046268
809.21,HOUGHTON MEDICAL GROUP ,-1.469175,54.842322
1101.36,HOWDEN MEDICAL PRACTICE,-0.8694039999999998,53.744175
425.25,HANCOCKS ME,-0.41296400000000005,53.782123
1769.1900000000005,THE WILSDEN MEDICAL PRACTICE,-1.86138,53.818377
289.47,COLSTERWORTH SURGERY,-0.619356,52.806388
494.66,LUNDWOOD MEDICAL CENTRE PMS PRACTICE,-1.438538,53.557711
682.69,GREASBROUGH MEDICAL CENTRE,-1.372776,53.452893
759.22,WELLSIDE SURGERY,-0.28478,52.440324
864.6200000000001,CLARE GUILDHALL SURGERY,0.580469,52.078259
677.03,LATTIMORE & VILLAGE SURGERY,-0.298547,51.726244
174.58,SOMERSET MEDICAL CENTRE,-0.371127,51.522244
1487.9400000000005,CENTRAL UXBRIDGE SURGERY,-0.475739,51.546229
1135.7199999999998,WEST MERSEA SURGERY,0.9193420000000002,51.778349
1397.4199999999996,HIGHLANDS SURGERY,0.637339,51.548005
991.13,BALLARDS WALK SURGERY,0.441841,51.573232
2399.17,DOWNLANDS MEDICAL CENTRE,0.244085,50.822919
972.95,OTFORD MEDICAL PRACTICE,0.191446,51.31358
375.8400000000001,THE HALFWAY SURGERY,0.524157,51.380429
654.05,BURNEY STREET PMS,-0.009168,51.479034
665.3399999999998,ELIZABETH HOUSE MEDICAL PRACTICE,-0.050005,51.308093
201.2,ADDINGTON MEDICAL PRACTICE,-0.018557,51.344382
113.26,SARAJLIC (STAINES ROAD),-0.357923,51.439672
3117.6800000000007,ROYAL CRESCENT SURGERY,-2.452679,50.616587
1022.85,TWYFORD SURGERY,-1.314229,51.019421
117.97,ABBEY MEDICAL CENTRE,-0.982406,51.453949
570.09,ST.BARTHOLOMEWS MEDICAL CENTRE,-1.232108,51.747668
3532.17,THE DOWNEND HEALTH GROUP,-2.505301,51.485109
1029.73,IDE LANE SURGERY,-3.534972,50.699471
746.73,THE ARROW SURGERY,-1.861382,52.218546
1163.6699999999996,DR SN CLAY AND PARTNERS,-1.832005,52.528641
598.4400000000002,WILLENHAL OAK MEDICAL CENTRE,-1.463131,52.388988
1154.63,WORDSLEY GREEN HEALTH CENTRE,-2.164692,52.480602
2708.25,THE OVER-WYRE MED.CTR.,-2.976492,53.928203
731.32,FISHERGATE HILL SURGERY,-2.714363,53.75445500000001
333.47,THE SINGH MEDICAL PRACTICE,-2.213622,53.512042
1280.78,PARK VIEW GROUP PRACTICE,-2.160577,53.445476
157.96,FAMILY SURGERY,-2.346055,53.396194
11.0,STROKE PATHWAY AND REHABILITATION CENTRE,-1.461102,53.37116700000001
1.64,NWR COMMUNITY SERVICES,-1.014748,51.449145
2.05,URGENT CARE,0.475497,50.850706
81.34,CRANBROOK MEDICAL PRACTICE,-3.416198,50.746596
2.05,COMMUNITY PALLIATIVE CARE MEDICAL TEAM,-2.777861,53.433387
1568.6999999999996,WHITLEY BAY HEALTH CENTRE,-1.43996,55.04141
1570.15,BLACKBURN RD.MEDICAL CTR.,-1.664718,53.731348
3142.34,MARKET HARBOROUGH MED.CTR,-0.924843,52.477084
836.5800000000002,COMMUNITY HEALTH CENTRE (ZS OSAMA),-1.113421,52.632387
1022.85,TRAMWAYS MEDICAL CENTRE (O'CONNELL),-1.503023,53.402044
2078.74,SAFFRON HEALTH PARTNERSHIP,-0.264459,52.084232
725.5300000000002,GLADSTONE MEDICAL CENTRE,-0.24612,51.558731
359.3,ST MARTINS MEDICAL CENTRE,-0.424566,51.577646
654.47,ABRIDGE SURGERY,0.12458,51.653631
469.12,ELSDALE STREET SURGERY,-0.049094,51.543033
1365.37,STOPSLEY VILLAGE PRACTICE,-0.394147,51.901132
2148.02,SHEFFORD HEALTH CENTRE,-0.321643,52.034788
463.9,VALE DRIVE MEDICAL PRACTICE,-0.194727,51.648828
893.2099999999998,THE FRYENT WAY SURGERY,-0.280565,51.582963
533.25,BELMONT MEDICAL CENTRE,-0.478036,51.548264
583.0,PORTLAND ROAD PRACTICE,-0.208019,51.507366
2757.259999999999,AUDLEY MILLS SURGERY,0.607129,51.584978
621.61,STRATFORD HEALTH CENTRE,0.004714,51.544651
310.4,THE STROUDLEY WLK HTH CTR,-0.017533,51.527214
663.61,ST JOHN'S MEDICAL PRACTICE,0.195249,51.285009
1042.1799999999996,BEXLEY GROUP PRACTICE,0.10965599999999999,51.465832
507.48,DERRY DOWNS SURGERY,0.116651,51.385174
1230.2400000000002,UPPER NORWOOD GROUP PRACTICE,-0.08482,51.413308
482.13,THE MOORINGS MEDICAL PRACTICE,-0.095892,51.322229
708.91,THE TOLLERFORD PRACTICE,-2.571586,50.778924
1706.6999999999996,BLACKTHORN HEALTH CENTRE,-1.327194,50.876037
601.5600000000002,JUBILEE FIELD SURGERY,-2.191875,51.484091
650.4900000000001,DANES CAMP MEDICAL CENTRE,-0.904374,52.205152
1405.83,THORNBURY HEALTH CENTRE - BURNEY,-2.517723,51.612861
1473.35,ELM HAYES SURGERY,-2.492756,51.300546
1313.7,CULVERHAY SURGERY,-2.348649,51.638921
929.98,SHAWBIRCH MEDICAL CENTRE,-2.531858,52.718121
1097.3,THE DOVE MEDICAL PRACTICE,-1.864605,52.535155
3307.88,MOSS GROVE SURGERY,-2.1699,52.498674
1847.56,WARLEY MEDICAL CENTRE,-2.006757,52.468122
731.0499999999998,SPRINGFIELDS MEDICAL CENTRE,-2.597522,53.389256
1005.82,WEAVER VALE PRACTICE,-2.696866,53.325561
1248.4899999999998,GLOVERS LANE SURGERY,-2.971961,53.488314
289.6,OLIVE MEDICAL CENTRE,-2.484193,53.752309
450.99,HALLIWELL SURGERY 1,-2.431738,53.588322
637.3799999999999,HEATON MERSEY MED.PRACT.,-2.205118,53.412519
370.81000000000006,VILLAGE SURGERY,-0.255874,51.399503
288.0200000000001,SOMERS TOWN MEDICAL CENTRE,-0.130607,51.529916
152.73,FITZMAURICE (KEW),-0.283117,51.475875
465.04,WOOTTON VALE HEALTHY LIVING CENTRE,-0.527951,52.093688
677.5500000000002,ST LUKE'S HEALTH CENTRE,0.7293039999999998,51.551
3560.17,THE MEDICAL GROUP,-1.628911,54.748296
1223.5100000000002,GLENPARK MEDICAL CENTRE,-1.640096,54.953229
371.82,DR KHALIQ,-1.799612,53.663276
1583.6299999999994,ROBIN LANE HEALTH AND WELLBEING CENTRE,-1.661311,53.79500899999999
731.0899999999998,LAUREL BANK SURGERY,-1.587333,53.816942
855.6,HUGGLESCOTE SURGERY,-1.365684,52.71103
800.8199999999998,HEALTH CARE COMPLEX  KIRKBY,-1.244634,53.100062
933.2500000000001,RED HOUSE SURGERY,0.129161,52.214906
850.6500000000002,KINGS HEAD MEDICAL PRACTICE,-0.011448,51.635688
13.579999999999998,BRIMPTON HOUSE,0.699534,51.835776
770.5599999999998,THE AZAD PRACTICE,0.044868,51.531234
517.66,NEWHOLME SURGERY,-2.74261,53.456686
0.41,CCCT 2,-2.019013,53.955694
4.1,FELIXSTOWE HOSPITAL,1.35594,51.963766
719.4400000000002,LUNESDALE SURGERY,-2.602213,54.200573
1539.2099999999996,COQUET MEDICAL GROUP,-1.580504,55.332599
360.25,THE GLENDALE SURGERY,-2.01842,55.546525
584.0600000000002,ALLERTON MEDICAL CENTRE,-1.533879,53.826921
1264.2400000000002,SPILSBY SURGERY,0.098963,53.173049
464.99,BRIDGEWAY PRACTICE,-1.147343,52.943574
1231.71,THORNE MOOR MEDICAL PRACTICE,-0.966348,53.613648
1527.64,MANOR AND PARK GROUP PRACTICE,-1.42716,53.373705
695.56,SOLE BAY H/C,1.6664740000000002,52.336325
650.05,DR PS BATH'S PRACTICE,-0.394147,51.901132
248.42,WATERSIDE MEDICAL CENTRE,-0.363984,51.502165
790.36,MELBOURNE HOUSE SURGERY,0.451756,51.749214
1766.62,LITTLE WALTHAM & GT NOTLEY SURGERY,0.477622,51.787396
917.58,AMPTHILL PRACTICE,-0.137293,51.5346
881.6200000000001,THE NORTH LONDON HEALTH CENTRE,-0.11243199999999999,51.617571
780.85,THE WILLOWS PRACTICE,0.104416,51.60776
1134.0,ST.PETER'S MEDICAL CENTRE,-0.135237,50.831002
1663.4800000000002,HIGHPARKS MEDICAL PRACTICE,0.496762,51.434213
1374.0099999999998,YALDING,0.429804,51.221188
675.7699999999999,CRAWLEY DOWN HEALTH CENTRE,-0.07762099999999998,51.122557
399.37,BIRDHURST MEDICAL PRACTICE,-0.092613,51.365279
1808.74,FORESTSIDE MEDICAL PRACTICE,-1.416173,50.851823
422.5,BENTLEY VILLAGE SURGERY,-0.87992,51.189933
738.25,DR KUMAR & PARTNER STUDFALL MEDICAL CTR,-0.704816,52.495882
2540.17,CASTLE PLACE PRACTICE,-3.492865,50.908884
1165.81,COTSWOLD MEDICAL PRACTICE,-1.75678,51.886317
1520.63,GLASTONBURY SURGERY,-2.721853,51.148462
1372.35,NUNWELL SURGERY,-2.507177,52.187931
835.6699999999998,CLEOBURY MORTIMER SURGERY,-2.485608,52.377502
1443.6999999999996,MEDINA HEALTHCARE,-1.298686,50.697239
1212.87,BEDFORD STREET SURGERY,-0.729782,51.995784
1215.65,ALCHESTER MEDICAL GROUP,-1.138371,51.891398
1391.6400000000006,GREENWAY COMMUNITY PRACTICE,-2.611274,51.499595
1576.46,THREE SPIRES MEDICAL PRACTICE,-5.055864,50.259982
1453.07,DEAN CROSS SURGERY,-4.095355,50.358939
764.5499999999998,SOUTHOVER MEDICAL PRACTICE,-3.528075,50.474733
893.4700000000001,NEW VALLEY PRACTICE,-3.654492,50.792383
969.1499999999997,THE STOKE ROAD SURGERY ,-2.068173,51.94667
2624.42,HIGHBRIDGE MEDICAL CENTRE,-2.979117,51.227372
1131.66,CANTILUPE SURGERY,-2.712261,52.055418
671.0,MYTTON OAK MEDICAL PRACT.,-2.797762,52.707667
698.1800000000002,DRS SHAH & TALPUR,-2.194635,52.974032
1248.89,DR VSR CHADALAVADA,-2.139143,53.0416
543.77,HAWKESLEY MEDICAL PRACTICE,-1.937498,52.39544
109.65,KEYNELL COVERT,-1.911857,52.408441
683.8800000000001,PARK MEDICAL CENTRE,-2.873099,53.202665
917.3099999999998,NORWOOD SURGERY,-2.97819,53.65000799999999
1742.45,WHALLEY MEDICAL CENTRE,-2.406348,53.819793
174.76999999999995,SLAIDBURN HEALTH CENTRE,-2.444001,53.967313
836.3799999999997,PIKES LANE 1,-2.446348,53.572728
321.25000000000006,DR PATHAK ND,-1.9843959999999998,52.51273
7.64,STRELLEY HEALTH CENTRE (COCKRILL),-1.227726,52.973231
542.75,PHOENIX MEDICAL PRACTICE,0.48126899999999995,51.328805
217.19000000000003,NETHERTON SURGERY,-2.97236,53.488626
382.92,DILSTON MEDICAL CENTRE,-1.640355,54.976621
324.69,NORTH CHELMSFORD NHS HCC,0.510815,51.750584
147.52,KIRKHOLT MEDICAL PRACTICE,-2.162243,53.59832
8.98,WOKING ALEXANDRA WARD,-0.556304,51.315132
669.99,DR AZIM & PARTNERS,-0.225729,51.579655
311.0,BHF HIGHGATE SURGERY,-1.378978,53.573614
757.9199999999998,SEASCALE HEALTH CENTRE,-3.479998,54.396756
553.44,WIDDRINGTON SURGERY,-1.62051,55.240248
609.8499999999998,RIPLEY MEDICAL CENTRE,-1.405723,53.04704
196.7,DE MONTFORT SURGERY,-1.141192,52.6286
362.86,DENABY MEDICAL PRACTICE,-1.245792,53.490666
969.1400000000001,MENDLESHAM MEDICAL GROUP,1.0816,52.251866
479.4200000000001,UPTON ROAD SURGERY,-0.401058,51.656689
1263.11,DOLPHIN HOUSE SURGERY,-0.029818,51.810791
494.34,THE EVERGLADE MEDICAL PRACTICE,-0.24421,51.601578
904.4000000000002,FRIERN BARNET MEDICAL CENTRE,-0.155988,51.613267
308.26,THE CIVIC MEDICAL CENTRE,-0.337497,51.587155
1077.82,THE GOLD STREET SURGERY,0.240471,52.021716
1655.06,THE HOLLIES,0.610574,51.555461
331.72,THE LEIGH SURGERY,0.656153,51.555504
708.3700000000001,WEST HAMPSTEAD MEDICAL CENTRE,-0.196578,51.55004
1275.92,STAUNTON GROUP PRACTICE,-0.112926,51.599388
1397.5,SOUTHBROOM SURGERY,-1.989037,51.352288
941.99,THE DOWNLAND PRACTICE,-1.312402,51.463442
440.97,BLAKENEY SURGERY,-2.476364,51.759117
1626.54,WELLS HEALTH CENTRE,-2.655326,51.203403
1113.94,RIVERSIDE MED.PRACTICE,-2.755278,52.709209
1130.8899999999996,CHANCERY LANE SURGERY,-1.521755,52.536173
476.7,NECHELLS PRACTICE,-1.876618,52.493743
1274.38,THE LIMES MEDICAL CENTRE,-1.974677,52.58065500000001
619.7099999999998,TOWNFIELD HEALTH CENTRE,-3.064248,53.378798
117.38,PRINGLE STREET SURGERY,-2.467594,53.742039
595.4000000000002,HOPWOOD MEDICAL CENTRE,-2.212052,53.587143
1430.89,THE KILTEARN MEDICAL CTR.,-2.518506,53.068155
1640.22,BROADWAY MEDICAL CENTRE,-3.033843,53.912667
431.33,EGERTON/DUNSCAR HEALTH CENTRE,-2.426383,53.617589
1469.3499999999995,SADDLEWORTH MEDICAL PRACTICE,-2.004957,53.548331
340.93,VILLAGE MEDICAL PRACTICE,-2.095994,53.574817
192.43,EASTGATE SURGERY,-0.519836,51.886145
271.98999999999995,SUMMERFIELD GROUP PRACTICE,-1.937353,52.487686
613.5199999999999,PHOENIX PRIMARY CARE (SOUTH) LTD,-0.441597,51.88973
557.1,THURROCK HEALTH CENTRE,0.323317,51.477404
3.28,PATIENT FIRST SOCIAL ENTERPRISE,0.006461,51.542096
30.160000000000004,CWP (WEST) PHYSICAL HEALTH,-2.897884,53.2088
2.56,CARE UK COVENTRY OOH,-1.5080049999999998,52.413401
2.46,NSC BOSWORTH HUB,-1.7536330000000002,52.480569
7.54,SKEGNESS & COAST GP EXTENDED ACCESS HUB,0.342219,53.188059
2.05,COASTAL HEALTH SOUTH,1.715177,52.478072
149.24,THE OM SURGERY,-1.2057,53.034978
4.930000000000001,LINCOLN OOH,-0.519635,53.233575
1219.9899999999998,THE NEW SPRINGWELLS PRACTICE,-0.340804,52.893623
0.41,WANDSWORTH COMMUNITY WARDS,-0.145908,51.472301
0.29,SAME DAY HEALTH CNTRE COASTAL HEALTHCARE,-2.859565,54.072841
350.36,CAMP HILL GP LED HEALTH CENTRE,-1.507061,52.533074
6.290000000000001,DONCASTER URGENT CARE & OUT OF HOURS,-1.109062,53.530806
1.84,THE CONFEDERATION HILLINGDON CIC,-0.47790600000000005,51.547653
0.29,EAST CLUSTER IAGPS,-1.82052,50.747482
551.28,THE PATEL PRACTICE,-1.1885709999999998,54.661404
1570.5100000000007,HOLMSIDE MEDICAL GROUP,-1.66023,54.969004
805.59,FARROW MEDICAL CENTRE,-1.74312,53.802511
858.0699999999998,PADDOCK AND LONGWOOD FAMILY PRACTICE,-1.80546,53.642119
880.0,BRAMLEY VILLAGE HEALTH & WELLBEING CTR,-1.623032,53.80781999999999
390.33,SEVERN SURGERY,-1.065583,52.598801
2990.78,BEACHES MEDICAL CENTRE,1.727734,52.577124
653.9,LINDEN ROAD SURGERY,-0.479248,52.14361
1114.39,CUFFLEY AND GOFFS OAK MEDICAL PRACTICE,-0.113106,51.708171
2.87,ARC,-3.002931,53.801771
2.89,PRIMARY CARE ACCESS HUB (SOUTH STOKE),-2.102853,52.97847
0.13,NEAS SOUTH TYNESIDE CCG,-1.712365,54.969713
0.85,PROCARE HEALTH SERVICES,-0.708282,51.091746
8.17,GLOUCESTER (CARE UK) OOH,-2.30608,51.879263
8.0,MERTON REHAB BEDS,-0.224115,51.437407
1618.53,THE GARTH,-1.055444,54.532597
628.5700000000002,THE GABLES MEDICAL GROUP,-1.564429,55.140811
630.4000000000002,HAYDON BRIDGE & ALLENDALE MEDICAL PRACT,-2.250059,54.975681
1129.12,SPRING TERRACE HEALTH CENTRE,-1.450673,55.010941
974.81,PRACTICE ONE,-0.201064,54.084715
1224.39,CHURCH STREET SURGERY,-1.583343,53.681523
960.64,SOUTH WIGSTON HEALTH CTR.,-1.129183,52.580452
396.6,BRAMCOTE SURGERY,-1.244985,52.935604
829.94,CAMPINGLAND SURGERY,0.690978,52.645997
1706.6600000000005,LEIGHTON ROAD SURGERY,-0.66795,51.915779
1349.4599999999996,WILLOW TREE FAMILY DOCTORS,-0.265224,51.589337
770.69,QUEENS WALK PRACTICE,-0.312985,51.524803
1140.16,HIGH STREET SURGERY  EPPING,0.113402,51.700812
1548.3600000000006,OLD ROAD SURGERY,1.148421,51.795466
352.06,HIGH STREET SURGERY,0.223589,51.561554
703.2200000000001,THE LIMEHOUSE PRACTICE,-0.028747,51.511253
1.32,MEDICUS HEALTH PARTNERS-WILLOW HOUSE,-0.07659,51.654209
417.26,MAIDSTONE RD RAINHAM SURGERY,0.600379,51.36233
392.45,BANK HOUSE SURGERY,0.069949,51.359218
704.98,FORDBRIDGE MEDICAL CENTRE,-0.46301,51.431269
1085.43,EVERSLEY MEDICAL CENTRE,-0.11191300000000001,51.388514
661.9000000000002,YORK MEDICAL PRACTICE,-0.325697,51.449369
276.18999999999994,BERRYLANDS SURGERY,-0.299929,51.390825
1477.5000000000002,CRICKET GREEN MEDICAL PRACTICE,-0.174025,51.404579
578.0700000000002,CARRINGTON HOUSE SURGERY,-0.749217,51.632299
279.1,PROSPECT HOUSE SURGERY,-0.705258,51.701136
385.9,WEMBURY SURGERY,-4.072566,50.32186
1108.59,HOLLYOAKS MEDICAL CENTRE,-1.869052,52.377979
663.0,WOODSETTON MEDICAL CENTRE,-2.10089,52.537994
1745.1800000000005,SHERWOOD HOUSE MEDICAL PRACTICE,-1.959426,52.473851
456.05,GARSTON FAMILY HEALTH CENTRE,-2.89683,53.353909
569.63,COMMONFIELD RD SURGERY,-3.086369,53.370187
955.34,THE BORCHARDT MEDICAL CENTRE,-2.237795,53.434307
297.1,WERNETH MEDICAL PRACTICE,-2.126938,53.53497
203.39,CHAPEL MEDICAL CENTRE,-2.418293,53.449094
418.87,DR VICTORIA MUIR'S PRACTICE,-0.151358,51.490651
901.9000000000002,WELLFIELD MEDICAL CENTRE,-2.242019,53.512545
1757.21,NEWLANDS MEDICAL CENTRE,-1.226035,54.571931
906.71,WIGTON GROUP MEDICAL PRACTICE,-3.159002,54.820303
290.53,THE FAMILY PRACTICE,-3.229282,54.116755
1869.92,SKERNE MEDICAL GROUP,-1.4488,54.654032
1125.37,ST ANDREWS SURGERY,-0.361958,53.735566
397.63,COWGILL SURGERY,-1.814543,53.781952
1148.2,VILLAGE SURGERY,-1.485797,52.896347
309.33,THE GLENSIDE COUNTRY PRACTICE,-0.537958,52.75451
617.0999999999998,PLEASLEY SURGERY,-1.250873,53.175809
1047.73,BACON LANE SURGERY,-0.275903,51.605078
1133.14,THE MEDICAL CENTRE  DR JEFFERIES & PARTN,-0.212607,51.481206
504.97,MEANWHILE GARDEN MEDICAL CENTRE,-0.203126,51.522228
2684.19,THE LIMES MEDICAL CENTRE,0.123958,51.706179
818.6300000000001,CHIGWELL MEDICAL CENTRE,0.083876,51.60551
266.51,NORTH AVENUE SURGERY,0.735187,51.546618
482.03,ROSERTON STREET SURGERY,-0.010049,51.498482
1272.3000000000004,ALBION PLACE MEDICAL PRACTICE,0.529542,51.274206
258.76,OLD PARSONAGE SURGERY,0.460418,51.112785
543.5000000000001,TRIVENI PMS,0.058438,51.490321
993.33,HAWTHORNS SURGERY,-0.175174,51.241163
976.63,TRINITY MEDICAL CENTRE,-0.158437,51.437554
456.46,MITCHAM FAMILY PRACTICE,-0.167118,51.410109
663.7900000000002,THE WELLBRIDGE PRACTICE,-2.225354,50.679039
1555.56,THE HARVEY PRACTICE,-1.993525,50.761018
2274.6799999999994,HOMEWELL.CURLEW PRACTICE,-0.978019,50.851067
1268.65,SPA MEDICAL CENTRE,-2.126012,51.366868
942.35,COOKHAM MEDICAL CENTRE,-0.725805,51.558356
1413.62,THE MISBOURNE SURGERY,-0.558045,51.607786
1574.0499999999995,ORCHARD MEDICAL CENTRE,-2.510659,51.462087
481.9,LYNGFORD PARK,-3.090916,51.036442
1495.2,STAFFORD HEALTH AND WELLBEING,-2.123291,52.817722
432.78,BOURNBROOK VARSITY MEDICAL CENTRE,-1.929903,52.445713
282.2,CAUSEWAY GREEN ROAD SURGERY,-2.014697,52.484564
1552.12,PATTERDALE LODGE MED CTRE,-2.64461,53.452446
736.13,SUNLIGHT GROUP PRACTICE,-3.00005,53.363076
1005.27,SHAY LANE MEDICAL CENTRE (KELMAN),-2.31556,53.372189
630.0700000000002,BLYTH ROAD MEDICAL CENTRE,-1.20365,53.422231
436.45,CENTRAL MEDICAL CENTRE,-0.245977,52.587
855.87,HARBOUR MEDICAL PRACTICE,0.324489,50.797353
0.17,URGENT CARE CTR (FCMS) OOH,-3.015863,53.820616
1571.7199999999998,MORRAB SURGERY,-5.538987,50.116924
1119.15,WILLOW BANK SURGERY,-2.102853,52.97847
1650.86,EVERGREEN PRIMARY CARE CENTRE,-0.059836,51.623784
1.32,MEANWOOD GROUP PRACTICE ENT SERVICE,-1.565811,53.827167
2.05,M & A LTC PALLIATIVE CARE NURSE,-1.238124,52.98146
4.93,BARDOC GP OOH,-2.427769,53.590447
0.8199999999999998,BANES ENHANCED MEDICAL SERVICE (BEMS+),-2.372621,51.358169
58.84,SHAKESPEARE WIC,-1.525196,53.802098
8.519999999999998,CCG ACUTE VISITING SERVICE,-2.178123,53.021853
4.75,LGI GPS IN A+E,-1.551744,53.801445
3.41,M&A AHVS (PICS),-1.238124,52.98146
1317.33,BARBOURNE HEALTH CENTRE,-2.224952,52.208752
469.35,CRAVEN ARMS SURGERY,-2.835416,52.442323
2332.7900000000004,THE HAYMARKET HEALTH CTR,-2.211781,53.060343
707.7699999999999,GOLDENHILL MEDICAL CENTRE,-2.221385,53.076901
971.28,JIGGINS LANE MEDICAL CENTRE,-1.995411,52.436801
6.85,DARTMOUTH MEDICAL CENTRE,-2.005409,52.520435
581.4399999999998,ARRAN MEDICAL CENTRE,-1.748679,52.50386700000001
999.45,CHAPEL LANE SURGERY,-3.061428,53.557075
467.99,HEATHERLANDS MED CTR,-3.089543,53.381475
378.3,TOWN HALL SURGERY,-2.092973,53.478374
772.5899999999998,LILFORD PARK SURGERY,-2.511455,53.503236
78.61,PEEL PRECINCT SURGERY,-0.198814,51.534421
869.42,CATHEDRAL MEDICAL CENTRE,0.275488,52.413145
1.49,NDUC NEWCASTLE GATESHEAD OOH,-1.58819,55.01931999999999
0.33,PCH WARD,-2.077775,52.114052
2.06,LCW WLCCG OOH,-0.217218,51.522362
