total_cost,name,longitude,latitude
1102.04,GREEN PRACTICE,-0.371755,51.468263
1194.39,BLACKFRIARS MEDICAL PRACTICE,-0.105775,51.505364
1507.35,CRONDALL NEW SURGERY,-0.858386,51.237211
1438.62,CHADDESLEY SURGERY,-2.158038,52.361961
6500.33,DR JUDE'S PRACTICE - RIVERSIDE,-2.943016,53.398876
300.6600000000001,THE MANOR PARK PRACTICE,0.057339,51.55393
2247.600000000001,TRENTHAM MEWS MEDICAL CENTRE,-2.189898,52.970452
24.9,WIDNES GP EXTRA SERVICE,-2.735705,53.362158
4191.67,DR THORNILEY-WALKER & PARTNERS,-1.460703,54.949762
640.99,DR U AKBAR,-1.777945,53.803569
4137.53,AIREBOROUGH FAMILY PRACTICE,-1.684881,53.866663
7559.12,THE BURBAGE SURGERY,-1.361645,52.53009599999999
2443.01,SCHOOL HILL MEDICAL PRACTICE,0.012064,50.873469
7549.64,GRAYSHOTT SURGERY,-0.745626,51.110093
1313.65,OLD SCHOOL HOUSE SURGERY,-1.604408,51.376032
4159.450000000002,THE ARDLEIGH SURGERY,0.985096,51.927073
7811.419999999997,STONE CROSS SURGERY,0.289944,50.816757
3704.14,MARSHALLS ROAD SURGERY,-0.539225,52.344743
10050.089999999998,DARWIN MEDICAL CENTRE,-1.831505,52.694061
3216.25,SOUTH HERMITAGE SURGERY,-2.752497,52.699728
153.16000000000003,AR-RAZI MEDICAL CENTRE,-1.101204,52.623926
4216.160000000002,OAKENHALL MEDICAL PRACT,-1.199437,53.03661700000001
3474.49,LAWNS PRACTICE,1.109092,52.378889
2359.95,CHURCH END MEDICAL CENTRE,-0.253241,51.54757
2499.72,THE DEVONSHIRE LODGE PRACTICE,-0.397406,51.579266
3869.88,STANWELL ROAD SURGERY,-0.470567,51.438013
1565.37,WIDCOMBE SURGERY,-2.354321,51.376371
5392.259999999998,HILLVIEW MEDICAL CENTRE,-1.951153,52.305568
3308.94,LONGTON MEDICAL CENTRE,-2.770123,53.417492
6927.140000000002,DR AHMAD & PTNRS,-2.595925,53.522279
2139.18,JS MEDICAL PRACTICE,-0.078706,51.589103
25.5,SUMMERFIELD GP SURG & URGENT CARE CENTRE,-1.937353,52.487686
1135.51,THE WILLASTON SURGERY,-3.011643,53.292908
5699.250000000003,TOWNHEAD SURGERY,-2.276903,54.070534
786.9699999999998,HORNE STREET SURGERY,-1.871717,53.725678
3727.09,THE GARDEN CITY PRACTICE,-0.209287,51.797151
3159.76,RIVERMEAD GATE MED.CTR.,0.472887,51.740849
2341.100000000001,ROMAN WAY MEDICAL CENTRE,-0.10550599999999999,51.544561
1728.86,CARNON DOWNS SURGERY,-5.091905,50.22345
4009.319999999999,DR KS UPTON'S PRACTICE,-1.986582,52.988358
6697.21,KINGSWAY MEDICAL CENTRE,-1.289009,54.606459
3962.38,PRUDHOE MEDICAL GROUP,-1.853822,54.96186
2799.0399999999995,ARTHUR MEDICAL CENTRE,-1.422636,53.001503
5151.480000000001,PORTLAND MEDICAL PRACTICE,-0.539074,53.22371999999999
6966.04,THE WALL HOUSE SURGERY,-0.208192,51.241304
1938.92,THE HALING PARK PARTNERSHIP,-0.098109,51.357113
3415.240000000001,THE PRINCE OF WALES SURGERY,-2.457579,50.713502
3010.8,THE GROVE SURGERY,-0.735114,52.023651
3514.7499999999995,PROBUS SURGERY,-4.948542,50.290121
1871.7599999999993,DR PAL,-2.595495,53.47988
2997.39,CHAPEL ROW SURGERY,-1.17086,51.425877
1.5,NCH&C COMMUNITY NURSES (WEST),0.410147,52.749129
104.68,HEALTHBRIDGE DIRECT,0.020102,51.608432
2997.18,GRANGE STREET SURGERY,-0.335878,51.757298
2704.16,ST PETER'S SURGERY,1.41893,51.362936
234.72,SIBFORD SURGERY,-1.479244,52.037614
5893.419999999999,AXMINSTER MEDICAL PRACTICE,-2.999226,50.780899
3254.1500000000005,PRICES MILL SURGERY,-2.224938,51.693801
5193.649999999999,MARSH MEDICAL PRACTICE,0.143689,53.445069
8014.410000000003,KNEBWORTH & MARYMEAD MEDICAL PRACTICE,-0.184972,51.866323
319.2,THE HODFORD ROAD PRACTICE,-0.199318,51.569038
2536.37,ABBEY ROAD MEDICAL PRACTICE,0.005881,51.534784
14018.11,BETHESDA MEDICAL CENTRE,1.414787,51.390277
3678.83,WOODLANDS SURGERY,0.088913,51.439755
1420.86,ALVELEY MEDICAL PRACTICE,-2.353309,52.454738
2443.3,KNOWSLEY MEDICAL CENTRE,-2.300551,53.588497
153.55,ST JOSEPH'S HOSPICE  HACKNEY,-0.056255,51.537053
2912.9500000000007,CHURCHSIDE MEDICAL PRACTICE,-1.203539,53.146592
2125.42,SOUTHEND MEDICAL CENTRE,0.708516,51.540069
1517.5699999999995,THE MITCHISON ROAD SURGERY,-0.087357,51.544992
3121.0600000000004,FRAMLINGHAM SURGERY,1.334192,52.227216
1575.77,CHOWDHURY,0.233898,51.592339
4732.25,JENNER HOUSE SURGERY,-0.7745189999999998,51.294302
6367.190000000001,NORFOLK STREET SURGERY,-2.182794,53.01602
7933.01,TORKARD HILL MEDICAL CTRE,-1.207389,53.029901
6564.0099999999975,VILLAGE SURGERY,-1.251934,53.39421
897.69,ALLENBY CLINIC,-0.376261,51.531514
10599.7,DR PUZEY DR KOTHARI AND DR NANDA,0.705992,51.582107
6499.790000000001,SEVERN FIELDS MEDICAL PRACTICE,-2.721619,52.728047
5503.84,CUMBERLAND HOUSE SURGERY,-2.990437,53.638743
1841.5700000000006,HOLLINS GROVE SURGERY,-2.477472,53.705346
1704.9899999999993,OLDHAM FAMILY PRACTICE,-2.116945,53.543824
1133.2700000000002,SHAY LANE MEDICAL CENTRE (PATEL),-2.31556,53.372189
27.72,AT HOME SERVICE,-0.10603,51.438104
5802.1100000000015,CHURCHILL MEDICAL CENTRE,-0.018466,51.618226
2297.98,PRIORY MEDICAL CENTRE,-0.50567,52.167181
429.57,ESK ROAD MEDICAL CENTRE,0.024266,51.522454
13561.830000000002,REACH HEALTHCARE,0.52408,51.337756
4531.31,CAMBERLEY HEALTH CENTRE,-0.754069,51.324435
1278.4499999999996,FLOOD (ESSEX HOUSE),-0.247469,51.472541
2951.4999999999995,WOLLASTON AND BOZEAT SURGERIES,-0.674311,52.252471
6684.25,ST.LEVAN SURGERY,-4.177328,50.383921
3593.32,BARTON,-1.725223,52.761751
954.12,HAWTHORNS MEDICAL CENTRE,-1.967268,52.501507
2599.45,BROWNLOW AT MARYBONE,-2.987806,53.411269
2451.5200000000004,LITTLE LEVER HEALTH CENTRE 1,-2.370624,53.55981800000001
3661.07,CONWAY ROAD MEDICAL PRACTICE,-2.303561,53.417873
5677.569999999999,MAYBUSH MEDICAL CENTRE,-1.489249,53.670273
818.98,FALKLAND HOUSE SURGERY,-1.514423,53.359728
2484.9499999999994,MILTON KEYNES VILLAGE SURG,-0.697865,52.043891
1.5,GPSI PALLIATIVE CARE,-3.007792,53.502483
10271.44,FIELDHOUSE MEDICAL GROUP,-0.112579,53.564436
3840.79,SAXON CROSS SURGERY,-1.273642,52.931099
4603.83,THE NAYAR PRACTICE,-1.1933790000000002,53.480824
1422.19,NEW NORTH HEALTH CENTRE,-0.091592,51.537534
4547.430000000001,HOVE MEDICAL CENTRE,-0.19539,50.845024
4472.25,FORT HOUSE SURGERY,-0.412578,51.37881
2839.09,THE LAWN MEDICAL CENTRE,-1.7619029999999998,51.547821
766.4299999999998,ST MARY'S HEALTH CENTRE,-6.308668,49.911605
4175.440000000001,TAVYSIDE HEALTH CENTRE,-4.145976,50.545824
2128.01,HAGLEY SURGERY,-2.144103,52.420783
467.08,YARDLEY MEDICAL CENTRE,-1.828397,52.463189
15046.95,ASHTON MEDICAL GROUP,-2.089184,53.489361
1786.97,THE WILLESDEN MEDICAL CENTRE,-0.233873,51.547532
688.4200000000002,SELHURST MEDICAL PRACTICE,-0.088969,51.390012
4633.129999999999,PONTESBURY MEDICAL PRAC,-2.887922,52.650521
1914.24,BRAITHWAITE RD SURGERY,-2.574985,53.477412
2291.8,WOODGRANGE MEDICAL PRACTICE,0.025253,51.548596
1123.9500000000003,JARVIS MEDICAL PRACTICE,-2.095095,53.537786
85.06,IC24 LTD (NORFOLK & WISBECH OOH),0.891514,51.129106
1164.95,THE MANSELL ROAD PRACTICE,-0.358969,51.525654
1127.14,FOUNDATIONS,-1.257899,54.563441
541.38,READING WALK-IN HEALTH CENTRE,-0.9758960000000002,51.454809
141.27,BRADFORD DISTRICT CARE TRUST,-1.788605,53.839675
34.82,NORTH TYNESIDE CARE PLUS,-1.456596,55.011193
12.3,8 TO 8 TOP-UP HUB QMH,0.101687,51.419041
24.0,SUFFOLK GP FEDERATION OOH,1.164244,52.044508
9912.47,MUNRO MEDICAL CENTRE,-0.147427,52.794037
4748.14,MOSBOROUGH HEALTH CENTRE,-1.364873,53.325238
3461.11,PUCKERIDGE & STANDON SURGERY,0.019374,51.888296
4531.7,COMMONWEALTH HEALTH CENTRE,0.36308,51.463166
3358.6600000000008,TAMWORTH HOUSE MEDICAL CENTRE.,-0.146254,51.40122
3548.69,PARKSIDE PRACTICE,-1.353169,50.970948
6060.85,DARTMOUTH MEDICAL PRACTICE,-3.580811,50.351157
2031.42,BLACKHEATH MED CTR,-3.104694,53.412239
658.0100000000001,GOLDINGTON ROAD SURGERY,-0.456174,52.140172
1145.14,POPLAR PRIMARY CARE CENTRE,-1.890326,52.43631
7394.7,THE SUTTON MANOR SURGERY,-0.315294,53.785759
9245.360000000002,JESSOP MEDICAL PRACTICE,-1.372226,53.074348
5670.91,THE MAYFLOWER MEDICAL PRACTICE,-1.01945,53.431872
7481.930000000002,ST.ANTHONY'S HEALTH CENTRE,-1.55655,54.966674
131.47,WESTCALL OOH,-0.8315749999999998,51.410524
1338.8299999999995,WHITWICK HEALTH CENTRE,-1.3606790000000002,52.742576
9289.080000000002,MARKET SURGERY,-1.345958,53.502635
1754.07,DERWENT CRESCENT MEDICAL CENTRE,-0.175285,51.622908
11304.7,ABBEY FIELD MEDICAL CENTRE,0.898575,51.877487
8059.41,ABBEY HOUSE MEDICAL PRACTICE,-1.160725,52.260319
6427.680000000001,NORTON BROOK MEDICAL CENTRE,-3.782122,50.288739
7044.39,MARTON MEDICAL PRACTICE,-3.034524,53.812843
4015.78,THE NORTH LEEDS MEDICAL PRACTICE,-1.534037,53.843332
3000.53,FRIAR GATE SURGERY,-1.485624,52.924816
5467.27,NAVENBY CLIFF VILLAGES SURGERY,-0.526297,53.103518
5859.15,ASKERN MEDICAL PRACTICE,-1.148909,53.61549599999999
2670.1500000000005,LEYTON HEALTHCARE 4TH FLOOR,-0.013313,51.559894
3677.01,CAMBRIDGE HOUSE,-2.144827,53.024433
1134.88,PARK HOUSE SURGERY,-1.942965,52.54446
13928.909999999998,RAINBOW MEDICAL CENTRE,-2.705931,53.435389
5539.05,LITTLE LONDON SURGERY,-1.979284,52.574984
1172.1699999999996,STRETTON MEDICAL CENTRE,-2.577017,53.339489
597.1600000000002,THE DALE MEDICAL PRACTICE,-2.154239,53.611617
495.3,CAMBRIDGE ACCESS SURGERY,0.138701,52.20875
5432.28,LEIGH FAMILY PRACTICE,-2.511927,53.493519
2228.89,THE GREYSWOOD PRACTICE,-0.144853,51.419489
1693.8800000000006,CHATHAM STREET SURGERY,-0.981895,51.455924
4098.989999999999,DEVON SQUARE SURGERY,-3.60508,50.529985
2053.890000000001,THE ROYAL WELL SURGERY,-2.0815,51.906706
5979.980000000002,THE LIMES SURGERY MEDICAL CENTRE,-2.114052,52.456884
5447.539999999999,LAYTON MEDICAL CENTRE,-3.027291,53.827425
9.0,CAMDEN COMMUNITY NURSING,-0.131658,51.53665
2834.3,WILLINGTON SURGERY,-1.566835,52.850285
4908.24,MANOR FARM MEDICAL CENTRE,0.690513,52.648544
5108.980000000001,REGAL CHAMBERS SURGERY,-0.275959,51.952843
799.7999999999998,THE GARWAY MEDICAL PRACTICE,-0.185494,51.515392
16724.229999999996,ACORN HEALTH PARTNERSHIP,-1.114058,51.245047
4.5,UNIV HOSP NORTH DURHAM OOH,-1.593834,54.788497
1148.62,BOWLING GREEN STREET SURGERY,-1.133096,52.63304599999999
2428.27,BURTON CROFT SURGERY,-1.57692,53.820807
1127.08,HARTINGTON SURGERY,-1.810816,53.142488
3848.55,FIVE ELMS MEDICAL PRACTICE,0.14235,51.553315
4222.659999999999,SOUTH VIEW PARTNERSHIP,0.026125,51.405111
2654.51,CORNERWAYS SURGERY,-0.404519,50.81566
976.99,WALLINGTON MEDICAL CENTRE,-0.129285,51.357345
3853.3,COMBE DOWN SURGERY,-2.345599,51.361003
2780.580000000001,NORTH PETHERTON SURGERY,-3.013922,51.09139
727.19,QUEENS MEDICAL CENTRE,-2.235847,53.50081899999999
10138.86,THE PENDLE MEDICAL PARTNERSHIP,-2.144307,53.915882
6034.499999999997,3/SPRINGFIELD HOUSE MEDICAL PRACTICE,-2.362019,53.480252
1528.0700000000004,THE KINGSWAY PRACTICE,-2.135588,53.612168
6.0,THE ENFIELD PAIN CLINICS,-0.076772,51.66253
1043.42,THE PRACTICE FELTHAM,-0.411086,51.446367
64.14,NHS FYLDE & WYRE CCG,-2.881037,53.789498
29646.119999999995,BEACON MEDICAL PRACTICE,0.331219,53.157472
1047.4,GREENFIELDS MEDICAL CENTRE (YVS RAO),-1.168583,52.966506
27.3,IC24-THANET CCG OOH,0.891514,51.129106
2638.3100000000004,TODDINGTON MEDICAL CENTRE,-0.530482,51.945856
6587.510000000001,OAKLANDS HEALTH CENTRE,1.08253,51.069106
4281.219999999998,LONGCROFT CLINIC,-0.192332,51.325314
2137.56,WHITCHURCH SURGERY,-0.8426209999999998,51.882174
1373.04,RIVERSIDE SURGERY,-1.699518,52.632337
4679.240000000002,THE VILLAGE SURGERIES GROUP,-2.771265,53.124246
3121.5399999999995,SHIFA SURGERY,-2.475999,53.757295
3570.0199999999986,OLDHAM MEDICAL SERVICES,-2.111235,53.52535699999999
4640.1,LEADGATE SURGERY,-1.805988,54.860562
4721.35,GOYT VALLEY MEDICAL PRACTICE,-1.983113,53.3305
3764.989999999999,CONCORD MEDICAL PRACTICE,-1.524864,54.913411
3539.07,COUNTESTHORPE HEALTH CENTRE,-1.136767,52.554536
2791.29,ANNANDALE MEDICAL CENTRE,-0.17421099999999998,51.698571
5860.02,DR SINHA & PARTNERS,0.100204,53.030138
4265.16,THE HEALTH CARE SURGERY,-1.487911,53.42172
5209.12,THE LIMES SURGERY,-0.010842,51.759413
1311.36,SEVEN DIALS MEDICAL CENTRE,-0.147743,50.829681
4258.97,BARCROFT MEDICAL CENTRE,-1.780526,51.172939
12961.89,PIONEER MEDICAL GROUP,-2.617628,51.510306
2602.360000000001,WITHNELL HEALTH CENTRE,-2.556663,53.692491
3416.23,DR ABBAS,-0.841253,52.26834
2464.4,DR GS KALKAT'S PRACTICE,0.103861,51.527941
178.29999999999995,THE LYNWOOD SURGERY,-0.29964,51.528594
15713.979999999996,FERRYHILL AND CHILTON MEDICAL PRACTICE,-1.556828,54.689838
6096.550000000001,COLLIERY COURT MEDICAL GROUP,-1.460703,54.949762
1432.29,WINDSOR MEDICAL CENTRE,-1.622157,53.693875
3728.0000000000014,LOWMOOR ROAD SURGERY,-1.244634,53.100062
892.48,SUNRISE MEDICAL CENTRE,-0.382255,51.51087
2975.6,SONNING COMMON HEALTH CTR,-0.982114,51.515603
5858.75,LANDER MEDICAL PRACTICE,-5.055864,50.259982
1467.84,ALUM ROCK MEDICAL CENTRE,-1.850664,52.489901
4.5,WORKINGTON HEALTH LIMITED,-3.551342,54.642687
12528.080000000002,HARDWICKE HOUSE GROUP PRACTICE,0.725792,52.0382
2300.39,WOOLSTONE MEDICAL CENTRE,-0.036776,51.438421
4347.230000000001,SOUTHGATE MEDICAL GROUP,-0.194559,51.102316
4840.8200000000015,BROCKWORTH SURGERY,-2.156696,51.844575
10239.5,DAWLEY MEDICAL PRACTICE,-2.466781,52.664322
4600.609999999999,HOWARD HOUSE SURGERY,1.349626,51.96149
2152.93,AMWELL GROUP PRACTICE,-0.11081700000000001,51.528043
2534.99,MEOPHAM MEDICAL CENTRE,0.359744,51.368901
2399.0799999999995,FORGE CLOSE SURGERY,0.016555,51.377137
2364.4100000000008,JOHNSON (SHEEN LANE),-0.267239,51.465848
1614.1899999999996,LITTLEDOWN SURGERY,-1.833439,50.741638
4367.17,PEDMORE MEDICAL PRACTICE,-2.118211,52.457029
810.4399999999998,THE OLD DISPENSARY,-1.987226,50.803427
449.32,STROUD GREEN MEDICAL CENTRE,-0.114328,51.570059
9482.12,WEST SOMERSET HEALTHCARE,-3.3186760000000004,51.161419
6642.75,OMNIA PRACTICE,-1.839082,52.475709
5677.569999999999,MORETON CROSS GROUP PRACTICE,-3.111975,53.403551
6116.660000000002,WEST COMMON LANE TEACHING PRACTICE,-0.682441,53.57473100000001
4616.440000000001,RIVERSIDE MEDICAL PRACTICE,-1.315584,54.56887
25.5,MEDICUS HEALTH PARTNERS-ENFIELD ISLAND,-0.016992,51.668586
3934.94,THE OAKWOOD SURGERY,-1.073937,53.506609
3022.05,PAPWORTH SURGERY,-0.11749200000000001,52.252071
5681.699999999999,CAMBRIAN MEDICAL PRACTICE,-3.047774,52.86281
3934.180000000001,FIRDALE MEDICAL CENTRE,-2.537387,53.253804
2128.53,KIRKSTALL LANE MEDICAL CENTRE,-1.587333,53.816942
3.0,SOUTH EAST HUB 1,-0.10851199999999998,51.477558
8547.400000000003,BELLE VALE HEALTH CENTRE,-2.859752,53.392035
3550.91,ELIZABETH STREET SURGERY,-3.043658,53.820839
6634.85,RAMSBOTTOM MEDICAL PRACTICE,-2.319287,53.64878
3575.5199999999986,BROOK HOUSE SURGERY,-1.445882,50.921794
18.51,HMR BARDOC OOH,-2.288591,53.59553
9.3,7 DAY ACCESS ROCHDALE INFIRMARY HUB,-2.160152,53.624282
1402.6699999999996,MAGHULL HEALTH CENTRE (DR SAPRE),-2.943932,53.515597
2455.62,WINDERMERE SURGERY,-2.205709,53.55956
9371.790000000003,ST VINCENT MEDICAL CENTRE,-1.124029,53.525476
4362.68,CRESWELL AND LANGWITH MEDICAL CENTRE,-1.215835,53.262654
1.5,PRIMARY CARE ACCESS SERVICE,-2.134034,53.450605
4990.039999999999,BEECHWOOD GROUP PRACTICE,-3.545472,54.642376
6092.6100000000015,PARKSIDE MEDICAL CENTRE,-0.021998,52.981526
6483.200000000003,WINCOBANK MEDICAL CENTRE,-1.416316,53.419405
2082.6,VIRGINIA WATER MEDICAL PRACTICE,-0.568235,51.403367
1049.59,THE ALTON PRACTICE,-0.239471,51.44914
5594.04,ALEXANDER HOUSE SURGERY,-0.7520019999999998,51.293749
2390.35,GREEN MEADOWS SURGERY,-0.677163,51.426939
4131.84,WARGRAVE HOUSE SURGERY,-2.712261,52.055418
5878.16,STATION DRIVE SURGERY,-2.715141,52.370132
2527.01,MARPLE BRIDGE SURGERY,-2.053323,53.400594
4.95,HOUNSLOW CCG - HRCH (NMP),-0.326599,51.427449
35.0,CONSULTANT LED DERMATOLOGY SERVICE,-1.922375,52.471325
5674.530000000002,THE ROSEBERRY PRACTICE,-1.292215,54.611726
11058.87,TANFIELD VIEW MEDICAL GROUP,-1.701373,54.869939
624.76,DR MITCHELL,-0.503581,53.72075
1408.39,SPRINGFIELD MEDICAL CENTRE,-1.195502,53.003599
2498.96,THE LILYVILLE SURGERY,-0.199155,51.47377
3599.07,WITHAM HEALTH CENTRE,0.642876,51.800559
1.5,SOUTH DALES HEALTHCARE LTD,-1.571366,53.077623
8707.150000000003,PRIORY MEDICAL CENTRE,-1.588641,52.285051
877.1400000000001,BALDWINS LANE SURGERY,-1.846405,52.414514
2426.33,MONARCH MEDICAL CENTRE,-2.316823,53.564198
3468.3,LINCOLN GREEN MEDICAL CENTRE,-1.525196,53.802098
49.42,HARROGATE OOH,-1.517573,53.993807
4270.76,CHERRY HINTON MEDICAL CENTRE,0.177635,52.187459
1688.14,FIELDHEAD SURGERY,-1.639379,53.831787
1643.7500000000002,YEADING MEDICAL CENTRE,-0.397019,51.533634
3757.910000000001,LYDDEN SURGERY,1.23991,51.163193
6576.69,SELSDON PARK MEDICAL PRACTICE,-0.06457300000000002,51.342409
4760.510000000001,LANCE LANE MEDICAL CENTRE,-2.911916,53.396196
1113.35,DR GWD BHIMA,-2.154239,53.611617
1527.99,THE BARHAM & CLAYDON SURGERY,1.109866,52.110175
147.54,NIGHTINGALE HOUSE,-0.159747,51.449354
4146.54,I J HEALTHCARE,-1.531354,54.88104
8343.499999999998,WELLINGTON HOUSE,-1.634561,53.714775
3567.1899999999987,FELTWELL SURGERY,0.527056,52.48268
2790.16,ALBANY PRACTICE,-0.310054,51.48676
857.8600000000001,DR VM PATEL,0.228776,51.561113
679.7099999999998,CHILDS (THAMESIDE),-0.326599,51.427449
7376.429999999998,MOREDON MEDICAL CENTRE,-1.8070689999999998,51.582197
5357.710000000002,BUDSHEAD MEDICAL PRACTICE,-4.150289,50.417443
5094.540000000002,HANDSWORTH WOOD MED.CTR.,-1.928196,52.51303299999999
8918.669999999998,READESMOOR MEDICAL GROUP PRACTICE,-2.216792,53.163762
4214.74,ABINGDON FAMILY HEALTH CARE CENTRE,-2.943503,53.440571
3435.53,BARLBOROUGH MEDICAL PRACTICE,-1.284471,53.289528
2585.79,THE WRAGBY SURGERY,-0.301337,53.287948
17883.020000000004,SOUTH GRANGE MEDICAL GROUP PRACTICE,-1.166506,54.56995500000001
5832.650000000002,GLEADLESS MEDICAL CENTRE,-1.451325,53.356551
6249.130000000001,WARRIOR SQUARE SURGERY,0.562007,50.852963
3986.83,THE CORINTHIAN SURGERY,-2.0815,51.906706
3460.849999999999,CASTLEFIELDS,-2.129518,52.801013
4907.26,REDGATE MEDICAL CENTRE,-2.987659,51.126385
1964.42,RIVER BROOK MEDICAL CENTRE,-1.913809,52.43303
6893.58,MURDISHAW,-2.662128,53.323997
4170.34,POPLAR HOUSE SURGERY,-3.03076,53.754721
4030.84,SWANSWELL MEDICAL CENTRE,-1.816529,52.432515
1390.53,DR MALIK - KENT ELMS HC,0.664114,51.563831
16.81,LEICESTER CITY ASSIST PRACTICE,-1.136115,52.637338
274.12,RESPIRATORY SERVICE STOKE AND NORTH,-2.109085,52.810605
5.96,VC SKELMERSDALE UCC,-2.773401,53.549935
3283.14,THE HAWTHORNS SURGERY,-1.825965,52.538746
4898.590000000001,HORIZON HEALTH CENTRE,-2.965121,51.331294
5219.56,OXFORD STREET SURGERY,-3.5505760000000004,54.64373
12037.89,LINGWELL CROFT SURGERY,-1.535053,53.749986
15.9,THE ROYAL MEWS SURGERY,-0.145223,51.498764
1257.82,NORHEADS LANE SURGERY,0.026739,51.314542
1602.2099999999996,TYNEMOUTH MEDICAL PRACTICE,-0.068331,51.586253
7360.58,TRINITY MEDICAL CENTRE,-0.172008,50.831228
1408.7699999999998,ST ALBANS MEDICAL CENTRE,-0.302479,51.42195
13261.249999999995,BARTON SURGERY,-3.473818,50.579848
11105.02,THE WESTGATE PRACTICE,-1.821176,52.683537
901.63,BURBURY MEDICAL CENTRE,-1.9103740000000002,52.502215
5953.949999999998,PLECK HEALTH CENTRE,-1.9980380000000002,52.574248
6573.600000000002,METRO INTERCHANGE SURGERY,-1.602943,54.961848
3385.66,QUAKERS LANE SURGERY,-1.741713,54.406363
6100.919999999999,PARSON DROVE SURGERY,0.050459,52.660947
3471.26,DAVENPORT HOUSE SURGERY,-0.354549,51.816177
1722.7899999999993,WARRIOR SQUARE SURGERY,0.716503,51.539534
974.6799999999998,ALEXANDRA SURGERY,-0.205887,51.422912
8390.410000000002,CANTERBURY MEDICAL PRACTICE,1.128982,51.245539
2522.4099999999994,BALHAM PARK SURGERY,-0.155715,51.440487
3123.350000000001,OBSERVATORY MEDICAL PRACTICE,-1.265958,51.760293
4343.11,WERRINGTON VILLAGE SURGERY,-2.098023,53.021659
1675.2699999999998,THE MARSHSIDE SURGERY,-2.963125,53.67143299999999
2787.83,MERSEYBANK SURGERY,-2.263012,53.42276
4.19,COMMUNITY NURSING,-0.670796,53.57972
2.48,COMMUNITY NURSING,-2.372621,51.358169
1469.46,CHEVIOT MEDICAL GROUP,-2.01842,55.546525
685.37,THE UNIV OF NOTTINGHAM HEALTH SERV,-1.195942,52.942177
1455.2099999999996,LISTER HOUSE SURGERY,-0.4515,51.89192
1019.64,HOUNSLOW MEDICAL CENTRE,-0.37684,51.469395
1369.66,SANCTA MARIA MEDICAL CENTRE,0.284011,51.507882
714.22,NEW INN SURGERY,-0.545657,51.257698
4168.9,THE HEALTH CENTRE,-0.19711,51.363031
2893.99,49 MARINE AVENUE SURGERY,-1.451082,55.046268
3622.9200000000014,WELLSIDE SURGERY,-0.28478,52.440324
2075.15,CLARE GUILDHALL SURGERY,0.580469,52.078259
2885.470000000001,LATTIMORE & VILLAGE SURGERY,-0.298547,51.726244
4639.55,CENTRAL UXBRIDGE SURGERY,-0.475739,51.546229
4178.28,HIGHLANDS SURGERY,0.637339,51.548005
1414.04,ADDINGTON MEDICAL PRACTICE,-0.018557,51.344382
3621.81,FISHERGATE HILL SURGERY,-2.714363,53.75445500000001
4766.290000000001,PARK VIEW GROUP PRACTICE,-2.160577,53.445476
23.0,NWR COMMUNITY SERVICES,-1.014748,51.449145
6367.770000000001,WHITLEY BAY HEALTH CENTRE,-1.43996,55.04141
1218.83,ELSDALE STREET SURGERY,-0.049094,51.543033
4321.8899999999985,STOPSLEY VILLAGE PRACTICE,-0.394147,51.901132
1208.1499999999996,VALE DRIVE MEDICAL PRACTICE,-0.194727,51.648828
9244.57,AUDLEY MILLS SURGERY,0.607129,51.584978
2889.47,STRATFORD HEALTH CENTRE,0.004714,51.544651
2877.03,UPPER NORWOOD GROUP PRACTICE,-0.08482,51.413308
3795.92,THE TOLLERFORD PRACTICE,-2.571586,50.778924
1260.8100000000004,JUBILEE FIELD SURGERY,-2.191875,51.484091
4479.970000000001,THORNBURY HEALTH CENTRE - BURNEY,-2.517723,51.612861
5662.68,SHAWBIRCH MEDICAL CENTRE,-2.531858,52.718121
8706.900000000003,MOSS GROVE SURGERY,-2.1699,52.498674
3539.4400000000005,HEATON MERSEY MED.PRACT.,-2.205118,53.412519
1765.7599999999998,WOOTTON VALE HEALTHY LIVING CENTRE,-0.527951,52.093688
3691.58,ST LUKE'S HEALTH CENTRE,0.7293039999999998,51.551
5418.03,GLENPARK MEDICAL CENTRE,-1.640096,54.953229
8196.760000000002,ROBIN LANE HEALTH AND WELLBEING CENTRE,-1.661311,53.79500899999999
4205.79,HUGGLESCOTE SURGERY,-1.365684,52.71103
3570.87,RED HOUSE SURGERY,0.129161,52.214906
33.5,BRIMPTON HOUSE,0.699534,51.835776
9541.99,MANOR AND PARK GROUP PRACTICE,-1.42716,53.373705
2724.63,DR PS BATH'S PRACTICE,-0.394147,51.901132
2522.07,THE NORTH LONDON HEALTH CENTRE,-0.11243199999999999,51.617571
1339.0199999999998,BENTLEY VILLAGE SURGERY,-0.87992,51.189933
2763.0,CLEOBURY MORTIMER SURGERY,-2.485608,52.377502
5108.08,ALCHESTER MEDICAL GROUP,-1.138371,51.891398
4718.59,DEAN CROSS SURGERY,-4.095355,50.358939
4414.93,NEW VALLEY PRACTICE,-3.654492,50.792383
1486.1,NETHERTON SURGERY,-2.97236,53.488626
2251.7000000000007,WIDDRINGTON SURGERY,-1.62051,55.240248
1173.9199999999996,DE MONTFORT SURGERY,-1.141192,52.6286
3553.390000000001,MENDLESHAM MEDICAL GROUP,1.0816,52.251866
2584.86,THE EVERGLADE MEDICAL PRACTICE,-0.24421,51.601578
1957.76,WEST HAMPSTEAD MEDICAL CENTRE,-0.196578,51.55004
4318.980000000001,STAUNTON GROUP PRACTICE,-0.112926,51.599388
5225.85,SOUTHBROOM SURGERY,-1.989037,51.352288
1564.91,BLAKENEY SURGERY,-2.476364,51.759117
5469.230000000001,RIVERSIDE MED.PRACTICE,-2.755278,52.709209
1969.12,TOWNFIELD HEALTH CENTRE,-3.064248,53.378798
3869.17,HOPWOOD MEDICAL CENTRE,-2.212052,53.587143
5622.76,THE KILTEARN MEDICAL CTR.,-2.518506,53.068155
6619.05,SADDLEWORTH MEDICAL PRACTICE,-2.004957,53.548331
647.1700000000002,SUMMERFIELD GROUP PRACTICE,-1.937353,52.487686
2661.3,THURROCK HEALTH CENTRE,0.323317,51.477404
52.44000000000001,SKEGNESS & COAST GP EXTENDED ACCESS HUB,0.342219,53.188059
86.03999999999998,LINCOLN OOH,-0.519635,53.233575
18.6,PARSONS GREEN WIC,-0.199155,51.47377
1303.0700000000004,CAMP HILL GP LED HEALTH CENTRE,-1.507061,52.533074
1.5,SHIRLEY MEDICAL EXTENDED ACCESS LLP,-0.044859,51.375139
3086.2100000000014,THE PATEL PRACTICE,-1.1885709999999998,54.661404
4465.3200000000015,PADDOCK AND LONGWOOD FAMILY PRACTICE,-1.80546,53.642119
18175.250000000004,BEACHES MEDICAL CENTRE,1.727734,52.577124
2460.3699999999994,LINDEN ROAD SURGERY,-0.479248,52.14361
21.9,PROCARE HEALTH SERVICES,-0.708282,51.091746
143.27999999999997,GLOUCESTER (CARE UK) OOH,-2.30608,51.879263
2690.7499999999995,HAYDON BRIDGE & ALLENDALE MEDICAL PRACT,-2.250059,54.975681
1128.84,BRAMCOTE SURGERY,-1.244985,52.935604
6.0,MEDICUS HEALTH PARTNERS-WILLOW HOUSE,-0.07659,51.654209
584.4300000000002,WEMBURY SURGERY,-4.072566,50.32186
6153.9000000000015,SHERWOOD HOUSE MEDICAL PRACTICE,-1.959426,52.473851
11390.35,ST ANDREWS SURGERY,-0.361958,53.735566
1360.3900000000006,PLEASLEY SURGERY,-1.250873,53.175809
2103.13,CHIGWELL MEDICAL CENTRE,0.083876,51.60551
1372.4299999999996,OLD PARSONAGE SURGERY,0.460418,51.112785
3804.05,THE WELLBRIDGE PRACTICE,-2.225354,50.679039
1855.91,COOKHAM MEDICAL CENTRE,-0.725805,51.558356
5943.950000000002,ORCHARD MEDICAL CENTRE,-2.510659,51.462087
3708.21,LYNGFORD PARK,-3.090916,51.036442
5325.03,STAFFORD HEALTH AND WELLBEING,-2.123291,52.817722
1.5,URGENT CARE CTR (FCMS) OOH,-3.015863,53.820616
4370.480000000001,EVERGREEN PRIMARY CARE CENTRE,-0.059836,51.623784
187.14,BARDOC GP OOH,-2.427769,53.590447
410.3,SHAKESPEARE WIC,-1.525196,53.802098
1902.51,CRAVEN ARMS SURGERY,-2.835416,52.442323
3646.83,ARRAN MEDICAL CENTRE,-1.748679,52.50386700000001
3629.29,CHAPEL LANE SURGERY,-3.061428,53.557075
1905.46,TOWN HALL SURGERY,-2.092973,53.478374
17.06,LCW WLCCG OOH,-0.217218,51.522362
1459.94,DENMARK ROAD SURGERY,-0.06725100000000002,51.393136
46.09,HOME VISITING SERVICE,-2.165957,53.412542
1476.57,HAMSTEAD ROAD SURGERY,-1.919012,52.504474
340.1600000000001,SURGERY AUBERY ROAD,-1.846411,52.46633
1441.04,MOXLEY MEDICAL CENTRE,-2.051113,52.560033
1439.53,MEDICARE UNIT SURGERY,-2.69241,53.725239
3759.95,LOSTOCK MEDICAL CENTRE,-2.328128,53.45458000000001
1871.63,LANGLEY MEDICAL PRACTICE,-0.299929,51.390825
9575.35,ASHBY TURN PRIMARY CARE PARTNERS,-0.6542,53.566147
998.77,BRADFORD MOOR PRACTICE,-1.7218490000000002,53.797834
5753.160000000002,LONG STRATTON MEDICAL PARTNERSHIP,1.229088,52.491027
2767.180000000001,HIGHFIELD SURGERY,-0.459233,51.766434
1403.55,THE ABBOTSBURY PRACTICE,-0.397406,51.579266
6993.850000000001,NUFFIELD HOUSE HEALTH CENTRE,0.112828,51.774439
1857.89,CLIFTON RISE FAMILY PRACTICE,-0.03143300000000001,51.476334
7006.680000000001,HASLEMERE HEALTH CENTRE,-0.707586,51.092107
3771.77,THE DORCHESTER RD SURGERY,-2.457512,50.625193
3477.26,ST.JAMES SURGERY,-1.989956,51.352926
5952.610000000002,BOTLEY MEDICAL CENTRE,-1.299442,51.753753
6759.68,QUEEN'S MEDICAL CENTRE,-4.057196,51.080161
2231.64,EXMOOR MEDICAL CENTRE,-3.544825,51.038507
817.0799999999998,CHARLES ROAD SURGERY,-1.850621,52.4722
738.9299999999998,WILLESDEN GREEN SURGERY,-0.216091,51.553773
25.98,PRUH URGENT CARE CENTRE,0.059146,51.366243
7449.389999999998,BROOKROYD HOUSE,-1.67818,53.707224
6593.06,NETTLEHAM MEDICAL PRACTICE,-0.476253,53.262865
139.73,UNIVERSITY HEALTH SERVICE HEALTH CENTRE,-1.482709,53.380323
5233.67,SHEPPERTON MEDICAL PRACTICE,-0.453153,51.396402
5776.28,THE MANOR PRACTICE,-0.234983,50.835138
906.14,CLAPHAM JUNCTION MEDICAL PRACTICE,-0.173908,51.465969
19739.97,PEMBROKE MEDICAL GROUP,-3.560246,50.445527
2034.52,GREENFORD ROAD MED.CTR.,-0.345702,51.537697
1178.9,QUEENS WALK MEDICAL CENTRE,-0.393155,51.562716
5611.970000000001,ADDISON HOUSE - HAQUE PRACTICE,0.088979,51.770891
3979.43,ST PETER'S STREET MEDICAL PRACTICE,-0.100772,51.535597
3001.09,STOKENCHURCH MEDICAL CTRE,-0.904033,51.660479
1804.83,ABBOTS BROMLEY SURGERY,-1.880966,52.819974
2750.4100000000008,TOWNSIDE SURGERY,-2.29898,53.59031
864.4099999999999,GOODMAYES MEDICAL CENTRE,0.10990599999999999,51.567626
871.3099999999998,EAST PARADE MEDICAL PRACTICE,-1.061835,53.965993
15744.0,SHAFTESBURY MEDICAL CTR.,-1.497858,53.800234
5071.87,GROBY ROAD MEDICAL CENTRE (ID PATCHETT),-1.150468,52.644337
6676.71,FOUNTAIN MEDICAL CENTRE,-0.8043829999999998,53.07286
3663.37,SCAWSBY HEALTH CENTRE PRACTICE,-1.167843,53.53678299999999
10243.87,ST. GEORGE'S MEDICAL CENTRE,0.298817,52.458085
3561.78,CENTRAL SURGERY,0.147747,51.812546
1521.72,THE HOXTON SURGERY,-0.086829,51.533527
1533.3800000000006,LL MEDICAL CARE LTD,0.0021,51.555415
17267.920000000002,THE ADAM PRACTICE,-2.07822,50.757881
1888.59,PRIORY ROAD SURGERY,0.589253,50.860828
10357.22,WISTARIA & MILFORD SURGERIES,-1.547285,50.760041
4104.740000000002,GORDON STREET SURGERY,-1.644613,52.810998
34.87,HAVERING CCG,0.179796,51.579247
308.18,SOUTH KENT GROUP,1.118942,51.075872
140.88,URGENT CARE CENTRE NORTHWICK PARK HOSP,-0.322037,51.575407
4451.6,PROSPECT MEDICAL PRACTICE,1.285656,52.643921
2804.19,GROVELANDS MEDICAL CENTRE,-0.112028,51.620685
6351.160000000002,ST JAMES' SURGERY,1.315702,51.128516
1314.88,OXSHOTT MEDICAL PRACTICE,-0.360843,51.333099
2756.8,LAVENDER HILL GROUP PRACTICE,-0.15683,51.466044
8750.080000000002,ST.MARY'S SURGERY,-1.397475,50.905746
4477.04,SPRINGMEAD SURGERY  CHARD,-2.967972,50.869562
5772.730000000001,POND TAIL SURGERY,-0.066728,51.246436
4406.53,LYME VALLEY MEDICAL CENTRE,-2.22375,53.006305
1783.68,WOODLANDS MEDICAL PRACTICE,-2.31213,53.406624
1372.9899999999998,BATH ROAD SURGERY,-0.37684,51.469395
114.95,TAMESIDE & GLOSSOP IC NHS FT,-2.071433,53.49153
3.9,ACCT 2,-1.962695,53.898015
7600.26,THE ALDERGATE MED.PRACT.,-1.695644,52.639079
8760.809999999998,EASTGATE MEDICAL GROUP,-1.462815,54.006795
3557.71,NEWBOLD VERDON MED.PRACT.,-1.34334,52.634612
1572.6,BAKERSFIELD MEDICAL CENTRE,-1.104957,52.960219
2080.95,THE ORDNANCE UNITY CENTRE FOR HEALTH,-0.039073,51.672653
1986.05,BLOXHAM SURGERY,-1.372977,52.018108
72.29999999999998,GP HUBS - GP HEALTH PARTNERS LTD,-0.266331,51.334184
1.5,NORTH COTSWOLDS IMPROVED ACCESS,-2.239997,51.862659
6839.530000000002,THE LAKESIDE PRACTICE,-1.148909,53.61549599999999
3023.78,WESTWOOD CLINIC,-0.269054,52.591395
3579.57,THEOBALD MEDICAL CENTRE,-0.285584,51.661381
29.5,THE SURGERY,-0.184519,51.497627
4468.340000000001,COMBS FORD SURGERY,0.995999,52.180181
2615.69,HILLVIEW SURGERY,-0.318331,51.540536
1544.9800000000002,DR HAFFIZ,-0.119262,51.539321
4902.9000000000015,THE AVENUE SURGERY,-0.113425,50.844357
5785.49,NEW POND ROW SURGERY,-0.322292,50.824911
4852.230000000001,LUDLOW - PORTCULLIS,-2.715958,52.368905
328.98,DADHANIA SURGERY,-1.491047,52.405815
8981.52,HUDDERSFIELD ROAD SURGERY,-1.485631,53.558165
8818.220000000003,SHERINGHAM MEDICAL PRACTICE,1.214777,52.939688
5843.380000000001,CHURCH LANE HEALTH CENTRE,0.941162,50.984187
3843.93,BARN CLOSE SURGERY,-1.859248,52.03627
1970.96,LOSTOCK HALL MEDICAL CTR.,-2.688037,53.727502
10.8,WELLINGBOROUGH EXTENDED ACCESS,-0.695567,52.303398
142.22,SUMMERFIELD URGENT CARE CENTRE WIC,-1.937353,52.487686
2680.770000000001,PENINSULA MEDICAL PRACTICE,-2.915665,54.18795600000001
8698.639999999998,HEBDEN BRIDGE GROUP PRACTICE,-2.010942,53.744036
4381.02,STOCKWELL LODGE MED.CTR.,-0.055287,51.713792
2538.14,DR PM PATEL,0.219281,51.55632
579.29,CHISWICK FAMILY DRS PRACTICE,-0.259879,51.493563
2892.82,ILFORD MEDICAL CENTRE,0.07431899999999998,51.556823
3922.14,WITLEY SURGERY,-0.650163,51.156457
9672.079999999998,FURLONG MEDICAL CENTRE,-2.208139,53.063325
4124.02,THE WATERFIELD PRACTICE,-0.733923,51.409204
680.2199999999998,JERICHO HEALTH CENTRE,-1.265958,51.760293
1944.56,TEAN SURGERY,-1.988036,52.954415
2312.7300000000005,THORNLEY STREET MEDICAL CENTRE,-2.125789,52.58843
2161.99,MILE LANE HEALTH CENTRE,-2.335248,53.587814
2463.7399999999993,BOLTON MEDICAL CENTRE,-2.431399,53.56543
1866.0,WESTCROFT HEALTH CENTRE,-0.795699,52.006367
21.9,KINGSTON CCG SLDUC OOH,-0.283378,51.412517
8564.52,LOWTHER MEDICAL CENTRE,-3.586392,54.545056
3517.0200000000004,ANDAMAN SURGERY,1.715485,52.45691600000001
2915.18,BURNT ASH SURGERY,0.009913000000000002,51.452782
3570.6700000000014,HILLVIEW MEDICAL CENTRE,-0.557727,51.315501
1429.7599999999998,BATHEASTON MEDICAL CENTRE,-2.317387,51.406032
2705.77,HEALD GREEN HEALTH CENTRE 2,-2.229276,53.369878
2049.74,SMITH (RICHMOND LOCK),-0.322897,51.464517
1354.7099999999996,JUBILEE GARDENS MEDICAL CENTRE,-0.368739,51.521097
22.36,NORTHAMPTONSHIRE OUT OF HOURS SERVICE,-0.683359,52.29767
8525.86,BRAMPTON MEDICAL PRACTICE,-2.734846,54.94237
6414.1799999999985,PLANE TREES GROUP PRACTICE,-1.894437,53.730448
7561.479999999998,THORNTON MEDICAL CENTRE,-1.576209,53.791908
1718.9299999999996,BRAILSFORD & HULLAND MEDICAL PRACTICE,-1.624927,52.96943
6859.68,BISHOPS CLOSE MEDICAL PRACTICE,-1.599142,54.699817
8446.509999999998,CLEE MEDICAL CENTRE,-0.041433,53.566223
1660.39,BALDWINS LANE SURGERY,-0.448705,51.654076
1466.26,NEASDEN MEDICAL CENTRE,-0.247382,51.559667
457.06,JOHN SMITH MEDICAL CENTRE,0.112125,51.538899
5762.260000000001,FAIRFIELD PMS,0.038949,51.483908
9929.81,BURNHAM HEALTH CENTRE,-0.662137,51.5349
15053.24,ASPEN MEDICAL PRACTICE,-2.225797,51.865969
6956.5999999999985,TRENT VALE MEDICAL PRACTICE,-2.201785,52.987386
1072.5500000000004,BROOKSIDE SURGERY,-1.399088,52.35048
947.49,4/LOWER BROUGHTON MEDICAL PRACTICE,-2.258808,53.49359
1547.2299999999998,DESFORD MEDICAL CENTRE,-1.296116,52.627473
1116.9199999999996,DR VIJE'S SURGERY,-1.650877,52.617569
316.25000000000006,DR R SHARMA'S PRACTICE,-0.096482,51.499125
12400.42,NORTON MEDICAL CENTRE,-1.308737,54.588737
1222.38,PEEL PARK SURGERY,-1.731903,53.806791
2157.5200000000004,BOURN SURGERY,-0.063404,52.193155
4505.589999999998,COACHMANS MEDICAL PRACTICE,-0.203875,51.096335
4339.459999999999,HEREWARD MEDICAL CENTRE,-0.380913,52.768626
8896.939999999997,PENISTONE GROUP PMS PRACTICE,-1.630732,53.523565
10053.8,THE PARK SURGERY,1.7292759999999998,52.606218
1427.9,LANFRANC MEDICAL CENTRE,-0.332746,51.561586
6439.8200000000015,WOODLANDS MEDICAL CENTRE,-1.258898,51.603637
1237.15,KNOCKIN MEDICAL CENTRE,-2.993042,52.79343
8942.980000000003,THE CROSS KEYS PRACTICE,-0.830848,51.723655
886.5899999999998,HILLCREST SURGERY,-2.431687,51.311982
3309.76,APSLEY SURGERY,-2.187008,53.035377
2580.48,ASHFIELD ROAD SURGERY,-2.132841,52.62604399999999
7.8,CHELTENHAM LOCALITY NURSE PRESCRIBER,-2.176389,51.847073
5146.080000000001,BLACKETTS MEDICAL PRACTICE,-1.559007,54.527221
3023.54,DR A SINHA,-0.108523,53.567689
1971.99,STANHOPE SURGERY,-0.032073,51.688002
2614.34,THE GRAHAM PRACTICE,0.048721,51.541534
6341.92,MID SUSSEX HEALTH CARE,-0.175279,50.933719
30119.95,PORTSDOWN GROUP PRACTICE,-1.080952,50.812876
4859.13,ABBEY MEDICAL GROUP,-1.119194,53.100674
1226.7499999999998,HOLBORN MEDICAL CENTRE,-0.118539,51.522233
2124.419999999999,BRICK LANE SURGERY,-0.048612,51.657327
2107.96,ELM LODGE SURGERY,-0.096232,51.451506
9423.12,THE LIGHTHOUSE GROUP PRACTICE,-1.0805049999999998,50.796551
6617.409999999999,THE ORCHARD PARTNERSHIP,-1.865867,51.077878
4014.08,PARKGATE SURGERY,-2.882743,53.564772
13.5,WLCCG EXTENDED HOURS HUBS,-0.217218,51.522362
1.5,NEWARK ACUTE HOME VISITING SERVICE,-1.238124,52.98146
16657.029999999995,WILLIAM BROWN CENTRE,-1.33142,54.757994
6678.790000000001,RED HOUSE MEDICAL CENTRE,-1.424063,54.925457
5580.080000000003,COLNE VALLEY GROUP PRACTICE,-1.9282130000000002,53.602096
2002.18,SOUTHEY GREEN MEDICAL CTR,-1.477666,53.419051
3799.85,IVRY STREET MEDICAL PRACTICE,1.148624,52.064021
2691.21,NEWBURY GROUP PRACTICE,0.085981,51.576435
1048.88,BRAMPTON HEALTH CENTRE,-0.277386,51.586099
2112.26,DOCKLANDS MEDICAL CENTRE,-0.021143,51.491152
2984.4100000000008,ABBEY WOOD SURGERY,0.11653,51.497094
4363.47,STAFFORD MEDICAL GROUP,-2.914755,51.35259
6486.38,SEVERN VALLEY MEDICAL PRACTICE,-2.235045,52.190415
4089.31,LIME SQUARE MEDICAL CENTRE,-2.164901,53.473649
648.42,HATTON MEDICAL PRACTICE,-0.433285,51.457879
7677.190000000002,BIRBECK MEDICAL GROUP,-2.742581,54.656125
5153.27,WENLOCK ROAD SURGERY,-1.455226,54.972635
3657.01,CRICH MEDICAL PRACTICE,-1.482573,53.084327
4287.8,LUDHAM AND STALHAM GREEN SURGERIES,1.534423,52.709131
8069.399999999998,WELL CLOSE MEDICAL GROUP,-2.006127,55.77245799999999
8447.74,THE BURNS PRACTICE,-1.12309,53.520707
3735.14,KING GEORGE ROAD SURGERY,0.518518,51.348911
4573.27,CHURCHDOWN SURGERY,-2.171559,51.882487
2782.59,VENTNOR MEDICAL CENTRE,-1.203791,50.594548
2314.28,WEST VIEW SURGERY,-2.50212,51.411923
6971.19,CONCEPT HOUSE SURGERY,-2.98492,53.449136
1338.72,HEATHROW MEDICAL CENTRE,-0.433924,51.49302
3.0,COMMUNITY GERIATRICIAN SERVICE,-1.568473,53.81497099999999
3467.0699999999993,EAST PARADE SURGERY,-1.529793,53.996354
1399.44,BASLOW HEALTH CENTRE,-1.617823,53.246144
1149.8,ASQUITH SURGERY,-1.117116,52.601489
2488.45,SUN LANE,1.087469,51.071536
1999.3900000000006,THE CHURCH VIEW PRACTICE,0.609995,51.363412
1903.37,TRIANGLE GROUP PRACTICE,-0.011071,51.457798
5612.380000000001,BICESTER HEALTH CENTRE,-1.157239,51.896742
5555.1,BILBROOK MEDICAL CENTRE,-2.181749,52.624775
29458.4,LANCASTER MEDICAL PRACTICE,-2.797202,54.047583
4074.3,NEW COURT SURGERY,-2.30878,52.113538
3080.9000000000005,SWANWOOD PARTNERSHIP,0.519034,51.613356
3644.68,THE JUNCTION SURGERY,-1.759212,53.643662
106.71,BADGER GROUP OOH,-1.8778259999999998,52.477589
1.5,BCH URGENT CARE CENTRE,-2.583357,51.412858
1110.29,COMMUNITY NURSING (SOUTH TEES),-1.215564,54.570237
1181.99,WEST HERTS RESPIRATORY SERVICE,-0.468578,51.750846
16.8,GP SERVICES - GP HUBS,-0.175734,51.240416
5613.329999999999,MIDDLE CHARE MEDICAL GROUP,-1.573113,54.855636
6459.750000000001,LEIGH VIEW MEDICAL PRACTICE,-1.558358,53.728574
41.8,NORTH NORFOLK HUB 2 (BIRCHWOOD),1.38334,52.820065
2249.03,GILDERSOME HEALTH CENTRE,-1.6293,53.756554
3899.29,HAZELMERE MEDICAL CENTRE,-1.16453,52.57337
2866.51,QUEENS PARK HEALTH CENTRE,-0.493075,52.133151
490.96,THE HEATHCOTE PRIMARY CARE CENTRE,0.062768,51.593832
6227.250000000001,TRESCOBEAS SURGERY,-5.085333,50.15531
3935.43,MITCHELDEAN SURGERY,-2.488369,51.865935
6257.050000000001,HARESFIELD HOUSE SURGERY,-2.202996,52.194829
5493.420000000001,LAUREL HOUSE SURGERY,-1.692825,52.636563
5056.569999999999,LONGFORD PRIMARY CARE CENTRE,-1.48555,52.449933
6293.86,ROPE GREEN MEDICAL CENTRE,-2.453958,53.06655
4756.830000000001,AINSDALE MEDICAL CENTRE,-3.03882,53.602403
3243.91,QUEEN STREET MEDICAL PRACTICE,-3.589063,54.546567
2471.080000000001,THE MILLER PRACTICE,-0.092165,51.551419
6011.550000000001,THE GROVES MEDICAL CENTRE,-0.26224,51.410048
3872.88,THE MARINE & OAKRIDGE PARTNERSHIP,-1.806532,50.722838
3909.4199999999987,PORT ISAAC SURGERY,-4.824594,50.589808
6222.21,ST JOHNS HOUSE SURGERY,-2.25911,52.18874
3330.3,ADDERLEY GREEN SURGERY,-2.135511,52.991714
2211.01,DR BILAS,-2.063063,52.612824
1182.5400000000004,DILL HALL SURGERY,-2.390844,53.754996
3794.28,WEST TIMPERLEY MEDICAL CENTRE,-2.353117,53.402699
743.45,SUMMERLEE MEDICAL CENTRE,-0.652145,52.337022
825.05,THE GRANGE MEDICAL CENTRE,-0.262039,52.57839
5953.51,GREEN RIDGE SURGERY,-1.8710349999999998,52.428433
5757.210000000001,ROCK COURT SURGERY,-2.916187,53.411597
3179.67,HAVEN HEALTH,1.327039,51.96536
153.5,DANEHOUSE MEDICAL PRACTICE,-2.238948,53.791326
689.6999999999998,SHORTSTOWN MEDICAL CENTRE,-0.432463,52.110853
261.67,MK URGENT CARE SERVICES OOH,-0.7357599999999997,52.026384
71.02,LIMEFIELD ROAD MEDICAL PRACTICE,-2.26047,53.506995
126.87,THE MATTHEWMAN PRACTICE,-0.149281,51.545823
1396.0099999999998,LAKESIDE SURGERY,-1.310932,53.52812
1947.03,VALLEY VIEW SURGERY,-1.731903,53.806791
1001.53,LICHFIELD GROVE SURGERY,-0.19329,51.599604
4061.29,ARBURY MEDICAL CENTRE,-1.497961,52.51662
3391.7700000000004,CHURCH LANE - KHAN,-1.793962,52.487056
2101.23,BEECHDALE CENTRE,-2.007339,52.600867
7083.910000000003,DINGLE PARK PRACTICE,-2.972885,53.38633
2562.0000000000005,BEECHWOOD SURGERY,-3.009057,53.871568
8678.769999999997,HEYWOOD HEALTH,-2.239335,53.58736999999999
3173.570000000001,GLOUCESTER HOUSE MEDICAL CENTRE,-2.352599,53.447337
2159.9500000000007,FIR TREE,-2.878691,53.44930600000001
28.5,NELPCT OUT OF HOURS SERVICE,-0.096229,53.544858
55.2,WALK IN CENTRE (WIC),-1.784934,51.563016
6176.93,MAYNARD COURT SURGERY,0.020165,51.685605
4740.970000000002,YARM MEDICAL PRACTICE,-1.355519,54.50530500000001
2825.2499999999995,BENSHAM FAMILY PRACTICE,-1.617038,54.952781
1939.93,EASTMOOR HEALTH CENTRE,-1.476864,53.690004
474.06,SPUR ROAD SURGERY,-0.086621,51.586597
2940.07,ALBION STREET SURGERY,-0.133965,50.827627
6145.37,THE BANKS & BEARWOOD MEDICAL CENTRE,-1.9292169999999997,50.768326
1423.96,MERE SURGERY,-2.265342,51.089873
6595.340000000001,THE GROUP PRACTICE ALFRED SQUIRE ROAD,-2.080754,52.599417
5477.619999999999,LANGWORTHY MEDICAL PRACTICE,-2.294771,53.489371
1430.71,LEY HILL SURGERY,-1.983266,52.421346
1807.36,CRESCENT SURGERY,0.106446,51.389854
749.9299999999998,GREEN CEDARS MEDICAL CENTRE,-0.073642,51.616071
2792.6700000000005,WHITE HORSE SURGERY,0.343258,51.435153
1.5,LANCS HOUSE UROLOGY,-2.218662,53.592207
6428.87,PARK HOUSE MEDICAL CENTRE,-2.805295,53.42670699999999
6885.480000000001,SOUTH KING STREET MEDICAL CENTRE,-3.047855,53.816775
36.37,ANN MARIE HOWES CENTRE,-1.7785380000000002,52.464805
27.5,AIREBOROUGH COMMUNITY CARE,-1.684881,53.866663
2165.36,PEELER HOUSE SURGERY,-0.438756,53.72252
947.78,DR DHITAL PRACTICE,-0.003074,51.587786
7332.83,WOODLANDS HEALTH CENTRE,0.38485,51.18077
44.0,WEST KENT GROUP,1.118942,51.075872
32.5,BRAMHOPE DERMATOLOGY COMMUNITY CLINIC,-1.61581,53.881903
4168.32,DALTON SURGERY,-3.179816,54.155917
10663.16,RAJ MEDICAL CENTRE,-0.113968,53.550655
5880.100000000001,OAKWOOD LANE MEDICAL PRACTICE,-1.493931,53.819982
3278.11,CADDINGTON SURGERY,-0.458179,51.864502
88.22,GREENWICH CCG GP ACCESS HUB,0.050556,51.457843
4869.04,WEST ROAD MEDICAL CENTRE,-1.656263,54.976209
6103.8,FOREST PRACTICE,0.07523499999999998,51.654789
1764.9399999999996,PRASAD,0.210579,51.600308
8285.85,NORTHDOWN SURGERY,1.368001,51.379866
12571.050000000005,DARWEN HEALTHLINK,-2.471427,53.695744
1984.89,DAVID MEDICAL CENTRE,-2.268652,53.43186
4774.54,EDLESBOROUGH SURGERY,-0.588625,51.868423
957.17,CHURCH VIEW MEDICAL CENTRE,-2.960328,50.935622
1103.08,HENDON WAY SURGERY,-0.241873,51.579182
159.57,SPECIALIST NURSE,-1.517573,53.993807
166.44000000000003,NC GPA PLUS,-1.152649,52.954624
5284.420000000001,NETHERFIELD HOUSE,-1.548435,55.063632
10923.020000000002,PRACTICE 3  MEDICAL CENTRE  BRIDLINGTON,-0.201064,54.084715
3246.01,THE ALMONDBURY SURGERY,-1.751311,53.631868
3521.7100000000005,NEWLAND SURGERY,-1.424247,53.695146
3978.76,TREETON MEDICAL CENTRE,-1.354708,53.384994
97.46,COMMUNITY MATRONS,-2.095555,52.599722
1.5,AMBER VALLEY HEALTH,-1.3726,53.082351
3125.24,THE CHESTNUTS & HALLGATE SURGERY,-0.403621,53.778985
13018.789999999995,SHIRES HEALTHCARE,-1.215692,53.202513
3096.8,ORCHARD SURGERY,-1.278154,52.836522
2978.4,ST GEORGES MED PRACTICE,-1.132346,52.930754
1614.5500000000004,THE RANDOLPH SURGERY,-0.186852,51.529819
1878.47,HEXTABLE SURGERY,0.182972,51.409182
3593.9,THE ROEHAMPTON SURGERY,-0.242431,51.451154
1245.13,CRICK MEDICAL PRACTICE,-1.135861,52.343212
3737.29,THE VILLAGE SURGERY,-2.219972,53.033945
3269.2,STONE CROSS MEDICAL CENTRE,-1.982689,52.545444
5035.6100000000015,ILEX VIEW MEDICAL PRACTICE,-2.280663,53.70081
1922.48,PEEL CROFT,-1.6339549999999998,52.799271
10698.06,BEDLINGTONSHIRE MED.GROUP,-1.598682,55.1322
4619.68,MALTINGS SURGERY,-0.337918,51.751851
2844.48,RECTORY MEADOW SURGERY,-0.6175,51.669079
72.28,CARE UK OOH,1.210633,52.034014
10.5,IC24 LTD (HWLH OOH),0.891514,51.129106
3608.61,KIRKBY COMMUNITY PRIMARY CARE CENTRE (3),-1.248741,53.10176
6084.51,BERKLEY PRACTICE,-2.024533,52.58916
6786.39,WOODLANDS MEDICAL PRACTICE,-2.142182,53.545559
2742.36,BROOKS BAR MEDICAL CENTRE,-2.261969,53.461412
1481.2100000000007,THE VILLAGE MEDICAL CTR,-0.512653,52.128152
122.15,GP COLLABORATIVE OOH,-1.455965,53.409821
1540.78,ST NEOTS HEALTH CENTRE,-0.267116,52.228966
12.0,QUAY HEALTH EAC,-0.069645,51.49696
4727.22,MIDDLESTOWN,-1.600562,53.650545
1998.7,AEGIS MEDICAL CENTRE,0.467525,51.57556
4104.0,LAVANT ROAD SURGERY,-0.781051,50.853385
474.5400000000001,BEGG PRACTICE,-0.179391,51.459968
4213.48,EMMER GREEN SURGERY,-0.972861,51.483584
8907.340000000002,ST THOMAS MEDICAL GROUP,-3.54518,50.714472
10329.04,BOSWORTH MEDICAL CENTRE,-1.7536330000000002,52.480569
35.1,CBS OOH,-1.233579,53.134573
10.5,EASTBOURNE  HAILSHAM & SEAFORD OOH,0.891514,51.129106
41.88,INTERMEDIATE CARE (THE PEELE),-2.259671,53.385779
5582.170000000001,WEM AND PREES MEDICAL PRACTICE,-2.722566,52.859338
2660.78,ALL SAINTS SURGERY,-1.644121,52.794285
3349.89,DORRIDGE SURGERY,-1.752074,52.372757
870.35,QUEENS ROAD SURGERY,-1.474524,52.522119
8672.299999999997,ASH TREES SURGERY,-2.769484,54.129481
2197.64,FAMILY PRACTICE,-2.486748,53.750552
5906.59,LEESBROOK SURGERY,-2.07266,53.53879
3.0,ASHFORD HUB,-0.472813,51.444022
3656.84,RADCLIFFE-ON-TRENT. HEALTH CENTRE,-1.03822,52.946139
1951.96,MANCHESTER ROAD SURGERY,-1.521086,53.380573
1758.25,PENSHURST GARDENS SURGERY,-0.272812,51.616129
1620.4599999999996,ORCHARD END,0.539532,51.091415
962.9799999999998,BLOOMSBURY SURGERY,-1.871892,52.49324300000001
1353.09,KHAN MEDICAL PRACTICE,-2.000799,52.613174
2887.3899999999994,ASHURST PRIMARY CARE,-2.772723,53.563208
11600.53,PEASE WAY MEDICAL CENTRE,-1.576495,54.618581
2643.34,ELSDON AVENUE SURGERY,-1.525885,55.07062
1597.9100000000005,CROSLAND MOOR SURGERY,-1.809637,53.63841
6827.33,PARKGATE MEDICAL CENTRE,-1.342798,53.455454
609.3699999999999,QUEENS AVENUE PRACTICE,-0.147916,51.591852
1725.63,DR RHK SINHA'S PRACTICE,-0.103058,51.482668
876.82,THE ADDISCOMBE SURGERY,-0.061851,51.376293
12218.01,THE CAMBRIDGE PRACTICE,-0.76565,51.254364
2388.98,BRICKFIELDS SURGERY,0.605168,51.653143
6329.549999999998,THE CEDARS SURGERY,1.403174,51.217619
5576.359999999999,ORCHID HOUSE SURGERY,-1.894499,50.801788
7438.700000000003,WEAVERS MEDICAL,-0.733538,52.401531
10713.94,BIDEFORD MEDICAL CENTRE,-4.211785,51.017201
4685.6,CORBETT MEDICAL PRACTICE,-2.148792,52.263269
3032.92,COBRIDGE SURGERY,-2.187008,53.035377
5372.859999999999,ALBION MEDICAL PRACTICE,-2.088476,53.48960400000001
3775.62,LONGFIELD MEDICAL PRACTICE,-2.28357,53.533828
94.7,PALACCI (CASTELNAU),-0.238274,51.476873
2764.9000000000005,BRERETON SURGERY,-1.924317,52.747482
92.5,THE LAWNS SURGERY,-0.502907,50.807746
294.78,BARNET COPD SERVICE,-0.271242,51.606493
3138.630000000001,BRIERLEY MEDICAL CENTRE,-1.382484,53.594188
709.39,TEMPLE FORTUNE MEDICAL GROUP,-0.197845,51.581101
5545.420000000001,WEST MALLING GROUP PRACTICE,0.407707,51.293351
4256.209999999999,MOAT HOUSE SURGERY,-0.146361,51.259819
5388.330000000001,DENHAM MEDICAL CENTRE,-0.502236,51.584564
4026.590000000001,CHEW MEDICAL PRACTICE,-2.629195,51.35619
4990.61,CHARING SURGERY,0.791374,51.20971
7829.99,HEART OF BATH,-2.373947,51.376364
2461.1500000000005,LOSTWITHIEL SURGERY,-4.668763,50.407892
2395.23,THE GROVE ROAD PRACTICE,-0.202341,51.358201
1560.12,HANLEY PRIMARY CARE CENTRE,-0.12083699999999999,51.567951
2628.29,LEYLAND SURGERY,-2.709316,53.689645
32.5,HP NMP'S RUSH CCG,-1.143101,53.130244
2014.37,DEARNE VALLEY HEALTH CENTRE,-1.626482,53.588349
9738.979999999996,SEAFORD MEDICAL PRACTICE,0.099275,50.772678
1350.1899999999996,THE WHITEHORSE PRACTICE,-0.097391,51.385869
2804.19,TOWER HOUSE SURGERY,-0.770004,51.636372
5419.000000000001,CHURCH STREET PRACTICE,-1.425847,51.598763
10596.829999999998,ROSEBANK HEALTH,-2.242194,51.852611
2854.63,MAPLE VIEW MEDICAL PRACTICE,-1.905693,52.31659
4408.580000000001,HOWDEN MEDICAL PRACTICE,-0.8694039999999998,53.744175
6413.28,THE WILSDEN MEDICAL PRACTICE,-1.86138,53.818377
4668.8600000000015,GREASBROUGH MEDICAL CENTRE,-1.372776,53.452893
4290.359999999999,WEST MERSEA SURGERY,0.9193420000000002,51.778349
3815.97,TWYFORD SURGERY,-1.314229,51.019421
2653.54,IDE LANE SURGERY,-3.534972,50.699471
3463.74,THE ARROW SURGERY,-1.861382,52.218546
3808.219999999999,WILLENHAL OAK MEDICAL CENTRE,-1.463131,52.388988
15634.739999999998,THE OVER-WYRE MED.CTR.,-2.976492,53.928203
647.6199999999998,FAMILY SURGERY,-2.346055,53.396194
540.74,CRANBROOK MEDICAL PRACTICE,-3.416198,50.746596
9.0,GOSPORT PRIMARY CARE ACCESS CENTRE,-1.148081,50.793062
9769.749999999998,MARKET HARBOROUGH MED.CTR,-0.924843,52.477084
2069.11,PORTLAND ROAD PRACTICE,-0.208019,51.507366
1218.11,THE STROUDLEY WLK HTH CTR,-0.017533,51.527214
3572.9700000000007,ST JOHN'S MEDICAL PRACTICE,0.195249,51.285009
3797.6,DERRY DOWNS SURGERY,0.116651,51.385174
1244.37,DANES CAMP MEDICAL CENTRE,-0.904374,52.205152
3614.3599999999988,CULVERHAY SURGERY,-2.348649,51.638921
2898.4,SPRINGFIELDS MEDICAL CENTRE,-2.597522,53.389256
2656.5299999999993,HALLIWELL SURGERY 1,-2.431738,53.588322
856.3099999999998,FITZMAURICE (KEW),-0.283117,51.475875
18078.69,THE MEDICAL GROUP,-1.628911,54.748296
2786.3100000000004,KINGS HEAD MEDICAL PRACTICE,-0.011448,51.635688
9.0,COMMUNITY NURSES,-2.500977,51.462504
1340.29,THE GLENDALE SURGERY,-2.01842,55.546525
7459.47,THORNE MOOR MEDICAL PRACTICE,-0.966348,53.613648
6711.139999999998,ST.PETER'S MEDICAL CENTRE,-0.135237,50.831002
3627.08,YALDING,0.429804,51.221188
1249.7,BIRDHURST MEDICAL PRACTICE,-0.092613,51.365279
5643.740000000002,FORESTSIDE MEDICAL PRACTICE,-1.416173,50.851823
5335.250000000001,GLASTONBURY SURGERY,-2.721853,51.148462
5695.69,MEDINA HEALTHCARE,-1.298686,50.697239
7690.72,GREENWAY COMMUNITY PRACTICE,-2.611274,51.499595
11218.87,HIGHBRIDGE MEDICAL CENTRE,-2.979117,51.227372
5808.72,CANTILUPE SURGERY,-2.712261,52.055418
2022.15,DRS SHAH & TALPUR,-2.194635,52.974032
6255.75,WHALLEY MEDICAL CENTRE,-2.406348,53.819793
7232.92,PIKES LANE 1,-2.446348,53.572728
1.5,BARTON MOSS SECURE CHILDREN'S HOME,-2.39687,53.468834
3623.01,SEASCALE HEALTH CENTRE,-3.479998,54.396756
3314.110000000001,RIPLEY MEDICAL CENTRE,-1.405723,53.04704
5338.790000000001,DENABY MEDICAL PRACTICE,-1.245792,53.490666
2152.3100000000004,UPTON ROAD SURGERY,-0.401058,51.656689
5712.009999999998,THE HOLLIES,0.610574,51.555461
977.27,THE LEIGH SURGERY,0.656153,51.555504
3102.080000000001,THE DOWNLAND PRACTICE,-1.312402,51.463442
1465.5699999999995,EGERTON/DUNSCAR HEALTH CENTRE,-2.426383,53.617589
6.0,SOLENT WEST NMPS,-1.446031,50.92524
33.0,CARE UK COVENTRY OOH,-1.5080049999999998,52.413401
3.0,COASTAL HEALTH SOUTH,1.715177,52.478072
191.44000000000003,DONCASTER URGENT CARE & OUT OF HOURS,-1.109062,53.530806
4829.8200000000015,FARROW MEDICAL CENTRE,-1.74312,53.802511
7527.730000000002,BRAMLEY VILLAGE HEALTH & WELLBEING CTR,-1.623032,53.80781999999999
3621.66,CUFFLEY AND GOFFS OAK MEDICAL PRACTICE,-0.113106,51.708171
3.0,NEAS SOUTH TYNESIDE CCG,-1.712365,54.969713
15.3,GP SERVICES-CRAWLEY HUB,-0.175734,51.240416
5133.559999999999,CAMPINGLAND SURGERY,0.690978,52.645997
8655.289999999997,LEIGHTON ROAD SURGERY,-0.66795,51.915779
4188.26,WILLOW TREE FAMILY DOCTORS,-0.265224,51.589337
1639.2899999999993,MAIDSTONE RD RAINHAM SURGERY,0.600379,51.36233
1755.2599999999998,BANK HOUSE SURGERY,0.069949,51.359218
3691.7100000000014,YORK MEDICAL PRACTICE,-0.325697,51.449369
3714.52,CARRINGTON HOUSE SURGERY,-0.749217,51.632299
3795.719999999999,HOLLYOAKS MEDICAL CENTRE,-1.869052,52.377979
2732.14,GARSTON FAMILY HEALTH CENTRE,-2.89683,53.353909
4789.119999999999,COMMONFIELD RD SURGERY,-3.086369,53.370187
968.4,WERNETH MEDICAL PRACTICE,-2.126938,53.53497
981.9,DR VICTORIA MUIR'S PRACTICE,-0.151358,51.490651
3597.360000000001,THE FAMILY PRACTICE,-3.229282,54.116755
3014.510000000001,COWGILL SURGERY,-1.814543,53.781952
1247.14,THE GLENSIDE COUNTRY PRACTICE,-0.537958,52.75451
1072.4,NORTH AVENUE SURGERY,0.735187,51.546618
3656.54,HAWTHORNS SURGERY,-0.175174,51.241163
3549.4,TRINITY MEDICAL CENTRE,-0.158437,51.437554
9416.98,HOMEWELL.CURLEW PRACTICE,-0.978019,50.851067
6105.78,SUNLIGHT GROUP PRACTICE,-3.00005,53.363076
4413.3200000000015,BLYTH ROAD MEDICAL CENTRE,-1.20365,53.422231
3362.2,HARBOUR MEDICAL PRACTICE,0.324489,50.797353
30.5,M & A LTC PALLIATIVE CARE NURSE,-1.238124,52.98146
1.5,BROOMFIELD DOCTOR IN ED,0.465993,51.774654
4.5,M&A AHVS (PICS),-1.238124,52.98146
11255.820000000005,THE HAYMARKET HEALTH CTR,-2.211781,53.060343
4117.31,HEATHERLANDS MED CTR,-3.089543,53.381475
2956.46,CATHEDRAL MEDICAL CENTRE,0.275488,52.413145
17.669999999999995,NDUC NEWCASTLE GATESHEAD OOH,-1.58819,55.01931999999999
69.1,EXTENDED ACCESS PRIMARY CARE HUB,-0.079465,51.533775
1107.61,THE GAMSTON MEDICAL CTR.,-1.100495,52.924252
108.31,ERDINGTON GP HEALTH & WELLBEING WIC,-1.840871,52.522486
7.88,CRISIS RESPONSE TEAM,-2.186902,53.52264
36.6,CENTRAL DURHAM GP EXT'D ACCESS SERVICE,-1.56716,54.7787
18016.1,AUCKLAND MEDICAL GROUP,-1.678996,54.648085
19545.47,HAXBY GROUP PRACTICE,-1.081866,54.019329
326.42,VERITAS HEALTH CENTRE,-1.481026,53.354257
5685.43,THE NEVELLS ROAD SURGERY,-0.22942,51.980882
1012.15,COLLINGWOOD ROAD SURGERY,0.638271,51.802938
4479.730000000001,STOCK HILL SURGERY,0.031768,51.312089
1393.7599999999998,CLAREMONT MEDICAL CENTRE,-0.306132,51.390808
2833.26,WATERFRONT AND SOLENT SURGERY,-1.403379,50.870013
1393.16,THE ABINGDON HEALTH CENTRE,-0.197138,51.496085
3268.74,ELTHAM PALACE PMS,0.053714,51.449946
3394.19,CHAWTON PARK SURGERY,-0.989411,51.139814
6757.169999999999,THE OAKS MEDICAL CENTRE,-1.895827,52.552454
2232.0,NEWBRIDGE SURGERY,-2.155299,52.5936
770.5699999999998,ST.GEORGES MEDICAL CENTRE,-0.24612,51.558731
1512.9800000000002,OAKWOOD MEDICAL CENTRE,-0.134269,51.646534
71.40000000000002,SMGPF,-2.237795,53.434307
73.65999999999998,DCHS DERBY CITY,-1.441882,53.221288
4342.440000000001,REDBURN PARK MEDICAL CENTRE,-1.474775,55.00092
2510.88,BARKEREND HC - EL ELIWI,-1.7218490000000002,53.797834
1386.62,ROSEMEAD DRIVE SURGERY,-1.083088,52.5934
3187.21,BRENTFORD GROUP PRACTICE,-0.310054,51.48676
6300.31,JUBILEE MEDICAL CENTRE,0.300332,51.3978
4144.73,LAMBETH WALK GROUP PRACTICE,-0.11259100000000001,51.495609
2928.74,SOUTHMEAD SURGERY,-0.616953,51.552538
3277.62,MALLING HEALTH BLUE SUITE,0.609995,51.363412
3252.5799999999995,FARNHAM DENE MEDICAL PRACTICE,-0.777405,51.200549
11213.489999999994,BRUNEL MEDICAL PRACTICE,-3.516948,50.479349
7411.35,THE MANOR PRACTICE,-1.8236169999999998,52.55816
3105.16,DUNCAN STREET PRIMARY CARE PARTNERSHIP,-2.126602,52.57346999999999
2855.01,WESTOVER SURGERY,-5.07501,50.148927
601.9500000000002,LANGTHORNE SHARMA FAMILY PRACTICE,0.0021,51.555415
3804.47,WEST MEADS SURGERY,-0.701481,50.788299
22.8,PBORO WEEKEND HOURS GP PILOT,-0.279386,52.583921
5689.56,BUSHLOE SURGERY,-1.116921,52.583283
3518.2900000000004,LEISTON SURGERY,1.575953,52.207708
958.92,HEATHFIELDE MEDICAL CENTRE,-0.179797,51.585238
6923.720000000001,MOTE,0.545625,51.246876
4229.53,WINSCOMBE SURGERY,-2.830537,51.315196
1587.6999999999996,ELTHAM PARK SURGERY,0.061023,51.4547
2920.35,JAMES O'RIORDAN MEDICAL CENTRE,-0.212686,51.385157
672.74,27 BEAUMONT STREET,-1.26216,51.755081
126.1,ST LUKES MEDICAL CENTRE,-3.517636,50.394313
3365.15,PRIMROSE SURGERY,-2.357311,53.456159
916.7799999999999,THE OLD DAIRY HEALTH CENTRE,-0.091201,51.436586
509.5,SUTTON COMMUNITY SERVICES,-0.183642,51.380313
3831.04,THE MANOR SURGERY,-1.216371,52.925036
4096.72,ESSEX LODGE,0.026685000000000004,51.527915
3748.62,BRIDGE MEDICAL CENTRE,-0.166439,51.117364
3650.13,THE CRANBORNE PRACTICE,-1.9192779999999998,50.919773
1902.77,NEW FOREST MEDICAL GROUP,-1.576665,50.81471
2012.39,SWALLOWFIELD MEDICAL PRACTICE,-0.958531,51.378289
12627.330000000005,TALBOT MEDICAL CENTRE,-1.440661,54.973054
3708.46,NOVA SCOTIA MEDICAL CNTR,-1.373051,53.747561
9432.410000000002,ABBEY SURGERY,-4.150401,50.546904
3739.82,WHITEACRES MEDICAL CENTRE,-2.300547,52.124716
2078.6800000000007,AUDLEM MEDICAL PRACTICE,-2.508717,52.989615
1657.15,KENNETH MACRAE MED CENTRE,-2.786435,53.49903
1096.82,WOODLANDS MEDICAL PRACTICE,-0.170943,51.592914
4005.18,VERNON STREET MEDICAL CTR,-1.49039,52.924019
5085.96,BRIDGE COTTAGE SURGERY,-0.215995,51.830002
2348.68,DR KRISHNAN & PTNR - KENT ELMS HC,0.664114,51.563831
2031.5099999999993,CRANHAM HEALTH CENTRE,0.265291,51.568865
3123.9899999999993,LEWISHAM MEDICAL CENTRE,0.004522,51.458513
3463.9100000000008,LYDNEY PRACTICE,-2.529867,51.727913
4628.35,ST. JOHNS SURGERY,-2.059728,52.337612
8921.429999999997,MONTAGUE MEDICAL PRACTICE,-0.872899,53.707031
3825.36,HORTON BANK PRACTICE,-1.806018,53.774478
4804.660000000002,HIGH STREET PRACTICE,-1.458313,53.597926
2699.69,DR BAKER & PARTNERS,0.548167,51.570733
1902.83,INGREBOURNE MEDICAL CENTRE,0.210579,51.600308
949.86,CROUCH HALL ROAD SURGERY,-0.127301,51.579178
6808.38,CENTRAL SURGERY,-0.299929,51.390825
5494.85,ST PAUL'S SURGERY,-1.32139,51.065963
4039.8,KINGTON MEDICAL PRACTICE,-3.022556,52.199361
6194.49,WEST GORTON MEDICAL PRACTICE,-2.203859,53.46720500000001
18.58,NON MEDICAL PRESCRIBERS,-0.8019889999999998,51.797983
3926.85,THE LEEDS ROAD PRACTICE,-1.535156,53.980466
4950.600000000001,FOXHILL MEDICAL CENTRE,-1.501327,53.429911
2002.19,CAULDWELL MEDICAL CENTRE,-0.472495,52.128265
959.3499999999997,SANDRINGHAM PRACTICE,-0.067207,51.547773
5218.370000000001,LAKESIDE MEDICAL,0.122454,51.496518
3710.54,LEAP VALLEY MEDICAL CENTRE,-2.487852,51.496541
1432.0199999999998,ST JAMES MEDICAL PRACTICE1,-2.097323,52.514234
3239.33,MORETON MEDICAL CENTRE,-3.110005,53.39886
6460.58,DRS HANIF &  BANNURU,-2.184157,53.484308
14359.240000000002,SWALLOWNEST HEALTH CENTRE,-1.317097,53.362997
916.03,BOUNDARY HOUSE SURGERY,-0.054245,51.632475
6250.41,WESTBURY GROUP PRACTICE,-2.203558,51.252792
1597.31,HIGHLEY MEDICAL CENTRE,-2.392978,52.456165
1419.35,WOLSTON SURGERY,-1.392727,52.376806
1679.5000000000002,BALLIOL ROAD SURGERY,-1.471449,52.415924
3328.2700000000004,NEWTON MEDICAL CENTRE,-2.638386,53.457172
1003.22,TIMPERLEY HEALTH CENTRE (WESTWOOD),-2.323566,53.397228
5230.980000000001,LIMES MEDICAL CENTRE,-1.387885,53.098493
2612.31,SELSTON SURGERY,-1.299871,53.070196
5342.19,CRYSTAL PEAKS MEDICAL CENTRE,-1.354473,53.342881
631.54,CHURCH LANE SURGERY,-0.262165,51.574931
1174.56,ACRE SURGERY,-0.411552,51.604465
2209.43,CUMBERLAND MEDICAL CENTRE,0.026047,51.519716
1504.8199999999995,MAIDSTONE RD CHATHAM SURGERY,0.516708,51.361226
2872.76,LONG BARN LANE SURGERY,-0.967033,51.436181
1858.33,OMBERSLEY MEDICAL CENTRE,-2.229023,52.276554
4253.8600000000015,MAYFIELD MEDICAL CENTRE,-2.093284,52.583046
2705.81,DR M GOYAL'S PRACTICE,0.156711,51.540066
4219.34,TOLLGATE MEDICAL CENTRE,0.056362,51.515573
3356.38,WAKE GREEN SURGERY,-1.883357,52.446103
3902.380000000001,RAINHILL VILLAGE SURGERY,-2.763813,53.41631
4825.540000000002,NEW ISLINGTON MEDICAL CENTRE,-2.219472,53.4829
6660.18,CLARENDON MEDICAL CENTRE,-2.079951,53.45264
39.9,WIRRAL WIC (APH)_WIC APH,-3.096815,53.36964
82.56000000000002,(FRACTURE CLINIC) NORTH OOH,-0.883829,52.236068
1.5,CARLISLE LOCALITY PRIMARY CARE SERVICES,-2.8956419999999996,54.892234
339.32,MERSEYCARE NHS TRUST - NMP,-2.933499,53.407265
3.0,CORRINGHAM HUB,0.42690200000000006,51.513843
145.82,COMMUNITY RESPIRATORY TEAM,-2.931104,53.466323
3845.59,COLLEGE LANE SURGERY,-1.336292,53.644573
3694.17,THE ORCHARD MED PRACTICE,-1.231693,52.533972
19786.850000000006,STANMORE MEDICAL GROUP,-0.204612,51.913274
1493.6799999999996,KEATS GROUP PRACTICE,-0.17103,51.555534
4358.410000000002,DOWNING STREET GROUP PRACTICE,-0.7989009999999998,51.212905
926.62,ASHBURTON PARK MEDICAL CENTRE,-0.064221,51.384147
859.3499999999998,NEATH HILL HEALTH CENTRE,-0.747321,52.060411
11118.31,BRINNINGTON SURGERY,-2.132367,53.427651
960.79,HALF PENNY STEPS HEALTH CENTRE,-0.206044,51.526213
25794.4,CARLISLE HEALTHCARE,-2.930647,54.893714
3966.76,THE GOLDEN BROOK PRACTICE,-1.272531,52.901553
4825.32,RUSKINGTON SURGERY,-0.400977,53.048226
6013.989999999999,DUKE MEDICAL CENTRE,-1.455657,53.378576
640.08,THE TUDOR HOUSE MEDICAL CENTRE,-0.266689,51.564495
4559.27,LABURNUM HEALTH CENTRE,0.151208,51.560662
2918.470000000001,PRIMECARE PMS (SOUTH STREET),-0.012448,51.476194
2171.27,THE GARDENS SURGERY,-0.066803,51.46061
1376.09,NORDEN HOUSE SURGERY,-0.882727,51.944924
1809.66,BREDON HILL SURGERY,-2.104857,52.030166
1975.1599999999994,PHOENIX FAMILY CARE,-1.51543,52.390005
2929.4100000000008,CHURCH STREET PRACTICE,-0.459783,51.37345
2017.96,LEYBOURNE SURGERY,-1.88721,50.758437
4950.31,PATFORD HOUSE PARTNERSHIP,-2.005519,51.437601
2215.32,ESTOVER SURGERY,-4.0952,50.411271
5079.47,NORTHGATE MEDICAL CENTRE,-2.892972,53.19509300000001
4296.47,WESTLEIGH MEDICAL PRACTICE,-2.526024,53.510851
2409.11,WINDMILL SURGERY,-1.48555,52.449933
1126.5799999999995,ARNOS GROVE MEDICAL CENTR,-0.129838,51.615476
847.4199999999998,ST.QUINTIN HEALTH CENTRE,-0.220325,51.519199
2822.59,PARK COMMUNITY PRACTICE,-1.871717,53.725678
25.23,CHESTERFIELD HEALTH PROVIDER LTD,-1.43962,53.233943
1984.54,MELROSE SURGERY,-1.287301,54.609397
3078.01,LAKENHAM SURGERY,1.296577,52.6183
3070.31,ISLAND HEALTH,-0.013513,51.495357
4372.6,STANFORD MEDICAL CENTRE,-0.148293,50.838378
6851.16,NEWINGTON ROAD SURGERY,1.399222,51.343459
3277.4500000000007,THE WHITELEY SURGERY,-1.266072,50.88262
7705.46,THE ELMS PRACTICE,-0.976476,50.789794
1795.26,CHILLINGTON HEALTH CENTRE,-3.693645,50.272623
269.02,AMBAR MEDICAL CENTRE,-1.991354,52.575093
4497.16,RISEDALE SURGERY,-3.224778,54.109942
7601.299999999997,BASLOW RD  SHOREHAM ST & YORK RD SRGIES,-1.531066,53.316325
5140.17,MANOR DRIVE MEDICAL CENTRE,-0.24836599999999998,51.380785
21.38,NELFT SOUTH WEST ESSEX CS,0.496195,51.591456
9093.679999999997,WIBSEY & QUEENSBURY MED P,-1.779715,53.767225
595.3100000000002,BROOK GREEN SURGERY,-0.218145,51.495291
572.59,DR MOHAMMED GREEN MAN MEDICAL CENTRE,0.015000999999999999,51.571506
2979.57,NORK CLINIC,-0.215842,51.326429
2591.57,QUEENHILL MEDICAL PRACTICE,-0.066791,51.34499
11098.119999999995,THE BOSMERE MEDICAL PRACTICE,-0.990581,50.850232
1641.06,THE LONG BUCKBY PRACTICE,-1.08255,52.30049
3297.2500000000005,GLOUCESTER CITY HEALTH CENTRE,-2.245328,51.860355
2355.4900000000007,NORTHWAY MEDICAL CENTRE,-2.130997,52.54810500000001
4188.02,ASHBOURNE MEDICAL PRACTICE,-1.737589,53.012862
6347.02,BIRLEY HEALTH CENTRE,-1.396985,53.340317
3919.470000000001,PARKFIELD MEDICAL CENTRE,-0.179588,51.695129
1248.11,REDWOOD PRACTICE,-0.359614,51.461125
1208.3599999999994,ABBEY COURT,0.26122,51.137755
2579.0000000000005,OPEN DOOR SURGERY,-0.155581,51.443166
2181.4700000000007,BROSELEY MEDICAL PRACTICE,-2.481266,52.611554
1744.36,BEECH TREE MEDICAL PRACTICE,-1.252936,52.377534
29.3,STORTHFIELD HOUSE,-1.332746,53.097559
7.8,I HEART BARNSLEY OOH,-1.4569,53.543072
5867.079999999999,ROYSTON GROUP PRACTICE,-1.451018,53.600005
376.24,FULHAM CROSS MEDICAL CENTRE,-0.214067,51.482774
3550.5600000000013,BELMONT SURGERY,0.340829,51.061952
898.01,BANBURY ROAD MEDICAL CENTRE,-1.263535,51.774771
609.79,HILL TOP PRACTICE,-2.011775,52.537791
93.1,GREAT CHAPEL STREET MEDICAL CENTRE,-0.134097,51.51508
6495.67,WINTERTON MEDICAL PRACTICE,-0.606876,53.652511
3064.4700000000007,THE OLD SCHOOL MEDICAL PRACTICE,-1.1424040000000002,53.916163
6956.490000000002,MEXBOROUGH HEALTH CENTRE,-1.279795,53.494237
1.5,HMP EASTWOOD PARK,-2.467383,51.634454
1.5,ROTHERHAM HOSPICE,-1.340784,53.424046
39.46,UHMB COMMUNITY NMP,-2.799232,54.042726
9395.710000000003,NORWOOD MEDICAL CENTRE,-3.222974,54.119201
2739.19,PICTON MEDICAL CENTRE,-1.77624,53.807296
10286.8,ORCHARD MEDICAL PRACTICE,-1.206764,53.141121
2251.13,THE VILLAGE SURGERY,-0.168135,51.648069
3180.0200000000004,ST. BARTHOLOMEWS SURGERY,0.051755,51.532409
23653.63,THE WILLOW GROUP,-1.143034,50.800579
3677.49,PORT VIEW SURGERY,-4.214351,50.40735
4298.46,STANMORE HOUSE SURGERY,-2.231468,52.391138
12810.96,SOLIHULL HEALTHCARE PARTNERSHIP,-1.775235,52.419642
161.0,RICHARDSON COMMUNITY HOSPITAL,-1.9161529999999998,54.545708
5429.53,IVY GROVE SURGERY,-1.402822,53.042198
2913.13,THE LINDEN MEDICAL GROUP,-1.273642,52.931099
3287.9999999999995,BUTE HOUSE MEDICAL CENTRE,-0.423966,51.880162
1139.06,GURU NANAK MEDICAL CENTRE,-0.387151,51.511774
989.3199999999998,SOUTH GREEN SURGERY,0.430504,51.613411
1105.26,RICHMOND ROAD MEDICAL CENTRE,-0.065532,51.543051
5194.1100000000015,OLD SCHOOL SURGERY,0.100722,50.772062
3539.69,LAMBTON ROAD MEDICAL PRACTICE,-0.231169,51.411219
10029.14,LORDSHILL HEALTH CENTRE,-1.448733,50.940999
6618.7,HOLES LANE MEDICAL CENTRE,-2.545107,53.399828
3331.28,THE GILL MEDICAL PRACTICE,-2.398384,53.524288
254.94000000000003,PAK HEALTH CENTRE,-1.856091,52.490749
698.1900000000002,WALFORD STREET  TIVIDALE,-2.059752,52.513192
2099.27,RUSHEY MEAD HEALTH CENTRE,-1.103823,52.663187
4334.52,BRAMHALL HEALTH CENTRE,-2.162929,53.36001
2396.59,AYLESBURY SURGERY,-1.876053,52.542854
889.23,NEVILLE ROAD SURGERY,-0.443036,51.906419
3315.950000000001,THE PRACTICE BEAUMONT LEYS,-1.15392,52.662296
1477.57,KINGSWAY SURGERY,-0.437208,51.517478
3289.68,BELLEGROVE SURGERY,0.09579,51.464561
5211.83,CHEAM GP CENTRE,-0.225239,51.368621
758.13,HANDSWORTH MEDICAL PRACT.,-1.941212,52.505377
1854.6,BEARWOOD MEDICAL CENTRE,-1.97344,52.476903
1270.4,BEEHIVE SURGERY,-2.419172,53.564161
2458.4299999999994,THE CHEYLESMORE SURGERY,-1.503924,52.391324
8278.19,ST PETER'S SURGERY,-1.984855,52.594537
3920.35,MANOR HEALTH CTR,-3.044493,53.421061
1975.46,THE CROSSROADS SURGERY,-2.770123,53.417492
146.48,LAS S.E. LONDON IUC CAS,-0.10903099999999999,51.500174
10533.27,ADELAIDE STREET SURGERY,-3.048397,53.817351
907.88,CAVENDISH HEALTH CENTRE,-0.148092,51.519331
7577.029999999998,BROWNLOW GROUP PRACTICE,-2.96585,53.405021
6393.8,THE LAKES MEDICAL PRACTICE,-2.742581,54.656125
7303.349999999998,OSMASTON SURGERY,-1.467954,52.911084
5887.06,HOLBEACH MEDICAL CENTRE,0.014430000000000002,52.804778
3397.0200000000004,LAMBOURN SURGERY,-1.526933,51.504696
6364.730000000001,KNOWLE HOUSE SURGERY,-4.134098,50.40863
2398.69,VALE OF RED HORSE,-1.510351,52.15797
6606.690000000001,BALSALL COMMON & MERIDEN GROUP PRACTICE,-1.643862,52.394956
9347.970000000003,DINAS LANE MEDICAL CENTRE,-2.861513,53.417388
56.5,DORKING HEALTHCARE LLP,-0.333421,51.225985
2486.03,GREAT BRIDGE HEALTH CENTRE,-2.02775,52.527792
11.48,NON MEDICAL PRESCRIBING SOUTHEND CCG,0.702782,51.583955
2264.94,ST ANN'S ROAD SURGERY,-0.08783399999999998,51.581428
34.8,TAURUS HEALTHCARE LTD,-2.71099,52.05708
1649.78,CARTMEL SURGERY,-2.946985,54.199165
5207.67,MEADOWGREEN HEALTH CENTRE,-1.480804,53.326831
8843.259999999998,CRUDDAS PARK SURGERY,-1.630965,54.968173
4552.170000000001,HAWORTH MEDICAL PRACTICE,-1.954883,53.831322
815.9099999999999,WELBECK SURGERY,-1.147823,52.979645
3602.88,WICKHAM MARKET MEDICAL CENTRE,1.363674,52.151842
2799.67,DR YADAVA N PRACTICE,0.334586,51.476703
7277.09,THORNHILLS MEDICAL PRACTICE,0.440958,51.300117
6219.710000000003,BIDDULPH VALLEY SURGERY,-2.178498,53.116111
4353.829999999999,STOCKTON HEATH MED.CENTRE,-2.582161,53.37195
4476.149999999999,CHORLTON FAMILY PRACTICE,-2.279717,53.443773
160.76,DR R KAPUR & PARTNERS,-1.119092,52.631036
1746.85,WESTBOURNE SURGERY,-1.8061,53.650937
2799.44,DR WEBB AND PARTNERS,-1.308041,52.968251
1708.27,SILVERDALE MEDICAL CENTRE,-1.090548,52.672318
5087.100000000001,PARKBURY HOUSE SURGERY,-0.334063,51.756766
1233.92,THORNTON & VALLEY PARK SURGERY,-0.120709,51.388871
3457.96,MOORDOWN MEDICAL CENTRE,-1.874485,50.756212
7482.810000000002,WOLVERTON HEALTH CENTRE,-0.814934,52.054197
813.3099999999998,GREET MEDICAL PRACTICE,-1.857778,52.453195
10443.71,THE PARK MEDICAL PRACTICE,-2.739045,53.77018
1341.7,CROSSWAYS PRACTICE,-3.023992,53.484655
6401.05,CENTRAL SURGERY,-1.265473,52.371743
2125.330000000001,BHF LUNDWOOD SURGERY,-1.438538,53.557711
5477.709999999999,WOODLANDS PARK HEALTH CTR,-1.628825,55.04614
8283.649999999998,MAYFORD HOUSE SURGERY,-1.446534,54.328376
6990.250000000001,HAVEN MEDICAL CENTRE,-1.416874,52.891498
4934.38,CASTLE HEALTHCARE PRACTICE,-1.144908,52.930476
3511.94,IMEARY STREET PRACTICE,-1.424863,54.98753000000001
6516.51,TRINITY & BOWTHORPE MEDICAL PRACTICE,1.280248,52.624411
476.24000000000007,WAKEMANS HILL SURGERY,-0.254209,51.587088
3142.320000000001,HARROW ROAD GP CENTRE,0.012856,51.559538
7873.71,THE SWAN PRACTICE,-0.985664,52.001593
3502.0999999999995,NESTON MEDICAL CENTRE,-3.064349,53.291818
3699.86,ST.MARY'S HEALTH CENTRE,-2.729589,53.747433
1691.0999999999995,ASKAM SURGERY,-3.210918,54.183705
2532.01,GRANGE PARK SURGERY,-1.7481080000000002,53.912695
7276.079999999999,BEECHFIELD MEDICAL CENTRE,-0.145012,52.787253
6493.43,GRIMETHORPE SURGERY,-1.378978,53.573614
1270.85,HANWELL HEALTH CENTRE (NAISH),-0.334375,51.510263
4779.81,WEST ROAD SURGERY,0.70187,51.544989
3253.0600000000004,PENN SURGERY,-2.145001,52.568567
711.18,SARAF MEDICAL PRACTICE,-2.076954,53.561455
2605.8,DELL MEDICAL CENTRE,0.328114,51.480258
9.0,GATDOC OOH,-1.580781,54.93938000000001
2070.49,THE TRINITY MEDICAL CENTRE,0.085815,51.478803
2068.63,ASHVILLE SURGERY,-0.201145,51.476255
56.35,DR HANTSDOC N OOH,-1.109918,51.280633
25.8,HOLYWELL AT LANGLEY HOUSE HCT,-0.391206,51.683651
4.5,NEAS HAST CCG,-1.712365,54.969713
37.3,DARLINGTON PALLIATIVE CARE,-1.567053,54.529074
5.96,EN HERTS ACUTE IN-HOURS VISITING SERVICE,-0.191727,51.782567
14.1,PARTNERSHIP STOKE,-2.109085,52.810605
1531.2099999999996,OAK GLEN SURGERY,-1.816352,53.854799
1362.16,OAKWOOD SURGERY,-1.4290459999999998,52.941386
5949.86,THE KAKOTY PRACTICE,-1.473444,53.5464
106.2,NEWCASTLE GP IN MOLINEUX WIC,-1.583491,54.977507
4700.88,BURNGREAVE SURGERY,-1.459815,53.393327
16158.579999999998,COLCHESTER MEDICAL PRACTICE,0.909325,51.890029
1803.85,ESHER GREEN SURGERY,-0.370196,51.375782
6610.630000000001,ASHFIELD MEDICAL CENTRE,-0.7382729999999998,52.019666
4653.08,TETTENHALL MEDICAL PRACTICE,-2.159502,52.600723
1872.93,PENNY LANE SURGERY,-2.915004,53.389404
2873.42,CORNERSTONE SURGERY,-2.457402,53.58815500000001
942.63,VICTORIA PARK HEALTH CENTRE,-1.1192,52.619071
1893.41,OLD FORGE SURGERY,-2.079758,54.623041
4653.339999999998,VESPER ROAD,-1.615337,53.827318
4716.39,GLADSTONE HOUSE SURGERY,-1.307927,52.968816
1808.19,LANGSTONE WAY SURGERY,-0.210815,51.606981
1270.32,ELMTREES SURGERY,-0.335968,51.550787
5558.6,SNODLAND MEDICAL PRACTICE,0.441488,51.326053
3496.21,LEITH HILL PRACTICE,-0.322969,51.150452
1819.17,MALTHOUSE MEADOWS SURGERY,-2.568038,50.668698
2270.82,HARBURY SURGERY,-1.458027,52.236759
6851.289999999999,QUEEN SQUARE MEDICAL PRACTICE,-2.800994,54.046219
6006.38,MARUS BRIDGE PRACTICE,-2.643772,53.529393
1537.24,HEALTH E1,-0.07152500000000002,51.518304
907.93,CAXTON HOUSE SURGERY,-1.382415,53.575347
16.8,OUT OF HOURS CENTRE,-1.842798,54.869081
4.5,ALEX CENTRE UNREGISTERED WIC,-0.369696,51.568372
2653.44,WESTCOTES MEDICAL CENTRE,-1.153587,52.63133199999999
94.56,WEST MERTON ACCESS HUB,-0.210281,51.409967
24.27,DERBY CITY SOUTH HEALTHCARE LTD,-1.531656,52.891817
105.8,SAFECARE NETWORK,-0.647232,53.568261
1804.22,BUNBURY MEDICAL PRACTICE,-2.649377,53.116827
8546.2,CASTLETON HEALTH CENTRE,-2.18229,53.597034
38.44,SALFORD GP OUT OF HOURS,-2.323424,53.487545
45.24,NOTTINGHAM CITYCARE,-1.155769,52.951832
57.4,ASHTON PCC SEVEN DAY ACCESS OOH,-2.099981,53.485827
3235.360000000001,DR A CALOW'S PRACTICE,-2.503837,53.742584
7124.73,CHEADLE MEDICAL PRACTICE,-2.213539,53.393745
2581.2900000000004,GREEN STREET GREEN MED CT,0.089996,51.354366
2849.78,3/ST ANDREWS MEDICAL CENTRE,-2.339619,53.484875
509.31,BLACKFRIARS,-2.254244,53.484135
2639.36,CALDBECK SURGERY,-3.050622,54.749864
4080.900000000001,DR INGRAM & PTRS,-1.526892,54.136451
1408.04,HOUNSFIELD SURGERY,-0.811033,53.183702
1540.07,LENSFIELD MEDICAL PRACTICE,0.124449,52.198365
3197.28,CEDAR BROOK PRACTICE,-0.41413199999999994,51.534092
3220.2100000000005,ROSE VILLA SURGERY,0.506616,51.566232
3000.45,BOYATT WOOD SURGERY,-1.36001,50.977856
6583.630000000001,RISING BROOK,-2.118782,52.787133
2681.52,ST JAMES MEDICAL PRACTICE2,-2.097323,52.514234
2790.32,LINGHOLME HEALTH CENTRE,-2.744752,53.457769
10152.54,PEEL HOUSE MEDICAL PRACTICE,-2.365995,53.75089200000001
6049.21,GRASMERE SURGERY,-2.511455,53.503236
22651.65,TELDOC,-2.435206,52.672614
10.8,GP EXTENDED ACCESS - HARROGATE,-1.529793,53.996354
6734.26,ST ANDREW'S MEDICAL PRACTICE,-1.598213,54.699634
3154.76,SPINNEY HILL MEDICAL CENTRE,-1.109212,52.637381
1827.32,MARTLESHAM SURGERY,1.272068,52.061314
358.2000000000001,THE AVENUE SURGERY,-0.319031,51.518389
14223.669999999998,ST.JAMES SURGERY,1.147433,51.787326
9016.349999999997,SANDWICH MEDICAL PRACTICE,1.337364,51.274071
237.21,MODALITY ANN JONES FAMILY HEALTH CENTRE,-1.871333,52.462659
5464.640000000001,CENTRAL SURGERY,-2.74261,53.456686
2787.53,DALTON TM,-2.643772,53.529393
34.5,MIRIAM MINOR EMERGENCY,-3.04649,53.39824599999999
26.9,LIVEWELL S/W,-4.116613,50.378837
1.5,WIRRAL HEART SUPPORT,-3.026531,53.380029
2293.140000000001,BALDERTON SURGERY,-0.7864679999999998,53.052881
7327.89,NORTH ROAD SUITE RAVENSTHORPE HEALTH CTR,-1.661589,53.677829
4215.1,CASTLE MEAD MEDICAL CENTRE,-1.367743,52.541052
3767.2299999999987,RISE PARK SURGERY,-1.174951,53.011477
6909.150000000002,THE MEDICI MEDICAL PRACTICE,-0.418382,51.874494
1919.04,ELLIS PRACTICE,-0.276552,51.563894
2450.21,NEW ELTHAM AND BLACKFEN MEDICAL CENTRE,0.074199,51.434495
6992.28,THE GROVE MEDICAL CENTRE,-2.513702,50.953273
7662.320000000002,THE HADLEIGH PRACTICE,-1.993525,50.761018
10732.16,THREE CHEQUERS MEDICAL PRACTICE,-1.794625,51.071924
1950.19,CORNERSTONE SURGERY,-2.724149,53.454211
1324.95,HIGHER HEYS SURGERY,-2.394094,53.740865
10901.96,DELAMERE MEDICAL PRACTICE,-2.307365,53.450887
2569.67,OAK TREE HEALTH CENTRE,-1.2409629999999998,51.614986
3183.4699999999993,THE TRINITY MEDICAL PRACTICE,0.760305,51.684982
8.559999999999999,BECKENHAM BEACON URGENT CARE CENTRE,-0.033209,51.405232
25.8,NORWICH IMPROVED ACCESS HUB,1.319958,52.632405
196.7,BRAMLEY COMMUNITY CARE BEDS,-1.623032,53.80781999999999
12378.509999999998,BRIDGE VIEW MEDICAL GROUP,-1.401824,54.919455
4052.91,CAYTHORPE & ANCASTER MEDICAL PRACTICE,-0.536327,52.981851
505.6,BRAYFORD SQUARE SURGERY,-0.050404,51.514375
4673.96,ELMDENE SURGERY,0.263153,51.446098
2348.07,THAMES AVE SURGERY,0.603057,51.36344
1245.08,TRAFALGAR SURGERY,-0.074414,51.485672
3967.26,THE ORCHARD PRACTICE,-0.303542,51.369116
696.79,UNIVERSITY HEALTH SERVICE,-1.395714,50.934099
1650.66,LINDEN MEDICAL CENTRE,-0.737415,51.530813
1827.91,ST SAVIOURS SURGERY,-2.308488,52.130324
3661.88,WEST HEATH SURGERY,-1.96202,52.401797
717.0200000000002,MOOR PARK MEDICAL PRACTICE,-1.7218490000000002,53.797834
1.5,YORKSHIRE SMOKEFREE,-1.018306,53.503028
12269.42,THE CENTRAL SURGERY BARTON,-0.439445,53.684236
2507.81,MICKLEOVER MEDICAL CENTRE,-1.54633,52.907111
883.9,THE ELMS SURGERY,-0.404224,51.661642
5562.63,BUXTED MEDICAL CENTRE,0.132095,50.989406
7749.979999999998,WEST END ROAD SURGERY,-1.359281,50.916702
4942.81,PINHOE SURGERY,-3.469622,50.737528
2364.0399999999995,PRESCOTT SURGERY,-2.852689,52.784345
4478.04,HEATON ROAD SURGERY,-1.579814,54.978269
1771.6,HANCOCKS ME,-0.41296400000000005,53.782123
1235.86,COLSTERWORTH SURGERY,-0.619356,52.806388
180.44,SOMERSET MEDICAL CENTRE,-0.371127,51.522244
6080.94,DOWNLANDS MEDICAL CENTRE,0.244085,50.822919
3979.93,OTFORD MEDICAL PRACTICE,0.191446,51.31358
2677.97,BURNEY STREET PMS,-0.009168,51.479034
12341.280000000004,ROYAL CRESCENT SURGERY,-2.452679,50.616587
484.3400000000001,ABBEY MEDICAL CENTRE,-0.982406,51.453949
1930.82,ST.BARTHOLOMEWS MEDICAL CENTRE,-1.232108,51.747668
6091.409999999999,DR SN CLAY AND PARTNERS,-1.832005,52.528641
6299.27,WORDSLEY GREEN HEALTH CENTRE,-2.164692,52.480602
80.59999999999998,URGENT CARE,0.475497,50.850706
10031.52,SAFFRON HEALTH PARTNERSHIP,-0.264459,52.084232
1891.17,GLADSTONE MEDICAL CENTRE,-0.24612,51.558731
1880.59,ST MARTINS MEDICAL CENTRE,-0.424566,51.577646
1481.72,ABRIDGE SURGERY,0.12458,51.653631
7271.16,WEAVER VALE PRACTICE,-2.696866,53.325561
6791.79,GLOVERS LANE SURGERY,-2.971961,53.488314
968.68,VILLAGE SURGERY,-0.255874,51.399503
1035.92,DR KHALIQ,-1.799612,53.663276
2967.42,NEWHOLME SURGERY,-2.74261,53.456686
2206.13,LUNESDALE SURGERY,-2.602213,54.200573
6620.81,SPILSBY SURGERY,0.098963,53.173049
2233.4300000000007,BRIDGEWAY PRACTICE,-1.147343,52.943574
4551.09,LITTLE WALTHAM & GT NOTLEY SURGERY,0.477622,51.787396
4609.539999999999,DR KUMAR & PARTNER STUDFALL MEDICAL CTR,-0.704816,52.495882
8062.09,CASTLE PLACE PRACTICE,-3.492865,50.908884
7872.2,NUNWELL SURGERY,-2.507177,52.187931
7361.749999999997,THREE SPIRES MEDICAL PRACTICE,-5.055864,50.259982
2579.6800000000007,MYTTON OAK MEDICAL PRACT.,-2.797762,52.707667
6599.449999999999,DR VSR CHADALAVADA,-2.139143,53.0416
992.35,KEYNELL COVERT,-1.911857,52.408441
1.5,STRELLEY HEALTH CENTRE (COCKRILL),-1.227726,52.973231
2033.74,PHOENIX MEDICAL PRACTICE,0.48126899999999995,51.328805
3.0,INTERGRATED COMMUNITY PAEDIATRIC SERVICE,-2.384279,53.582354
1324.5800000000004,KIRKHOLT MEDICAL PRACTICE,-2.162243,53.59832
1452.62,DR AZIM & PARTNERS,-0.225729,51.579655
1691.9899999999993,BHF HIGHGATE SURGERY,-1.378978,53.573614
6413.3,DOLPHIN HOUSE SURGERY,-0.029818,51.810791
643.4499999999998,THE CIVIC MEDICAL CENTRE,-0.337497,51.587155
3465.41,CHANCERY LANE SURGERY,-1.521755,52.536173
2733.22,NECHELLS PRACTICE,-1.876618,52.493743
4751.77,THE LIMES MEDICAL CENTRE,-1.974677,52.58065500000001
987.03,PRINGLE STREET SURGERY,-2.467594,53.742039
8814.740000000002,BROADWAY MEDICAL CENTRE,-3.033843,53.912667
1005.28,EASTGATE SURGERY,-0.519836,51.886145
2203.0,PHOENIX PRIMARY CARE (SOUTH) LTD,-0.441597,51.88973
1.5,CWP (WEST) PHYSICAL HEALTH,-2.897884,53.2088
19.55,NSC BOSWORTH HUB,-1.7536330000000002,52.480569
4093.13,THE NEW SPRINGWELLS PRACTICE,-0.340804,52.893623
22.76,SAME DAY HEALTH CNTRE COASTAL HEALTHCARE,-2.859565,54.072841
40.18,ARC,-3.002931,53.801771
6088.230000000001,THE GARTH,-1.055444,54.532597
6157.310000000001,THE GABLES MEDICAL GROUP,-1.564429,55.140811
7458.73,PRACTICE ONE,-0.201064,54.084715
7457.52,CHURCH STREET SURGERY,-1.583343,53.681523
4125.8,HIGH STREET SURGERY  EPPING,0.113402,51.700812
1018.39,HIGH STREET SURGERY,0.223589,51.561554
2372.0,BERRYLANDS SURGERY,-0.299929,51.390825
596.75,PROSPECT HOUSE SURGERY,-0.705258,51.701136
4508.96,WOODSETTON MEDICAL CENTRE,-2.10089,52.537994
7629.41,THE BORCHARDT MEDICAL CENTRE,-2.237795,53.434307
1039.12,CHAPEL MEDICAL CENTRE,-2.418293,53.449094
9561.939999999997,NEWLANDS MEDICAL CENTRE,-1.226035,54.571931
12996.45,SKERNE MEDICAL GROUP,-1.4488,54.654032
1839.19,BACON LANE SURGERY,-0.275903,51.605078
10125.29,THE LIMES MEDICAL CENTRE,0.123958,51.706179
1257.85,MITCHAM FAMILY PRACTICE,-0.167118,51.410109
6308.69,SPA MEDICAL CENTRE,-2.126012,51.366868
1227.2700000000002,BOURNBROOK VARSITY MEDICAL CENTRE,-1.929903,52.445713
1247.86,CAUSEWAY GREEN ROAD SURGERY,-2.014697,52.484564
9220.23,PATTERDALE LODGE MED CTRE,-2.64461,53.452446
2618.9,CENTRAL MEDICAL CENTRE,-0.245977,52.587
7293.479999999998,WILLOW BANK SURGERY,-2.102853,52.97847
20.1,BANES ENHANCED MEDICAL SERVICE (BEMS+),-2.372621,51.358169
3781.4599999999987,GOLDENHILL MEDICAL CENTRE,-2.221385,53.076901
4384.91,JIGGINS LANE MEDICAL CENTRE,-1.995411,52.436801
1.5,DARTMOUTH MEDICAL CENTRE,-2.005409,52.520435
171.77,PEEL PRECINCT SURGERY,-0.198814,51.534421
25.8,PCH WARD,-2.077775,52.114052
41.4,VC WEST LANCS HC-UCC,-2.871252,53.564616
8858.069999999998,NORTH PARK HEALTH CENTRE,-2.995994,53.458392
1368.11,SHAP MEDICAL PRACTICE,-2.677931,54.52889
9096.52,THE GLEN MEDICAL GROUP,-1.52187,54.97385
5599.64,MILLVIEW MEDICAL CENTRE,-0.30904,52.981326
7307.089999999997,THE HEALTH CENTRE PRACTICE,-0.020738999999999997,52.048757
2361.38,BELGRAVIA SURGERY,-0.14856,51.495004
4984.74,CHAPEL STREET SURGERY,0.051144,50.79327
3805.25,MARTINS OAK SURGERY,0.483675,50.91716
2347.890000000001,THE GLEBE FAMILY PRACTICE,0.544473,51.383164
5462.1500000000015,KNOLL MEDICAL PRACTICE,0.101068,51.375411
805.64,CORDWALLIS ROAD SURGERY,-0.7240259999999998,51.528097
2399.3,ST. MARY'S SURGERY,-2.479869,51.326082
466.12,THE SUMMITT PRACTICE,0.04536,51.539588
70.97,SELDOC HEALTHCARE,-0.283378,51.412517
1273.3399999999995,PASLEY ROAD HEALTH CENTRE (TK KHONG),-1.146741,52.591287
1892.73,HAROLD STREET MEDICAL CENTRE,-1.492871,53.393121
2873.48,BRENTFIELD MEDICAL CENTRE,-0.260251,51.550588
2792.0200000000004,DR NAVIN KUMAR,0.70187,51.544989
1199.44,RUSTON STREET CLINIC,-0.027306,51.536264
2512.06,HAMPTON HILL MEDICAL CENTRE,-0.354892,51.427508
2089.26,THE OAKLAND MEDICAL CENTRE,-0.45129300000000006,51.546055
1829.71,ABERFELDY PRACTICE,-0.004927,51.514483
3422.5600000000004,BROCKBANK (PARK ROAD),-0.334596,51.423912
1844.1,HOLLINSWOOD SURGERY,-2.437453,52.673936
1268.35,VICTORIA ROAD MEDICAL CTR,-1.887197,52.501868
5731.1,ST JOHN'S MEDICAL CENTRE,-1.932532,52.626307
13284.170000000006,THE CORNERSTONE PRACTICE,-2.4524,53.739201
662.84,PARK GRANGE MEDICAL CENTRE,-1.775929,53.789415
1726.7199999999998,HETHERINGTON AT THE PAVILION,-0.116397,51.461633
35.92,PCEC,-2.227711,53.462436
2251.05,CASTLETOWN MEDICAL CENTRE,-1.450848,54.913341
1267.31,ALDBROUGH ST JOHN SURGERY,-1.684645,54.496518
2638.7200000000007,BRANSTON & HEIGHINGTON FAMILY PRACTICE,-0.467988,53.195831
1017.78,CLIFTON HAMPDEN SURGERY,-1.211451,51.658625
7388.600000000002,SWANSCOMBE HEALTH CENTRE,0.28731,51.424657
2655.57,FRITHWOOD SURGERY,-2.162379,51.729707
5399.32,THE ISLAND SURGERY,0.591014,51.520226
5846.53,GATEWAY PRIMARY CARE,-1.352431,53.429997
1800.4699999999998,ESSINGTON MEDICAL CENTRE,-2.056915,52.63194
3.0,SLEAFORD EXTENDED ACCESS K2,-0.406507,52.997784
3593.94,STONELEIGH SURGERY,-2.770704,54.227277
2659.27,BROWNEY HOUSE SURGERY,-1.670679,54.800313
2677.99,HONLEY SURGERY,-1.791936,53.602386
4003.4600000000014,GOSBERTON MEDICAL CENTRE,-0.159263,52.869915
2405.7599999999993,MAPESBURY MEDICAL GROUP,-0.209473,51.551496
632.76,CHOLMLEY GARDENS SURGERY,-0.195423,51.552261
15129.809999999998,HIGH GLADES MEDICAL CENTRE,0.551301,50.878354
4357.290000000001,CHERRYMEAD SURGERY,-0.700228,51.608271
6630.1,HORFIELD HC,-2.576275,51.489998
2201.42,WHITE HOUSE SURGERY,-1.705957,51.983554
2332.43,CHURCH STRETTON MEDICAL CENTRE,-2.806169,52.537286
4247.87,WARWICK ROAD SURGERY,-2.928541,54.893858
5113.430000000001,WOODVILLE SURGERY,-1.5365030000000002,52.770685
3186.9,GROOMBRIDGE AND HARTFIELD MED GRP,0.184416,51.113952
5242.729999999999,BRANKSOMEWOOD H/CARE CTR,-0.8448069999999998,51.281888
3719.22,WOODSIDE MEDICAL PRACTICE,-2.466175,52.637949
7312.269999999998,BODEY MEDICAL CENTRE,-2.214798,53.440636
12.0,NORTH LINCOLNSHIRE OOH,-0.667599,53.587582
56.5,EXTENDED HOURS SERVICE-ONE LIFE,-1.214164,54.682342
3805.13,CRAMLINGTON MEDICAL GROUP,-1.591516,55.084481
13090.87,KINGSTON MEDICAL GROUP,-0.349365,53.756137
1404.6200000000006,WESTFIELD MEDICAL CENTRE,-1.531703,53.817673
1873.56,STUBLEY MEDICAL CENTRE,-1.488541,53.304986
1673.0100000000002,CHICHELE ROAD SURGERY,-0.216241,51.55483
1222.9199999999996,SHIRLAND ROAD MEDICAL CENTRE,-0.203904,51.5292
2513.9700000000007,STEWKLEY ROAD SURGERY,-0.71666,51.898041
7551.360000000002,NEW COURT SURGERY,-2.958059,51.345794
5365.0,COLERIDGE MEDICAL CENTRE,-3.2835660000000004,50.751704
7335.880000000001,YARDLEY WOOD HEALTH CENTRE,-1.859168,52.418648
2177.830000000001,SHEET STREET SURGERY,-0.605507,51.479648
7823.810000000002,HEDENA HEALTH,-1.204547,51.76203
1896.79,SELLY OAK HEALTH CENTRE,-1.939144,52.438251
6972.230000000001,PEELHOUSE MEDICAL PLAZA,-2.72256,53.372135
5320.730000000001,LANE ENDS SURGERY,-2.727014,53.770173
3366.100000000001,WHITTAKER LANE MED CENTRE,-2.268645,53.528488
77.46,NMP CASTLE POINT AND ROCHFORD CCG,0.702782,51.583955
10.06,MFT CHILDRENS COMMUNITY SERVICES,-2.25528,53.390625
1.5,SALFORD ACUTE HOME VISITING SERVICE,-2.33763,53.484827
3.0,EXTENDED ACCESS PCD TICKHILL SURGERY,-1.110773,53.43304499999999
11379.38,BIRTLEY MEDICAL GROUP,-1.576441,54.891881
4033.77,APOLLO COURT MEDICAL CENTRE,-1.524816,53.542364
1842.33,SUDBURY & ALPERTON MEDICAL CENTRE,-0.298046,51.536916
5428.290000000001,THE CHESTERFIELD DRIVE PRACTICE,1.132012,52.07623
1100.09,MONTPELIER SURGERY,-0.149079,50.827148
3927.12,SELLINDGE SURGERY,1.002785,51.103536
6537.209999999999,HARBOUR VIEW HEALTHCARE,-0.27437,50.833817
6538.39,WILSON PRACTICE,-0.966958,51.153736
5035.52,KINGSTEIGNTON MEDICAL PRACTICE,-3.597395,50.54898
13274.560000000005,STIRCHLEY MEDICAL PRACTICE,-2.433777,52.655188
2771.44,RED LION SURGERY,-2.030614,52.693241
1780.84,HAZELDENE MEDICAL CENTRE,-0.275394,51.547592
1946.03,CLOISTER ROAD SURGERY,-0.265589,51.521352
5534.2400000000025,MANOR PARK MEDICAL CENTRE,0.24261,50.819107
2050.37,LILLIPUT SURGERY,-1.954229,50.711523
7848.1,PENRYN SURGERY,-5.10336,50.167504
5532.06,CROWN MEDICAL CENTRE,-3.080969,51.029111
2600.5000000000005,GREASBY GROUP PRACTICE,-3.121417,53.377628
1829.1,ROSEWORTH SURGERY,-1.61867,55.001366
14424.750000000002,GREENGATES MEDICAL GROUP,-0.418494,53.844343
4109.169999999999,LINCOLN HOUSE SURGERY,-0.469093,51.737355
1796.4499999999996,DR DEVARAJA VC PRACTICE,0.44359,51.520015
993.9199999999998,FOUNTAYNE ROAD HEALTH CENTRE,-0.065145,51.56442
727.5,ARCHWAY SURGERY,-0.532167,51.72275
5678.66,RYE MEDICAL CENTRE,0.730363,50.961944
1257.2500000000002,VASSALL MEDICAL CENTRE,-0.10851199999999998,51.477558
3346.65,FARMHOUSE SURGERY,-1.7595,50.736437
14775.740000000002,WESTONGROVE PARTNERSHIP,-0.74378,51.76588
4353.490000000002,MILBORNE PORT SURGERY,-2.471962,50.967502
1582.77,PARADISE MEDICAL CENTRE,-1.494835,52.426778
2439.07,WOODBANK SURGERY,-2.308802,53.60507
318.56,HIGHFIELD HEALTH,-1.395746,50.932777
5852.400000000002,IBSTOCK HOUSE SURGERY,-1.401818,52.684869
6783.970000000001,BARNBY GATE SURGERY,-0.8049699999999999,53.074931
7010.37,PRIORY FIELDS SURGERY,-0.179856,52.332272
2042.69,DRS DE ROSA & WILLIAMS,-2.167857,52.569265
31.8,INTERMEDIATE CARE-GP SERVICE,-2.130253,53.548188
475.88,BASSETLAW HEALTH PARTNERSHIP,-0.950634,53.325451
4712.980000000001,DR RAOLU'S PRACTICE,-1.204348,53.423549
3900.04,EAST BARNET HEALTH CENTRE,-0.166424,51.646339
6917.18,OXTED HEALTH CENTRE,9.9e-05,51.257686
7113.170000000003,THE WRYTHE GREEN SURGERY,-0.171312,51.371749
3690.67,TOPSHAM SURGERY,-3.462097,50.683825
4303.16,BAMPTON SURGERY,-1.55034,51.729032
11433.12,PETROC GROUP PRACTICE,-4.943163,50.430739
8686.45,EAST QUAY MEDICAL CENTRE,-3.000471,51.135669
1589.51,EASTMEAD AVENUE SURGERY,-0.36274,51.531443
864.87,KINCORA DOCTORS SURGERY,-0.412216,51.511666
3270.380000000001,HETHERINGTON GROUP PRACTICE,-0.12823,51.460932
4729.95,TUTBURY HEALTH CENTRE,-1.686361,52.858454
2565.57,MEREPARK MEDICAL CENTRE,-2.300747,53.093285
410.29,DR SP TALPAHEWA,-0.260303,51.616115
3225.450000000001,BRANDON MEDICAL PRACTICE,0.6233,52.448489
4061.58,THE SURGERY CLIFTON ROAD,-1.737497,53.013356
3918.719999999999,ORCHARD SURGERY MELBOURN,0.020092,52.080651
10645.1,HIGH STREET SURGERY,1.756043,52.482123
6185.27,KING GEORGE SURGERY,-0.206096,51.907416
5470.89,ST.PETERS SURGERY,-1.372792,50.897829
3345.5400000000004,LEVENSHULME MEDICAL PRACTICE,-2.188524,53.446352
8257.93,DMC ST MARYS ISLAND SURGERY,0.538105,51.406776
14679.100000000002,THORNABY & BARWICK MEDICAL GROUP,-1.292128,54.538149
4650.9,ROWLANDS GILL MEDICAL CENTRE,-1.742896,54.91936
9624.349999999997,THE PARK MEDICAL PRACTICE,-1.432644,52.928801
5588.52,MERRIDALE MEDICAL CENTRE (RP TEW),-1.160752,52.620146
1541.8399999999995,OVER SURGERY,0.012018,52.314809
5183.049999999998,DR TUN & PARTNERS,-2.583571,53.532102
1758.4399999999994,SOUTHOWRAM SURGERY,-1.831696,53.712293
2652.77,THE STANMORE MEDICAL CENTRE,-0.304021,51.60154
899.38,TOTTENHAM HEALTH CENTRE,-0.068474,51.604755
2044.85,PARKSIDE MEDICAL CENTRE,-0.092642,51.475826
2128.58,GRAND DRIVE SURGERY,-0.228811,51.402155
1900.6,SOMERSET BRIDGE MEDICAL CENTRE,-2.995883,51.115105
8357.300000000003,CORNISHWAY GROUP PRACTICE,-2.265017,53.379925
6148.63,BRADSHAW MEDICAL CENTRE,-2.688594,53.537889
782.0,SAVILE TOWN MEDICAL CTR.,-1.625804,53.68222900000001
3861.81,THE ORCHARD SURGERY,-0.324352,50.828062
793.0300000000002,THE DANBY PRACTICE,-0.907874,54.468317
4045.610000000001,THE LAWSON PRACTICE,-0.079465,51.533775
735.4,FRANCIS ROAD MEDICAL CENTRE,-0.003831,51.561975
281.14,UNIVERSITY MEDICAL CENTRE,1.062127,51.296198
2610.0,ST STEPHENS HOUSE SURGERY,-0.305726,51.31772
1591.9799999999998,PARK VIEW HEALTH PARTNERSHIP,-0.137252,50.961825
1919.96,BYFIELD MEDICAL CENTRE,-1.242893,52.174071
1535.14,SOHO ROAD PRIMARY CARE CENTRE,-1.934945,52.503094
4086.43,LACHE HEALTH CENTRE,-2.914326,53.173615
605.9500000000002,WALNUT ST MED CTR (LEICESTER MED GROUP),-1.138855,52.624601
2163.03,ETTINGSHALL MEDICAL CENTRE,-2.092879,52.570364
5984.93,DARTFORD EAST HEALTH CENTRE,0.236914,51.440747
918.52,BOLINGBROKE MEDICAL CENTRE (THMP),-0.168282,51.45617
4493.029999999999,THE BORDER PRACTICE,-0.740565,51.240995
3823.55,WHITELADIES MEDICAL GROUP,-2.612382,51.465097
6301.58,RIVERSIDE SURGERY,-3.006197,53.372004
5468.05,HT PRACTICE,-2.110496,53.478305
7.5,MEDICUS HEALTH PARTNERS-CURZON AVENUE,-0.036518,51.645435
2070.98,UPWELL STREET SURGERY,-1.434724,53.406424
4538.0700000000015,PLOWRIGHT MEDICAL CENTRE,0.686691,52.655577
3162.7100000000005,BEECHWOOD SURGERY,0.292731,51.608567
2126.69,THE NIGHTINGALE PRACTICE,-0.062434,51.558261
8041.95,BELVEDERE MEDICAL CENTRE,0.144376,51.482567
6055.750000000001,ST.LAWRENCE SURGERY,-0.390026,50.823979
8506.19,ESPLANADE SURGERY,-1.158697,50.731943
1750.92,GLASTONBURY HEALTH CENTRE,-2.712893,51.148733
9915.5,MAYFIELD SURGERY,-2.13456,52.982709
4287.3200000000015,BRIDGE MEDICAL,-1.506726,55.038077
1093.18,BCHC MEDICINES MANAGEMENT,-1.9537779999999998,52.398207
3.0,PML NEIGHBOURHOOD HUB (KIDLINGTON),-1.289236,51.821558
3684.52,TASBURGH LODGE SURGERY,-0.21375,53.151242
5325.0,SOTHALL & BEIGHTON HEALTH CENTRES,-1.340221,53.337895
4165.940000000001,THE MEADS SURGERY,0.091624,50.969686
1044.37,RAGSTONE ROAD SURGERY,-0.601832,51.503747
5256.009999999998,WADEBRIDGE & CAMEL ESTUARY PRACTICE,-4.835729,50.514816
4680.89,EVE HILL MEDICAL PRACTICE,-2.096805,52.512922
7278.78,WEST DERBY MEDICAL CENTRE,-2.895944,53.431273
571.57,DR. B. K. PRASHARA,-2.114816,52.456326
9930.4,ORMSKIRK HOUSE SURGERY,-2.74261,53.456686
6481.2,PENNINE MEDICAL CENTRE,-2.040966,53.515337
10956.379999999996,ALNWICK MEDICAL GROUP,-1.6967470000000002,55.410086
10913.709999999995,BOROUGHBURY MEDICAL CENTRE,-0.245486,52.577858
7030.1399999999985,THE ROOKERY MEDICAL CENTRE,0.405573,52.245158
73.56999999999998,MID CLUSTER IAGPS,-1.9731169999999998,50.721987
27.6,SJUH GPS IN A+E,-1.520359,53.806869
4539.83,FIELDHEAD SURGERY,-1.854229,53.641358
9671.520000000002,CROFTON AND SHARLSTON MED PRAC,-1.427042,53.656573
3019.7499999999995,ST.PAUL'S WAY MEDICAL CTR,-0.024483,51.517862
10942.12,WYKE REGIS & LANEHOUSE MEDICAL PRACTICE,-2.475127,50.594634
7786.880000000003,KINGSWOOD HEALTH CENTRE,-2.499974,51.462895
4834.770000000001,THREE VILLAGES MEDICAL PRACTICE,-2.146398,52.465406
3106.15,MELROSE SURGERY,-0.9598620000000002,51.451692
5019.42,ACLE MEDICAL PARTNERSHIP,1.548667,52.640969
7032.000000000001,MARTONSIDE MEDICAL CENTRE,-1.220329,54.553175
2708.71,ROCKLIFFE COURT SURGERY,-1.544074,54.483444
1130.56,CHAPELFORD PRIMARY CARE CENTRE,-2.633066,53.39615799999999
3185.3500000000013,THE SELE MEDICAL PRACTICE,-2.095702,54.970372
5504.82,MARKET WEIGHTON GROUP PRACTICE,-0.674786,53.864903
20873.359999999993,HEALTH CARE FIRST PARTNERSHIP,-1.393615,53.736872
10991.000000000002,BROOM LANE MEDICAL CENTRE,-1.332311,53.417383
1244.71,THE KILLINGHOLME SURGERY,-0.260335,53.62990799999999
3401.82,COMBERTON SURGERY,0.018614,52.189811
5400.16,SHEPHALL HEALTH CENTRE,-0.167642,51.890799
1219.77,WESTBOURNE GROVE MEDICAL CENTRE,-0.200361,51.514211
997.79,MILTON REGIS SURGERY,0.7321839999999998,51.349193
994.58,BURBAGE SURGERY,-1.669545,51.348496
4396.56,THE CREST FAMILY PRACTICE,-2.596274,51.428746
898.99,WORTHEN MEDICAL PRACTICE,-3.000165,52.635224
3225.19,KIRKDALE MEDICAL CENTRE,-2.973842,53.433523
2055.7899999999995,FACCINI HOUSE SURGERY,-0.189379,51.389682
3636.74,JRB HEALTHCARE BEECHDALE SURGERY,-1.198142,52.961504
10559.88,WOODLANDS FAMILY MEDICAL CENTRE,-1.321204,54.561215
3871.450000000001,THE UPPINGHAM SURGERY,-0.723557,52.594972
2758.69,THE THORPE BAY SURGERY,0.757986,51.534599
4439.54,HUDSON (SEYMOUR HOUSE),-0.292773,51.462401
8112.150000000002,WHADDON MEDICAL CENTRE,-0.7662759999999998,52.000308
1000.74,BONEY HAY SURGERY,-1.926768,52.690328
635.2099999999998,GREENFIELD MEDICAL CENTRE,-1.855764,52.491684
2110.99,THE SURGERY,-2.605295,53.024859
3262.2000000000007,MARPLE MEDICAL PRACTICE,-2.064954,53.39495
1132.04,CLOVER CITY PRACTICE,-1.46659,53.38187
5385.250000000001,ASPATRIA MEDICAL GROUP,-3.337992,54.762123
4094.77,WELLSPRING MEDICAL PRACT.,-1.564066,55.037289
1320.05,FAMILY DOCTORS,-1.440964,53.798248
2806.14,NORTH FULHAM SURGERY,-0.199224,51.486415
333.8,LAI CHUNG FONG QUEENS PARK HEALTH CENTRE,-0.205826,51.530911
6591.659999999999,WHEATFIELD SURGERY,-0.495144,51.904445
1214.82,LONG CATLIS ROAD SURGERY,0.595579,51.348325
4257.02,MINET GREEN HEALTH PRACTICE,-0.105204,51.475715
6442.98,NEW ADDINGTON GROUP PRACTICE,-0.018557,51.344382
10888.19,THE ARMADA FAMILY PRACTICE,-2.571861,51.413438
6059.210000000001,LEEK HEALTH CENTRE,-2.019347,53.105691
2166.4100000000008,CHASE MEADOW HEALTH CENTRE,-1.608604,52.268838
1774.7899999999993,CASTLE STREET MEDICAL CENTRE,-1.293753,53.229627
7518.360000000002,HOLT MEDICAL PRACTICE,1.116042,52.914476
1302.8199999999995,UXENDON CRESCENT SURGERY,-0.292809,51.572063
1232.0,STERNDALE SURGERY,-0.221441,51.498326
3842.41,WESTERHAM PRACTICE,0.070437,51.266465
4698.210000000001,STEYNING HEALTH CENTRE,-0.329972,50.890666
1966.6,YOXALL,-1.7931740000000003,52.767984
1957.35,SCHOOLACRE ROAD SURGERY,-1.785797,52.497659
5531.25,WITTON MEDICAL CENTRE,-2.507553,53.740232
641.75,WALMERSLEY ROAD MEDICAL PRACTICE,-2.289525,53.599849
1303.9399999999996,BEVAN HEALTHCARE CIC,-1.753352,53.795581
414.62,MERSEYCARE NHS TRUST,-2.826417,53.424035
5487.789999999998,THE COUNTY PRACTICE,-1.069884,52.70073000000001
6392.51,ORCHARD SURGERY,0.944176,52.678309
4727.160000000002,DR JK MARSDEN'S PRACTICE,-0.436528,51.894968
3425.8100000000013,WHITLEY HOUSE SURGERY,0.455723,51.726539
1076.86,JOYDENS WOOD MEDICAL CENTRE,0.166397,51.42449
10366.739999999998,TRAFALGAR MEDICAL GROUP PRACTICE,-1.092485,50.785331
4968.31,EASTFIELD HOUSE SURGERY,-1.323251,51.395555
6465.949999999999,TUDOR LODGE SURGERY,-2.975378,51.332396
3814.6,PRAZE-AN-BEEBLE SURGERY,-5.309264,50.173753
4517.27,HALL GREEN SURGERY,-2.741349,53.540745
1037.61,LATIMER HEALTH CENTRE,-0.049503,51.54659
4934.11,WHITCHURCH SURGERY,-1.340372,51.230256
2186.5200000000004,DR NEWMAN,-1.975441,50.719722
15.0,PONTELAND RD WIC,-1.656804,54.991604
28.81,BURNLEY LOCALITY NMPS,-2.238948,53.791326
1520.0199999999998,THE WHITSWOOD PRACTICE,-2.253502,53.455769
21.05,GATESHEAD HEALTH COMMUNITY SERVICES,-1.580781,54.93938000000001
1.5,VC WEST LANCS COMMUNITY NURSING,-2.840112,53.602357
3612.2300000000014,BEESTON VILLAGE SURGERY,-1.569152,53.772415
3157.22,BLURTON MEDICAL CENTRE,-2.156565,52.972002
19.84,HASTINGS AND ROTHER OOH,0.891514,51.129106
2776.92,BEWICK ROAD SURGERY,-1.601653,54.956398
7180.79,KEIGHLEY ROAD SURGERY,-1.893907,53.754239
5918.260000000001,MULBERRY STREET MEDICAL PRACTICE,-1.66397,53.794738
3832.0,CHATSWORTH ROAD MEDICAL CENTRE,-1.467337,53.231374
81.0,HAVEN COURT,-1.428468,54.971208
5201.660000000002,BENTHAM ROAD HEALTH CENTRE,-2.50627,53.73058399999999
1.5,INVICTA HEALTH CONNECT FOLKESTONE,1.171894,51.085996
11589.7,DENMARK STREET SURGERY,-1.552252,54.538825
6285.379999999997,PALLION FAMILY PRACTICE,-1.414195,54.908604
1104.84,UEA MEDICAL CENTRE,1.241391,52.622369
252.18,THE STREATFIELD MEDICAL CENTRE,-0.30083,51.595343
1258.8200000000004,THE CHELSEA PRACTICE,-0.166915,51.486814
3708.1299999999987,RYDAL,0.020102,51.608432
5434.3600000000015,GROSVENOR & ST JAMES MEDICAL CENTRE,0.264349,51.137424
702.21,THE THREE ZERO SIX MEDICAL CENTRE,-0.076403,51.450741
2928.31,NEW OTTERSHAW SURGERY,-0.526005,51.361938
5480.109999999999,RIDGEWAY VIEW FAMILY PRACTICE,-1.7915709999999998,51.524175
2031.32,THE HALL PRACTICE,-0.561016,51.606986
1534.2299999999998,HARTLAND SURGERY,-4.482549,50.992721
7656.68,RED BANK GROUP PRACTICE,-2.323706,53.560143
4400.120000000001,GRAVESEND MEDICAL CENTRE,0.369986,51.443932
1615.01,DR WICKREMESINGHE SSG,-0.123521,51.469491
84.89,HAROLD WOOD WIC,0.225699,51.593184
3740.1900000000014,BEECH HOUSE SURGERY,-1.465892,54.010836
9713.51,MANOR PARK SURGERY,-1.628914,53.814076
6457.75,PARKSIDE SURGERY,-1.391868,53.097732
4969.42,BURWELL SURGERY,0.331841,52.273327
1213.48,WEST LONDON MEDICAL CENTRE,-0.454699,51.525731
5586.839999999997,ADELAIDE MEDICAL CENTRE,-1.475274,51.208539
2186.59,TUDOR PRACTICE STOCKLAND GREEN,-1.857329,52.52388199999999
3000.98,WALTON SURGERY,1.335453,51.973564
3378.51,PARKGATE SURGERY,-1.548606,54.523273
849.22,POLLARD ROW SURGERY,-0.064328,51.528266
18.0,RUSHCLIFFE URGENT CARE SERVICE,-1.100495,52.924252
19.5,PML NEIGHBOURHOOD HUB (BANBURY),-1.349027,52.057771
2413.52,ULVERSTON COMMUNITY HEALTH CENTRE,-3.097833,54.198882
5792.42,BISHOPS WALTHAM SURGERY,-1.212149,50.95528
4246.79,LOCKWOOD GP SURGERY,-2.989833,53.850947
964.56,THE ENTERPRISE PRACTICE,-0.320613,51.601113
4875.37,ODDFELLOWS HALL & ST CLEMENTS,0.327906,51.480703
1906.79,CHAUCER SURGERY,-1.45237,52.515151
6498.720000000001,THE ENDEAVOUR PRACTICE,-1.235397,54.575047
197.8,MAYFAIR MEDICAL CENTRE,-0.150172,51.513536
5453.77,FOWEY RIVER PRACTICE,-4.635394,50.337915
4170.59,HOLTS HEALTH CENTRE,-2.406966,51.931555
3846.7099999999987,CUMBERLAND HOUSE,-2.145844,52.901549
2325.1,DR A GUPTA BENIM MEDICAL CENTRE,-2.947804,53.419395
7970.919999999997,RIVERSIDE MEDICAL CENTRE,-2.672299,53.748112
2452.49,LITTLETOWN FAMILY MED PRACT,-2.134298,53.529137
1204.38,CROWN WOOD MEDICAL CENTRE,-0.736934,51.395919
547.6,CITY REACH HEALTH SERVICES,1.288137,52.633042
129.63,PELC REDBRIDGE OOH,0.066648,51.55684
2070.0999999999995,GREENWOOD SURGERY,0.605168,51.653143
187.45,MERTON CCG-CLCH (NMP),-0.199155,51.47377
4774.16,SKELMANTHORPE FAMILY DOCTORS,-1.650686,53.591604
1437.01,PHOENIX PRIMARY CARE (SOUTH) LTD,-0.435422,51.918016
1571.4399999999996,CASSIDY ROAD MEDICAL CENTRE,-0.199015,51.479154
1396.37,ROWHEDGE SURGERY,0.945058,51.85767
4122.91,THE CHESSER SURGERY,-0.177303,51.374927
3737.95,BUGBROOKE MEDICAL PRACTICE,-1.005426,52.211409
2784.1800000000007,TEIGN ESTUARY MEDICAL GROUP,-3.496462,50.5456
4834.719999999998,LUSON,-3.229566,50.977398
1618.4499999999994,HEDNESFORD MEDICAL PRACTICE,-2.000697,52.71233
1267.6999999999996,ROTTON PARK MEDICAL CENTRE,-1.947079,52.482162
5890.0300000000025,NEWTOWN SURGERY,-2.735705,53.362158
14622.550000000005,WINGATE MEDICAL CENTRE,-2.874647,53.488385
1000.46,EGTON SURGERY,-0.7552379999999999,54.445555
499.43,THE PRACTICE-SAYEED,-1.106589,52.63081700000001
5092.579999999999,TRAMWAYS AND MIDDLEWOOD MEDICAL CENTRES,-1.515268,53.418958
10522.830000000004,TULASI MEDICAL CENTRE,0.12448900000000002,51.561005
2954.77,SUTTON VALENCE GROUP PRACTICE,0.59403,51.211195
6533.0,THE STAUNTON SURGERY,-0.978019,50.851067
4347.53,BLUNDELLSANDS SURGERY,-3.041273,53.484452
1837.38,SLAG LANE MC,-2.575634,53.47856899999999
15.0,PRIMARY HEALTHCARE DARLINGTON,-1.561958,54.528141
4.5,SANDWELL HEALTH PARTNERSHIP,-2.011259,52.536236
3014.62,GREAT WITLEY SURGERY,-2.361004,52.291152
3960.9800000000014,MADELEY PRACTICE,-2.345126,52.999856
6789.79,QUEENSWAY MEDICAL CENTRE,-2.995384,53.846569
6358.2400000000025,DR KK CHAN & PARTNERS,-2.489022,53.524185
3155.49,CITY ROAD MEDICAL CENTRE,-0.091116,51.527895
1510.99,BOTOLPH BRIDGE COMMUNITY HEALTH CENTRE,-0.261557,52.562595
16.5,LONG EATON ON DAY SERVICE,-1.272531,52.901553
1.5,SOUTH CHESHIRE & VALE ROYAL PCAH,-2.531272,53.1909
2536.61,GUTTERIDGE MEDICAL CENTRE,-2.691248,53.769881
4566.839999999998,ST MARY'S MEDICAL CENTRE,-2.108554,53.543625
116.76,BEDSER HUB,-0.556304,51.315132
1.5,HARROW RAPID RESPONSE SERVICE,-0.294546,51.596988
163.16,WRAYSDALE HOUSE SURGERY,-3.076077,54.367247
10515.12,SAVILLE MEDICAL GROUP,-1.609598,54.976095
4272.77,COOK BF,-0.357512,53.780969
5003.29,ADELAIDE MEDICAL CENTRE,-0.161257,51.543548
955.25,HOLLINGTON SURGERY,0.872487,51.151423
1482.2500000000002,HARTLAND WAY SURGERY,-0.045782,51.374372
2940.39,COLVILLE HEALTH CENTRE,-0.206231,51.515837
2125.84,THE KINGS FAMILY PRACTICE,0.534548,51.377821
2961.890000000001,FOUNTAIN PRACTICE,-0.252307,51.350378
7423.380000000003,NUFFIELD HEALTH CENTRE,-1.486793,51.786441
1231.4799999999998,240 WEXHAM ROAD,-0.57838,51.516902
3560.9300000000007,THISTLEMOOR MEDICAL CENTRE,-0.254566,52.595274
1500.65,CANTERBURY HEALTH CENTRE,1.082981,51.274249
1411.19,BANBURY HEALTH CENTRE,-1.334014,52.062032
1038.78,SOHO HEALTH CENTRE,-1.934945,52.503094
10604.320000000003,HOLLYNS HEALTH & WELLBEING - CLAYTON,-1.81454,53.779166
4325.869999999999,BRIDGE STREET MEDICAL PRACTICE,-1.20716,52.774841
2782.830000000001,PRIORS FIELD SURGERY,0.124169,52.388951
5371.920000000002,MILLWAY MEDICAL PRACTICE,-0.24359099999999997,51.614985
1.5,MOULSHAM LODGE SURGERY,0.475137,51.716565
1262.4,YORK ROAD SURGERY,0.065859,51.559165
4852.629999999999,ST.GEORGE'S SURGERY,-2.0815,51.906706
6.0,OLDHAM URGENT TREATMENT GTD HEALTHCARE,-2.121831,53.553248
897.4599999999998,CROPREDY SURGERY,-1.320027,52.116731
3105.9600000000005,BIRCHWOOD MEDICAL PRACTICE,-2.547938,51.446246
1991.92,WEST PARK SURGERY,-2.141256,52.587783
940.8,UPTON ROCKS PRIMARY CARE,-2.754371,53.373367
6.46,FARLEIGH HOSPICE,0.467731,51.776479
4276.5899999999965,WELLSBOURNE HEALTHCARE CIC,-0.107386,50.825445
1060.14,P A PATEL SURGERY,0.582273,51.56978
3206.69,CLINTON ROAD SURGERY,-5.224966,50.23093
1541.04,BLOOMSBURY HEALTH CENTRE,-1.876618,52.493743
5916.98,HOUGHTON MEDICAL GROUP ,-1.469175,54.842322
3027.33,LUNDWOOD MEDICAL CENTRE PMS PRACTICE,-1.438538,53.557711
5296.11,BALLARDS WALK SURGERY,0.441841,51.573232
2353.0399999999995,THE HALFWAY SURGERY,0.524157,51.380429
